     2              OBSERVATION DATA                        RINEX VERSION / TYPE
ASHCAN V.  1.90     SOPAC / SCIGN       20000716 04:19:26UTCPGM / RUN BY / DATE
                                                            COMMENT
     SCIGN - Southern California Integrated GPS Network     COMMENT
                                                            COMMENT
      SOPAC - Scripps Orbit and Permanent Array Center      COMMENT
    IGPP - Institute of Geophysics and Planetary Physics    COMMENT
         SIO - Scripps Institution of Oceanography          COMMENT
        UCSD - University of California, San Diego          COMMENT
                                                            COMMENT
                email: archive@lox.ucsd.edu                 COMMENT
                    ftp://lox.ucsd.edu                      COMMENT
                    http://lox.ucsd.edu                     COMMENT
                                                            COMMENT
DHLG DURMID_HILL__                                          MARKER NAME
PFJ                 SOPAC / SCIGN                           OBSERVER / AGENCY
LP02767             ASHTECH Z-XII3      CC00      1D02      REC # / TYPE / VERS
CR519991761         ASH701945B_M    SCIS                    ANT # / TYPE
 -2319099.1500 -4799846.5500  3490090.4400                  APPROX POSITION XYZ
        0.1224        0.0000        0.0000                  ANTENNA: DELTA H/E/N
     1     1                                                WAVELENGTH FACT L1/2
     5    L1    L2    C1    P1    P2                        # / TYPES OF OBSERV
  2000     7    15     0     0   30.000000                  TIME OF FIRST OBS
  2000     7    15    23    59   30.000000                  TIME OF LAST OBS
    30                                                      INTERVAL
                                                            END OF HEADER
 00  7 15  0  0 30.0000000  0  9  1 21 22 30 25 29 20 15 11           .000000000
  -3803282.285 8  -2951332.47345  24664239.294    24664239.2534   24664254.1554
 -16347641.836 9 -12722381.46646  22571917.871    22571917.6574   22571929.1414
  -5208253.549 8  -1833921.71945  24999989.063    24999988.1584   25000008.5824
  -7085663.504 9  -3668176.91745  24427905.522    24427905.7434   24427918.3524
 -27850737.637 9 -21687484.43349  20541884.931    20541885.0794   20541892.8454
 -10188110.915 9  -7637207.64146  23041878.597    23041878.7994   23041888.4984
  -7258304.184 9  -5644710.55446  23346254.887    23346254.4854   23346264.0074
 -13519496.434 9 -10515093.51747  22404593.764    22404593.3724   22404605.0134
 -25013129.043 9 -19464080.30048  21080190.134    21080190.0284   21080197.9994
 00  7 15  0  1  0.0000000  0  9  1 21 22 30 25 29 20 15 11           .000000019
  -3875806.654 8  -3007844.67745  24650438.134    24650437.9684   24650452.9944
 -16280090.447 9 -12669744.12646  22584772.547    22584772.3474   22584783.8504
  -5301061.013 8  -1906238.91145  24982328.219    24982327.0154   24982347.7644
  -7088655.612 9  -3670508.36045  24427336.167    24427336.3874   24427348.8484
 -27854382.196 9 -21690324.32649  20541191.362    20541191.5294   20541199.2754
 -10119577.004 9  -7583804.65746  23054920.225    23054920.4614   23054930.1014
  -7346638.923 9  -5713542.74646  23329445.232    23329444.8524   23329454.4064
 -13413161.175 9 -10432234.99047  22424828.739    22424828.3744   22424840.0024
 -25013579.883 9 -19464431.59648  21080104.333    21080104.2374   21080112.1874
 00  7 15  0  1 30.0000000  0  9  1 21 22 30 25 29 20 15 11           .000000018
  -3948206.507 8  -3064259.84445  24636660.639    24636660.4154   24636675.3664
 -16212226.210 9 -12616863.00446  22597686.796    22597686.5664   22597698.1364
  -5394035.777 8  -1978686.48645  24964635.464    24964634.7134   24964654.6664
  -7091150.814 9  -3672452.60545  24426861.279    24426861.4754   24426873.9884
 -27857506.515 9 -21692758.83549  20540596.776    20540596.9514   20540604.7004
 -10051025.915 9  -7530388.28346  23067965.094    23067965.3704   23067975.0154
  -7434938.080 9  -5782347.21246  23312642.377    23312641.9644   23312651.6144
 -13306604.369 9 -10349203.83847  22445105.905    22445105.5474   22445117.2764
 -25013451.751 9 -19464331.74748  21080128.686    21080128.5814   21080136.5374
 00  7 15  0  2  0.0000000  0  9  1 21 22 30 25 29 20 15 11           .000000017
  -4020482.625 8  -3120578.61545  24622906.715    24622906.4874   24622921.5004
 -16144050.064 9 -12563738.83746  22610660.352    22610660.1064   22610671.7134
  -5487176.809 8  -2051263.59345  24946911.106    24946910.2634   24946930.2354
  -7093148.691 9  -3674009.33145  24426480.977    24426481.2494   24426493.6894
 -27860111.723 9 -21694788.84549  20540101.019    20540101.1844   20540108.9314
  -9982458.784 9  -7476959.41546  23081012.962    23081013.2174   23081022.9434
  -7523201.139 9  -5851123.55846  23295846.419    23295845.9914   23295855.6564
 -13199829.765 9 -10266002.96747  22465424.536    22465424.1904   22465435.9154
 -25012745.851 9 -19463781.68648  21080263.036    21080262.9284   21080270.8894
 00  7 15  0  2 30.0000000  0  9  1 21 22 30 25 29 20 15 11           .000000016
  -4092635.469 8  -3176801.34045  24609176.246    24609175.9424   24609190.9504
 -16075563.121 9 -12510372.49446  22623693.065    22623692.8234   22623704.4904
  -5580482.416 8  -2123968.96045  24929155.321    24929154.6054   24929174.5594
  -7094648.848 9  -3675178.23245  24426195.373    24426195.7074   24426208.0814
 -27862198.841 9 -21696415.14449  20539703.833    20539704.0094   20539711.7514
  -9913876.895 9  -7423519.05346  23094063.707    23094063.9024   23094073.6724
  -7611427.019 9  -5919870.93546  23279057.544    23279057.1144   23279066.7154
 -13092841.097 9 -10182635.29047  22485783.895    22485783.5664   22485795.2834
 -25011462.684 9 -19462781.81248  21080507.177    21080507.0794   21080515.0434
 00  7 15  0  3  0.0000000  0  9  1 21 22 30 25 29 20 15 11           .000000015
  -4164665.540 8  -3232928.41145  24595469.171    24595468.8814   24595483.5694
 -16006766.050 9 -12456764.49646  22636784.779    22636784.5404   22636796.2714
  -5673950.150 8  -2196800.68645  24911368.884    24911368.2494   24911388.1874
  -7095650.776 9  -3675958.89845  24426004.756    24426004.9094   24426017.2544
 -27863768.793 9 -21697638.45949  20539405.063    20539405.2264   20539412.9734
  -9845280.720 9  -7370067.55646  23107117.208    23107117.4164   23107127.1554
  -7699614.694 9  -5988588.54046  23262275.894    23262275.5024   23262285.0864
 -12985641.500 9 -10099103.26047  22506183.422    22506183.0434   22506194.7944
 -25009603.083 9 -19461332.76748  21080861.038    21080860.9344   21080868.9174
 00  7 15  0  3 30.0000000  0  9  1 21 22 30 25 29 20 15 11           .000000015
  -4236573.048 8  -3288959.95845  24581785.365    24581785.0354   24581799.6714
 -15937659.621 9 -12402915.43646  22649935.359    22649935.1764   22649946.8724
  -5767577.367 8  -2269756.67445  24893552.065    24893551.3444   24893571.2704
  -7096153.824 9  -3676350.82445  24425908.877    24425909.1354   24425921.2494
 -27864822.102 9 -21698459.18849  20539204.597    20539204.7654   20539212.5164
  -9776670.943 9  -7316605.44746  23120173.303    23120173.4384   23120183.2534
  -7787762.632 9  -6057275.17846  23245501.838    23245501.4544   23245510.9564
 -12878233.682 9 -10015408.98647  22526622.514    22526622.1244   22526633.9244
 -25007167.243 9 -19459434.69948  21081324.556    21081324.4634   21081332.4464
 00  7 15  0  4  0.0000000  0  9  1 21 22 30 25 29 20 15 11           .000000014
  -4308358.016 8  -3344896.04445  24568124.941    24568124.5524   24568139.4824
 -15868243.705 9 -12348825.22946  22663144.866    22663144.6814   22663156.4294
  -5861361.560 8  -2342834.97645  24875705.277    24875704.6784   24875724.5604
  -7096157.172 9  -3676353.37945  24425908.222    24425908.4254   24425920.4904
 -27865359.258 9 -21698877.72249  20539102.363    20539102.5254   20539110.2664
  -9708048.061 9  -7263133.13246  23133231.846    23133231.9674   23133241.8384
  -7875869.304 9  -6125929.65646  23228735.619    23228735.3114   23228744.7774
 -12770620.892 9  -9931554.98147  22547100.657    22547100.2674   22547112.0834
 -25004155.473 9 -19457087.86148  21081897.672    21081897.5664   21081905.5804
 00  7 15  0  4 30.0000000  0  9  1 21 22 30 25 29 20 15 11           .000000014
  -4380021.025 8  -3400737.10145  24554487.763    24554487.5124   24554501.9764
 -15798518.749 9 -12294494.19546  22676413.118    22676412.9454   22676424.7434
  -5955301.099 8  -2416034.33145  24857828.986    24857828.3344   24857848.1224
  -7095660.212 9  -3675966.07045  24426002.772    24426002.9104   24426015.0284
 -27865380.942 9 -21698894.59249  20539098.202    20539098.3684   20539106.1064
  -9639412.908 9  -7209651.25346  23146292.748    23146292.8954   23146302.7574
  -7963934.081 9  -6194551.49146  23211977.440    23211977.0834   23211986.5334
 -12662806.374 9  -9847543.79347  22567617.219    22567616.7744   22567628.6114
 -25000568.436 9 -19454292.76648  21082580.251    21082580.1534   21082588.1554
 00  7 15  0  5  0.0000000  0  9  1 21 22 30 25 29 20 15 11           .000000013
  -4451561.730 8  -3456482.83745  24540873.713    24540873.5564   24540887.8614
 -15728484.761 9 -12239922.36146  22689740.240    22689740.1104   22689751.8704
  -6049393.270 8  -2489352.62445  24839923.624    24839922.9704   24839942.5414
  -7094661.874 9  -3675188.08945  24426192.628    24426192.7994   24426204.8534
 -27864887.604 9 -21698510.14849  20539192.088    20539192.2434   20539199.9684
  -9570765.462 9  -7156159.79946  23159355.998    23159356.1614   23159366.0124
  -8051954.498 9  -6263138.75246  23195227.679    23195227.3684   23195236.7284
 -12554792.737 9  -9763377.44847  22588171.598    22588171.1944   22588183.0504
 -24996406.157 9 -19451049.42748  21083372.326    21083372.2154   21083380.2144
 00  7 15  0  5 30.0000000  0  9  1 21 22 30 25 29 20 15 11           .000000013
  -4522980.184 8  -3512133.33045  24527283.033    24527282.9364   24527297.0904
 -15658142.478 9 -12185110.30646  22703126.050    22703125.8934   22703137.6894
  -6143635.171 8  -2562787.58245  24821989.779    24821989.0854   24822008.5684
  -7093161.253 9  -3674018.73445  24426478.164    24426478.3904   24426490.3104
 -27863880.026 9 -21697724.99349  20539383.790    20539383.9504   20539391.6624
  -9502106.240 9  -7102659.16246  23172421.418    23172421.5574   23172431.5284
  -8139929.419 9  -6331690.56446  23178486.493    23178486.2194   23178495.5804
 -12446582.998 9  -9679058.29246  22608763.318    22608762.9194   22608774.8014
 -24991668.936 9 -19447358.08048  21084273.758    21084273.6614   21084281.6554
 00  7 15  0  6  0.0000000  0  9  1 21 22 30 25 29 20 15 11           .000000013
  -4594276.617 8  -3567688.73645  24513715.532    24513715.3184   24513729.6864
 -15587492.470 9 -12130058.46546  22716570.369    22716570.2354   22716582.0144
  -6238023.955 8  -2636337.02645  24804027.954    24804027.2494   24804046.8004
  -7091157.852 9  -3672457.59745  24426859.468    24426859.6274   24426871.5294
 -27862358.370 9 -21696539.26349  20539673.334    20539673.4904   20539681.2164
  -9433435.637 9  -7049149.66746  23185489.054    23185489.1804   23185499.1994
  -8227857.313 9  -6400205.72146  23161754.325    23161754.0124   23161763.3774
 -12338179.810 9  -9594588.40646  22629391.871    22629391.4584   22629403.3484
 -24986357.247 9 -19443219.10448  21085284.547    21085284.4614   21085292.4224
 00  7 15  0  6 30.0000000  0  9  1 21 22 30 25 29 20 15 11           .000000012
  -4665451.258 8  -3623149.25745  24500171.286    24500171.0654   24500185.5304
 -15516534.956 9 -12074767.01446  22730073.192    22730073.0284   22730084.9144
  -6332557.615 8  -2709999.32245  24786038.603    24786037.8644   24786056.8934
  -7088651.099 9  -3670504.22245  24427336.405    24427336.4564   24427348.4624
 -27860323.565 9 -21694953.67749  20540060.502    20540060.6624   20540068.3804
  -9364754.278 9  -6995631.79446  23198558.706    23198558.7724   23198568.8614
  -8315736.720 9  -6468683.09246  23145031.356    23145031.0694   23145040.4624
 -12229586.493 9  -9509970.36546  22650056.592    22650056.1524   22650068.0834
 -24980471.525 9 -19438632.82448  21086404.565    21086404.4664   21086412.4414
 00  7 15  0  7  0.0000000  0  9  1 21 22 30 25 29 20 15 11           .000000012
  -4736503.907 8  -3678514.72345  24486650.276    24486649.9964   24486664.3624
 -15445269.749 9 -12019235.79746  22743634.584    22743634.3894   22743646.2714
  -6427233.565 8  -2783772.52645  24768022.093    24768021.4274   24768040.2584
  -7085640.103 9  -3668157.95345  24427909.238    24427909.3504   24427921.3564
 -27857775.957 9 -21692968.50549  20540545.316    20540545.4564   20540553.1854
  -9296062.165 9  -6942105.52946  23211630.400    23211630.5234   23211640.5714
  -8403565.825 9  -6537121.27546  23128317.974    23128317.6994   23128327.0834
 -12120805.522 9  -9425206.10446  22670757.034    22670756.6114   22670768.5514
 -24974012.153 9 -19433599.54548  21087633.733    21087633.6454   21087641.6294
 00  7 15  0  7 30.0000000  0  9  1 21 22 30 25 29 20 15 11           .000000011
  -4807434.638 8  -3733785.19545  24473152.428    24473152.1494   24473166.5104
 -15373697.843 9 -11963465.60246  22757254.327    22757254.1314   22757266.0604
  -6522049.473 8  -2857654.76145  24749978.908    24749978.2474   24749997.1944
  -7082123.901 9  -3665418.02745  24428578.355    24428578.4074   24428590.5294
 -27854716.245 9 -21690584.28949  20541127.544    20541127.6834   20541135.3934
  -9227359.811 9  -6888571.29046  23224704.047    23224704.2514   23224714.3314
  -8491343.310 9  -6605519.22346  23111614.438    23111614.1624   23111623.5064
 -12011840.079 9  -9340298.09946  22691492.536    22691492.0874   22691504.0684
 -24966979.527 9 -19428119.57648  21088971.988    21088971.9084   21088979.8804
 00  7 15  0  8  0.0000000  0  9  1 21 22 30 25 29 20 15 11           .000000011
  -4878243.901 8  -3788961.01645  24459677.743    24459677.5584   24459691.6504
 -15301819.440 9 -11907456.57946  22770932.406    22770932.2114   22770944.1894
  -6617002.536 8  -2931643.86145  24731909.748    24731909.0964   24731927.9334
  -7078102.231 9  -3662284.20945  24429343.648    24429343.6874   24429355.7734
 -27851145.234 9 -21687801.66149  20541807.061    20541807.1934   20541814.8934
  -9158647.958 9  -6835029.63446  23237779.582    23237779.7204   23237789.7964
  -8579067.779 9  -6673875.86446  23094921.012    23094920.7294   23094930.0374
 -11902693.134 9  -9255248.66146  22712262.596    22712262.1674   22712274.1494
 -24959374.390 9 -19422193.49548  21090419.194    21090419.1074   21090427.0654
 00  7 15  0  8 30.0000000  0  9  1 21 22 30 25 29 20 15 11           .000000011
  -4948931.631 8  -3844042.15545  24446226.152    24446225.9404   24446240.0674
 -15229634.669 9 -11851208.82146  22784668.819    22784668.6324   22784680.6654
  -6712089.808 8  -3005737.53345  24713815.012    24713814.6224   24713833.1724
  -7073574.005 9  -3658755.66445  24430205.266    24430205.4004   24430217.3494
 -27847063.473 9 -21684621.04549  20542583.773    20542583.9154   20542591.5884
  -9089926.651 9  -6781480.62246  23250856.876    23250856.9874   23250867.1064
  -8666737.343 9  -6742189.72646  23078238.024    23078237.6694   23078246.9894
 -11793367.440 9  -9170059.93646  22733066.673    22733066.2364   22733078.2854
 -24951196.936 9 -19415821.45448  21091975.312    21091975.2104   21091983.1964
 00  7 15  0  9  0.0000000  0  9  1 21 22 30 25 29 20 15 11           .000000011
  -5019497.857 8  -3899028.60445  24432797.706    24432797.4374   24432811.5054
 -15157143.905 9 -11794722.62646  22798463.423    22798463.2124   22798475.2524
  -6807308.910 8  -3079933.94745  24695695.186    24695694.7274   24695713.3054
  -7068538.869 9  -3654832.11845  24431163.449    24431163.5974   24431175.5784
 -27842472.056 9 -21681043.30049  20543457.468    20543457.6104   20543465.2894
  -9021196.371 9  -6727924.62046  23263935.848    23263935.9524   23263946.1994
  -8754350.357 9  -6810459.52946  23061565.778    23061565.4304   23061574.7554
 -11683866.006 9  -9084734.27646  22753904.181    22753903.7304   22753915.8234
 -24942447.898 9 -19409004.02648  21093640.211    21093640.0974   21093648.0944
 00  7 15  0  9 30.0000000  0  9  1 21 22 30 25 29 20 15 11           .000000010
  -5089942.925 8  -3953920.62845  24419392.274    24419392.0074   24419406.0654
 -15084348.173 9 -11737998.79646  22812316.079    22812315.8424   22812327.9724
  -6902657.736 8  -3154231.44545  24677550.635    24677549.9494   24677568.5984
  -7062996.125 9  -3650513.05545  24432218.188    24432218.3774   24432230.3244
 -27837371.323 9 -21677068.68149  20544428.106    20544428.2484   20544435.9314
  -8952457.323 9  -6674361.77246  23277016.501    23277016.5964   23277026.8264
  -8841905.379 9  -6878684.14146  23044904.553    23044904.1754   23044913.4614
 -11574191.927 9  -8999274.09646  22774774.542    22774774.0624   22774786.2744
 -24933127.824 9 -19401741.63448  21095413.760    21095413.6594   21095421.6334
 00  7 15  0 10  0.0000000  0  9  1 21 22 30 25 29 20 15 11           .000000010
  -5160266.794 8  -4008718.23145  24406009.898    24406009.6414   24406023.6214
 -15011247.724 9 -11681037.51546  22826226.743    22826226.5324   22826238.6754
  -6998133.520 8  -3228627.85045  24659381.922    24659381.1974   24659399.7974
  -7056945.129 9  -3645797.94245  24433369.488    24433369.7604   24433381.6404
 -27831761.995 9 -21672697.75449  20545495.490    20545495.6294   20545503.3224
  -8883710.131 9  -6620792.60046  23290098.650    23290098.7504   23290109.0344
  -8929400.873 9  -6946862.35546  23028254.677    23028254.2114   23028263.5314
 -11464347.939 9  -8913681.52046  22795677.250    22795676.8014   22795689.0454
 -24923237.167 9 -19394034.63348  21097295.895    21097295.7964   21097303.7654
 00  7 15  0 10 30.0000000  0  9  1 21 22 30 25 29 20 15 11           .000000009
  -5230469.396 9  -4063421.32645  24392650.607    24392650.3904   24392664.3134
 -14937842.654 9 -11623838.85746  22840195.317    22840195.1224   22840207.2474
  -7093733.055 8  -3303120.68945  24641189.811    24641189.1704   24641207.4774
  -7050385.548 9  -3640686.54745  24434617.675    24434618.0054   24434629.7874
 -27825644.709 9 -21667931.01349  20546659.550    20546659.6944   20546667.3804
  -8814954.609 9  -6567216.91846  23303182.360    23303182.5334   23303192.8124
  -9016834.933 9  -7014992.71346  23011616.464    23011616.0204   23011625.2704
 -11354336.546 9  -8827958.50046  22816611.841    22816611.4384   22816623.6334
 -24912776.436 9 -19385883.41848  21099286.502    21099286.4084   21099294.3854
 00  7 15  0 11  0.0000000  0  9  1 21 22 30 25 29 20 15 11           .000000009
  -5300551.132 9  -4118030.24345  24379314.351    24379314.1324   24379327.9644
 -14864133.432 9 -11566403.20846  22854221.822    22854221.6624   22854233.7744
  -7189453.901 8  -3377708.06945  24622974.521    24622973.9104   24622991.9574
  -7043316.951 9  -3635178.51345  24435962.770    24435963.2644   24435974.9544
 -27819020.591 9 -21662769.34349  20547920.062    20547920.2114   20547927.8984
  -8746191.571 9  -6513635.40546  23316267.555    23316267.7044   23316278.0994
  -9104206.224 9  -7083074.15246  22994990.248    22994989.8004   22994999.0384
 -11244161.273 9  -8742107.76546  22837577.602    22837577.2044   22837589.4424
 -24901746.473 9 -19377288.65148  21101385.452    21101385.3554   21101393.3124
 00  7 15  0 11 30.0000000  0  9  1 21 22 30 25 29 20 15 11           .000000009
  -5370512.129 9  -4172545.09145  24366001.068    24366000.8194   24366014.7134
 -14790121.333 9 -11508731.55346  22868305.960    22868305.7414   22868317.8814
  -7285293.577 8  -3452388.04445  24604736.601    24604735.8564   24604754.0504
  -7035738.686 9  -3629273.34545  24437404.811    24437405.2574   24437416.9344
 -27811890.377 9 -21657213.30849  20549276.864    20549277.0224   20549284.7144
  -8677421.370 9  -6460048.30246  23329354.120    23329354.3044   23329364.5614
  -9191513.117 9  -7151105.41646  22978376.220    22978375.8024   22978384.9684
 -11133824.975 9  -8656131.56846  22858574.000    22858573.5994   22858585.8884
 -24890147.754 9 -19368250.69948  21103592.590    21103592.5074   21103600.4524
 00  7 15  0 12  0.0000000  0  9  1 21 22 30 25 29 20 15 11           .000000009
  -5440352.369 9  -4226965.84845  24352710.783    24352710.5104   24352724.1784
 -14715805.933 9 -11450823.56746  22882447.808    22882447.5814   22882459.7734
  -7381249.623 8  -3527158.68345  24586476.631    24586475.8874   24586494.0124
  -7027649.741 9  -3622970.22345  24438944.118    24438944.5714   24438956.0884
 -27804254.753 9 -21651263.45049  20550729.840    20550729.9964   20550737.6754
  -8608644.072 9  -6406455.67046  23342441.977    23342442.2244   23342452.4984
  -9278754.008 9  -7219085.24146  22961774.746    22961774.3554   22961783.4514
 -11023330.215 9  -8570031.89546  22879600.501    22879600.1624   22879612.4484
 -24877981.060 9 -19358770.16748  21105907.887    21105907.7944   21105915.7134
 00  7 15  0 12 30.0000000  0  9  1 21 22 30 25 29 20 15 11           .000000008
  -5510072.194 9  -4281292.77745  24339443.402    24339443.0654   24339456.6574
 -14641188.114 9 -11392679.90646  22896647.203    22896647.0314   22896659.1024
  -7477319.378 8  -3602017.91845  24568194.975    24568194.1944   24568212.4094
  -7019050.218 9  -3616269.26545  24440580.547    24440580.9384   24440592.5574
 -27796114.473 9 -21644920.35649  20552278.895    20552279.0434   20552286.7234
  -8539860.047 9  -6352857.80046  23355531.232    23355531.4924   23355541.7964
  -9365927.126 9  -7287012.27146  22945186.140    22945185.7794   22945194.8694
 -10912680.121 9  -8483811.18846  22900656.639    22900656.2454   22900668.5754
 -24865247.171 9 -19348847.66148  21108331.049    21108330.9664   21108338.8884
 00  7 15  0 13  0.0000000  0  9  1 21 22 30 25 29 20 15 11           .000000008
  -5579673.089 9  -4335527.02745  24326198.657    24326198.3634   24326211.7684
 -14566269.702 9 -11334302.04046  22910903.804    22910903.6214   22910915.7464
  -7573501.283 8  -3676964.54745  24549892.073    24549891.2444   24549909.3044
  -7009940.952 9  -3609171.09345  24442314.015    24442314.3284   24442326.0304
 -27787472.090 9 -21638186.00849  20553923.473    20553923.6154   20553931.3154
  -8471071.203 9  -6299256.16346  23368621.454    23368621.6394   23368631.9274
  -9453032.245 9  -7354886.33146  22928610.530    22928610.1644   22928619.1784
 -10801879.143 9  -8397472.91246  22921741.489    22921741.1084   22921753.4734
 -24851948.251 9 -19338484.88348  21110861.766    21110861.6844   21110869.6174
 00  7 15  0 13 30.0000000  0  9  1 21 22 30 25 29 20 15 11           .000000006
  -5649155.212 9  -4389668.73645  24312976.480    24312976.1474   24312989.5734
 -14491050.883 9 -11275690.08546  22925217.531    22925217.3424   22925229.4944
  -7669792.479 8  -3751996.32945  24531568.277    24531567.4604   24531585.3234
  -7000321.438 9  -3601675.32945  24444144.569    24444144.9014   24444156.6104
 -27778328.106 9 -21631060.80649  20555663.496    20555663.6404   20555671.3294
  -8402277.637 9  -6245650.87246  23381712.539    23381712.6874   23381722.9494
  -9540067.516 9  -7422705.95346  22912048.219    22912047.8994   22912056.8314
 -10690930.012 9  -8311019.19146  22942854.565    22942854.1624   22942866.5314
 -24838084.869 9 -19327682.26248  21113499.876    21113499.7684   21113507.7224
 00  7 15  0 14  0.0000000  0  9  1 21 22 30 25 29 20 15 11           .000000004
  -5718515.887 9  -4443715.81345  24299777.391    24299777.0654   24299790.4594
 -14415530.343 9 -11216843.01346  22939588.727    22939588.4834   22939600.7344
  -7766187.618 8  -3827109.10245  24513224.618    24513223.9194   24513241.6814
  -6990188.698 8  -3593779.66345  24446072.665    24446072.8674   24446084.6624
 -27768680.855 9 -21623543.44949  20557499.283    20557499.4294   20557507.1184
  -8333476.857 9  -6192039.92946  23394804.953    23394805.1034   23394815.2574
  -9627028.496 9  -7490467.69646  22895500.079    22895499.7164   22895508.6964
 -10579832.870 9  -8224450.13946  22963995.759    22963995.3174   22964007.7464
 -24823654.991 9 -19316438.21548  21116245.811    21116245.7074   21116253.6704
 00  7 15  0 14 30.0000000  0  9  1 21 22 30 25 29 20 15 11           .000000003
  -5787755.684 9  -4497668.68645  24286601.299    24286601.0774   24286614.2944
 -14339708.540 9 -11157761.21746  22954017.208    22954016.9844   22954029.2934
  -7862684.918 8  -3902301.47245  24494861.447    24494860.8114   24494878.5974
  -6979542.595 9  -3585483.97745  24448098.481    24448098.7634   24448110.6004
 -27758531.625 9 -21615634.94249  20559430.572    20559430.7524   20559438.4244
  -8264669.668 9  -6138424.01046  23407898.646    23407898.7294   23407908.9394
  -9713914.205 9  -7558170.78246  22878966.208    22878965.8324   22878974.8494
 -10468591.063 9  -8137768.36846  22985164.479    22985164.0424   22985176.4944
 -24808659.951 9 -19304753.78048  21119099.284    21119099.1924   21119107.1614
 00  7 15  0 15  0.0000000  0  9  1 21 22 30 25 29 20 15 11           .000000003
  -5856875.541 9  -4551528.10645  24273448.062    24273447.7824   24273461.0744
 -14263586.529 9 -11098445.48746  22968502.875    22968502.6264   22968514.9774
  -7959282.094 8  -3977571.68845  24476479.353    24476478.8764   24476496.5824
  -6968383.347 9  -3576788.43245  24450222.008    24450222.2244   24450234.0094
 -27747882.225 9 -21607336.68749  20561457.049    20561457.2294   20561464.9074
  -8195856.872 9  -6084803.71746  23420993.326    23420993.3934   23421003.6144
  -9800723.537 9  -7625814.35746  22862446.881    22862446.4484   22862455.4994
 -10357208.427 9  -8050976.85946  23006360.002    23006359.5584   23006372.0134
 -24793101.504 9 -19292630.33048  21122059.964    21122059.8724   21122067.8514
 00  7 15  0 15 30.0000000  0  9  1 21 22 30 25 29 20 15 11           .000000003
  -5925875.455 9  -4605294.07345  24260317.635    24260317.4234   24260330.6124
 -14187164.837 9 -11038896.22546  22983045.512    22983045.3094   22983057.6134
  -8055976.154 8  -4052917.40245  24458078.897    24458078.6364   24458096.0124
  -6956710.721 9  -3567692.83745  24452443.279    24452443.4764   24452455.1384
 -27736733.115 9 -21598649.05649  20563578.647    20563578.8214   20563586.4964
  -8127039.141 9  -6031179.57146  23434088.904    23434089.0784   23434099.2484
  -9887454.707 9  -7693397.03746  22845942.413    22845942.0044   22845951.0324
 -10245687.920 9  -7964077.91846  23027581.780    23027581.3974   23027593.8804
 -24776980.277 9 -19280068.34948  21125127.741    21125127.6484   21125135.6424
 00  7 15  0 16  0.0000000  0  9  1 21 22 30 25 29 20 15 11           .000000002
  -5994755.542 9  -4658966.67345  24247210.003    24247209.8064   24247222.9884
 -14110444.511 9 -10979114.28146  22997644.989    22997644.8124   22997657.1604
  -8152764.357 9  -4128336.44745  24439660.486    24439660.1164   24439677.5764
  -6944524.694 9  -3558197.20945  24454762.137    24454762.4104   24454774.0104
 -27725085.442 9 -21589572.93149  20565795.147    20565795.3164   20565802.9734
  -8058216.300 9  -5977551.43946  23447185.466    23447185.6414   23447195.8464
  -9974106.110 9  -7760917.55346  22829453.147    22829452.7594   22829461.7104
 -10134032.212 9  -7877073.63146  23048829.247    23048828.8774   23048841.3844
 -24760297.192 9 -19267068.55648  21128302.423    21128302.3214   21128310.3144
 00  7 15  0 16 30.0000000  0  9  1 21 22 30 25 29 20 15 11           .000000002
  -6063516.246 9  -4712546.23145  24234125.145    24234124.9164   24234138.1044
 -14033426.141 9 -10919100.09046  23012301.172    23012301.0764   23012313.4334
  -8249644.258 9  -4203826.95845  24421224.684    24421224.2094   24421241.6474
  -6931824.724 9  -3548301.10045  24457178.872    24457179.2174   24457190.7594
 -27712940.623 9 -21580109.42249  20568106.226    20568106.3864   20568114.0324
  -7989388.874 9  -5923919.74746  23460283.027    23460283.2534   23460293.2614
 -10060675.864 9  -7828374.44147  22812979.454    22812979.0334   22812988.0514
 -10022244.179 9  -7789966.23546  23070101.929    23070101.5514   23070114.0994
 -24743053.100 9 -19253631.61748  21131583.880    21131583.7694   21131591.7594
 00  7 15  0 17  0.0000000  0  9  1 21 22 30 25 29 20 15 11           .000000002
  -6132157.931 8  -4766033.05445  24221062.892    24221062.6774   24221075.8314
 -13956110.789 9 -10858854.49746  23027013.831    23027013.7204   23027026.2444
  -8346613.563 9  -4279387.12245  24402771.800    24402771.3034   24402788.6694
  -6918610.923 9  -3538004.60045  24459693.334    24459693.6374   24459705.2764
 -27700299.381 9 -21570259.08949  20570511.760    20570511.9214   20570519.5734
  -7920557.268 9  -5870284.78846  23473381.295    23473381.5164   23473391.5544
 -10147162.635 9  -7895766.68047  22796521.466    22796521.0874   22796530.1274
  -9910327.063 9  -7702758.26046  23091399.127    23091398.8074   23091411.3494
 -24725249.071 9 -19239758.35948  21134971.909    21134971.8134   21134979.7944
 00  7 15  0 17 30.0000000  0  9  1 21 22 30 25 29 20 15 11           .000000002
  -6200680.610 8  -4819427.17745  24208023.283    24208023.1244   24208036.1224
 -13878498.182 9 -10798377.27046  23041783.105    23041782.9854   23041795.5494
  -8443669.108 8  -4355014.49145  24384302.457    24384302.0394   24384319.3354
  -6904882.859 9  -3527307.37545  24462305.611    24462305.9484   24462317.5404
 -27687162.819 9 -21560022.79649  20573011.547    20573011.7104   20573019.3574
  -7851721.427 9  -5816646.53246  23486480.345    23486480.5384   23486490.6764
 -10233564.409 9  -7963092.68847  22780079.750    22780079.3394   22780088.3994
  -9798283.573 9  -7615451.80846  23112720.420    23112720.0564   23112732.6534
 -24706886.006 9 -19225449.48848  21138466.266    21138466.1644   21138474.1604
 00  7 15  0 18  0.0000000  0  9  1 21 22 30 25 29 20 15 11           .000000002
  -6269084.631 8  -4872728.80245  24195006.242    24195005.9874   24195019.0934
 -13800589.095 9 -10737669.03546  23056608.815    23056608.6224   23056621.2264
  -8540807.838 8  -4430706.66845  24365817.242    24365816.8174   24365834.0554
  -6890640.425 9  -3516209.36645  24465015.887    24465016.1424   24465027.7014
 -27673532.011 9 -21549401.37549  20575605.379    20575605.5454   20575613.1864
  -7782882.021 9  -5763005.50346  23499580.139    23499580.2594   23499590.3724
 -10319879.565 9  -8030351.20247  22763654.542    22763654.1604   22763663.1234
  -9686116.742 9  -7528049.24546  23134065.168    23134064.7504   23134077.4444
 -24687965.091 9 -19210705.92748  21142066.800    21142066.6924   21142074.6914
 00  7 15  0 18 30.0000000  0  9  1 21 22 30 25 29 20 15 11           .000000001
  -6337370.134 8  -4925938.08245  24182011.703    24182011.5924   24182024.5864
 -13722384.513 9 -10676730.53946  23071490.769    23071490.5394   23071503.2734
  -8638027.185 8  -4506461.67345  24347316.722    24347316.3144   24347333.5184
  -6875883.548 9  -3504710.46245  24467823.988    24467824.1884   24467835.7334
 -27659408.106 9 -21538395.72349  20578293.082    20578293.2444   20578300.8874
  -7714039.032 9  -5709361.67446  23512680.614    23512680.7094   23512690.8524
 -10406106.449 9  -8097540.92747  22747246.081    22747245.6894   22747254.6314
  -9573829.692 9  -7440553.01946  23155432.808    23155432.3674   23155445.1234
 -24668487.269 9 -19195528.41148  21145773.299    21145773.2164   21145781.2084
 00  7 15  0 19  0.0000000  0  9  1 21 22 30 25 29 20 15 11           .000000001
  -6405537.419 9  -4979055.24045  24169039.723    24169039.6624   24169052.4674
 -13643884.738 9 -10615562.03046  23086428.883    23086428.6284   23086441.3584
  -8735324.682 8  -4582277.58745  24328801.340    24328800.9424   24328818.0474
  -6860611.838 9  -3492810.40245  24470730.130    24470730.4154   24470741.9564
 -27644791.914 9 -21527006.47149  20581074.448    20581074.5994   20581082.2324
  -7645192.884 9  -5655715.37446  23525781.542    23525781.7294   23525791.9374
 -10492243.178 9  -8164660.40047  22730854.724    22730854.3474   22730863.2954
  -9461425.118 9  -7352965.19846  23176822.860    23176822.4104   23176835.1434
 -24648453.727 9 -19179917.86848  21149585.563    21149585.4674   21149593.4904
 00  7 15  0 19 30.0000000  0 10  1 21 22 30 25 29 20 16 15 11        .000000001
  -6473586.406 8  -5032080.22545  24156090.279    24156090.2774   24156102.9524
 -13565090.652 9 -10554164.17846  23101423.024    23101422.7784   23101435.5094
  -8832697.509 8  -4658152.18045  24310271.733    24310271.2604   24310288.1674
  -6844825.141 9  -3480509.04245  24473734.349    24473734.4964   24473746.0764
 -27629684.497 9 -21515234.44949  20583949.300    20583949.4484   20583957.0714
  -7576343.381 9  -5602066.49146  23538883.169    23538883.3704   23538893.6884
 -10578287.896 9  -8231708.16047  22714480.932    22714480.5834   22714489.4854
   -928340.889 8   -700980.81845  25546090.240    25546087.3724   25546099.2004
  -9348905.651 9  -7265287.87146  23198234.788    23198234.2964   23198247.0954
 -24627865.269 9 -19163874.92248  21153503.448    21153503.3344   21153511.3594
 00  7 15  0 20  0.0000000  0 10  1 21 22 30 25 29 20 16 15 11        .000000001
  -6541517.639 8  -5085013.46145  24143163.287    24143163.1564   24143175.9174
 -13486003.219 9 -10492537.76346  23116472.921    23116472.7694   23116485.4044
  -8930142.917 8  -4734083.35745  24291728.353    24291727.7384   24291744.3534
  -6828523.665 9  -3467806.55845  24476836.340    24476836.5184   24476848.2004
 -27614087.313 9 -21503080.78949  20586917.314    20586917.4744   20586925.1074
  -7507491.366 9  -5548415.62446  23551985.374    23551985.5094   23551995.8134
 -10664239.036 9  -8298683.02247  22698124.926    22698124.5754   22698133.4694
  -1022211.315 8   -774126.52945  25528226.649    25528225.3174   25528237.5884
  -9236274.532 9  -7177523.54646  23219667.898    23219667.4384   23219680.1854
 -24606723.080 9 -19147400.49948  21157526.667    21157526.5594   21157534.5854
 00  7 15  0 20 30.0000000  0 10  1 21 22 30 25 29 20 16 15 11        .000000001
  -6609330.938 9  -5137854.82145  24130258.713    24130258.6304   24130271.2464
 -13406622.874 9 -10430683.08746  23131578.602    23131578.3914   23131591.1004
  -9027657.485 8  -4810068.40345  24273171.755    24273171.1034   24273187.3184
  -6811707.205 9  -3454702.79945  24480036.291    24480036.4644   24480048.1254
 -27598001.169 9 -21490546.12149  20589978.381    20589978.5444   20589986.1824
  -7438636.595 9  -5494762.62246  23565087.967    23565088.1594   23565098.4054
 -10750094.574 9  -8365583.37147  22681787.141    22681786.7764   22681795.6064
  -1116161.546 8   -847334.42145  25510348.119    25510347.2544   25510359.6404
  -9123534.303 9  -7089674.19646  23241121.773    23241121.4064   23241134.1754
 -24585028.280 9 -19130495.46248  21161655.087    21161654.9814   21161662.9964
 00  7 15  0 21  0.0000000  0 10  1 21 22 30 25 29 20 16 15 11        .000000001
  -6677026.749 9  -5190604.62245  24117376.538    24117376.4184   24117388.9424
 -13326950.310 9 -10368600.71946  23146739.911    23146739.6554   23146752.3574
  -9125238.451 8  -4886105.17545  24254602.315    24254601.6104   24254617.9984
  -6794375.265 9  -3441197.38245  24483334.365    24483334.6504   24483346.3664
 -27581427.338 9 -21477631.43749  20593132.250    20593132.4114   20593140.0504
  -7369779.221 9  -5441107.58746  23578191.164    23578191.3184   23578201.6704
 -10835852.619 9  -8432407.76347  22665467.800    22665467.4444   22665476.2774
  -1210190.592 8   -920603.74045  25492454.705    25492453.7024   25492466.6794
  -9010688.160 9  -7001742.31446  23262595.892    23262595.4604   23262608.3254
 -24562781.856 9 -19113160.59548  21165888.451    21165888.3404   21165896.3284
 00  7 15  0 21 30.0000000  0 10  1 21 22 30 25 29 20 16 15 11        .000000000
  -6744605.026 9  -5243262.85145  24104516.778    24104516.6614   24104528.9384
 -13246986.292 9 -10306291.24346  23161956.698    23161956.4614   23161969.0854
  -9222883.336 8  -4962191.75345  24236020.702    24236020.2934   24236036.6604
  -6776528.097 9  -3427290.46145  24486730.578    24486730.9194   24486742.5414
 -27564366.732 9 -21464337.45149  20596378.802    20596378.9544   20596386.5914
  -7300919.575 9  -5387450.78046  23591294.816    23591294.9064   23591305.3274
 -10921511.542 9  -8499154.89847  22649167.406    22649167.0484   22649175.8924
  -1304297.852 8   -993934.04245  25474546.542    25474545.7184   25474558.4334
  -8897738.857 9  -6913730.06246  23284089.541    23284089.0904   23284102.0424
 -24539984.863 9 -19095396.70948  21170226.585    21170226.4674   21170234.4564
 00  7 15  0 22  0.0000000  0 10  1 21 22 30 25 29 20 16 15 11        .000000000
  -6812066.278 9  -5295829.89145  24091679.237    24091679.1184   24091691.3284
 -13166731.457 9 -10243755.15646  23177228.780    23177228.5294   23177241.2144
  -9320589.592 8  -5038326.15445  24217427.579    24217427.4144   24217443.6864
  -6758165.652 9  -3412982.04145  24490224.729    24490225.2104   24490236.8104
 -27546820.904 9 -21450665.37049  20599717.630    20599717.7824   20599725.4164
  -7232057.850 9  -5333792.36046  23604398.927    23604398.9254   23604409.3884
 -11007069.401 9  -8565823.29647  22632886.281    22632885.9094   22632894.7404
  -1398482.485 8  -1067324.61245  25456623.754    25456623.0074   25456635.7274
  -8784689.546 9  -6825639.88146  23305602.238    23305601.8184   23305614.8034
 -24516638.709 9 -19077204.90748  21174669.207    21174669.1024   21174677.0914
 00  7 15  0 22 30.0000000  0 10  1 21 22 30 25 29 20 16 15 11        .000000000
  -6879410.612 9  -5348305.85445  24078863.893    24078863.7304   24078875.8814
 -13086186.488 9 -10180992.98346  23192556.116    23192555.8974   23192568.6634
  -9418353.817 8  -5114505.75345  24198823.461    24198823.1744   24198839.5464
  -6739287.956 8  -3398272.11845  24493817.015    24493817.4644   24493829.0744
 -27528791.063 9 -21436616.14049  20603148.588    20603148.7374   20603156.3844
  -7163194.174 9  -5280132.42946  23617503.182    23617503.3024   23617513.7314
 -11092524.402 9  -8632411.53047  22616624.657    22616624.3274   22616633.1614
  -1492743.540 8  -1140774.75945  25438686.374    25438685.6754   25438698.5364
  -8671542.891 9  -6737473.88446  23327133.396    23327133.0124   23327146.1674
 -24492744.486 9 -19058586.04048  21179216.163    21179216.0544   21179224.0554
 00  7 15  0 23  0.0000000  0 10  1 21 22 30 25 29 20 16 15 11        .000000000
  -6946638.518 9  -5400691.07745  24066070.763    24066070.6064   24066082.6884
 -13005352.162 9 -10118005.35346  23207938.468    23207938.3194   23207951.0814
  -9516173.288 8  -5190728.38645  24180208.804    24180208.4714   24180224.8224
  -6719895.242 8  -3383160.87345  24497507.306    24497507.7294   24497519.2974
 -27510278.049 9 -21422190.41149  20606671.505    20606671.6484   20606679.2934
  -7094328.896 9  -5226471.24846  23630607.902    23630608.0204   23630618.4044
 -11177875.056 9  -8698918.45747  22600382.910    22600382.5714   22600391.4004
  -1587079.991 7  -1214283.60645  25420734.574    25420733.8724   25420746.6204
  -8558301.936 9  -6649234.37046  23348682.498    23348682.1234   23348695.3664
 -24468303.598 9 -19039541.20148  21183867.091    21183866.9944   21183874.9964
 00  7 15  0 23 30.0000000  0 10  1 21 22 30 25 29 20 16 15 11        .000000000
  -7013749.728 9  -5452985.37546  24053299.831    24053299.5884   24053311.6954
 -12924229.035 9 -10054792.68346  23223375.789    23223375.6624   23223388.4804
  -9614044.704 8  -5266991.51145  24161584.271    24161583.8244   24161600.3314
  -6699987.160 8  -3367648.07245  24501295.685    24501296.0754   24501307.7034
 -27491282.930 9 -21407389.01549  20610286.127    20610286.2864   20610293.9164
  -7025461.765 9  -5172808.63346  23643713.013    23643713.0384   23643723.4094
 -11263118.818 9  -8765342.10247  22584161.487    22584161.1814   22584169.8954
  -1681491.143 7  -1287850.67644  25402768.617    25402767.9324   25402780.7274
  -8444969.093 9  -6560923.27546  23370249.200    23370248.8044   23370262.1164
 -24443316.963 9 -19020071.10748  21188621.885    21188621.7724   21188629.8064
 00  7 15  0 24  0.0000000  0 10  1 21 22 30 25 29 20 16 15 11        .000000000
  -7080744.774 9  -5505189.14146  24040550.955    24040550.6834   24040562.9314
 -12842818.409 9  -9991355.98646  23238867.766    23238867.6164   23238880.4884
  -9711965.929 9  -5343293.45045  24142950.281    24142949.8054   24142966.1674
  -6679563.979 8  -3351733.90545  24505182.032    24505182.5354   24505194.0994
 -27471807.528 9 -21392213.36749  20613992.150    20613992.3104   20613999.9484
  -6956593.443 9  -5119145.09446  23656818.188    23656818.3664   23656828.7174
 -11348254.357 9  -8831681.41747  22567960.691    22567960.3464   22567969.0514
  -1775974.97717  -1361474.34144  25384788.757    25384787.8505   25384801.0514
  -8331547.652 9  -6472543.14646  23391832.715    23391832.3614   23391845.7624
 -24417786.025 9 -19000176.88148  21193480.273    21193480.1794   21193488.1954
 00  7 15  0 24 30.0000000  0 10  1 21 22 30 25 29 20 16 15 11        .000000000
  -7147623.679 9  -5557302.40846  24027824.221    24027823.9244   24027836.1794
 -12761120.880 9  -9927695.73946  23254414.409    23254414.2844   23254427.1194
  -9809933.928 9  -5419631.82846  24124307.420    24124306.8404   24124323.1004
  -6658625.673 8  -3335418.32845  24509166.363    24509166.8574   24509178.4334
 -27451852.447 9 -21376663.94749  20617789.475    20617789.6314   20617797.2724
  -6887723.703 9  -5065480.43546  23669923.597    23669923.7934   23669934.2794
 -11433279.541 9  -8897934.73347  22551780.895    22551780.5274   22551789.2664
  -1870532.056 7  -1435155.12344  25366795.074    25366794.4544   25366806.8524
  -8218040.263 9  -6384096.03846  23413432.624    23413432.2284   23413445.5494
 -24391711.767 9 -18979859.29748  21198442.060    21198441.9744   21198449.9684
 00  7 15  0 25  0.0000000  0 10  1 21 22 30 25 29 20 16 15 11        .000000000
  -7214386.707 9  -5609325.39346  24015119.506    24015119.2194   24015131.4984
 -12679136.868 9  -9863812.25346  23270015.620    23270015.4934   23270028.4314
  -9907945.477 8  -5496004.13846  24105656.173    24105655.6624   24105671.7594
  -6637172.152 8  -3318701.27345  24513248.868    24513249.3714   24513260.8314
 -27431418.875 9 -21360741.66549  20621677.860    20621678.0294   20621685.6714
  -6818852.732 9  -5011814.83046  23683029.425    23683029.6304   23683040.0424
 -11518192.520 9  -8964100.61447  22535622.446    22535622.0844   22535630.8224
  -1965160.733 8  -1508891.70844  25348787.909    25348786.9384   25348800.6664
  -8104449.923 9  -6295584.30446  23435048.305    23435047.8344   23435061.2514
 -24365095.689 9 -18959119.51048  21203506.945    21203506.8584   21203514.8684
 00  7 15  0 25 30.0000000  0 10  1 21 22 30 25 29 20 16 15 11       -.000000001
  -7281034.136 9  -5661258.27046  24002436.759    24002436.5794   24002448.7294
 -12596867.277 9  -9799706.25346  23285671.131    23285671.1154   23285683.9304
 -10005997.526 9  -5572408.01646  24086997.265    24086996.7704   24087012.7974
  -6615203.969 8  -3301583.19545  24517429.180    24517429.5974   24517441.2584
 -27410508.540 9 -21344447.88849  20625656.964    20625657.1354   20625664.7534
  -6749980.837 9  -4958148.50046  23696135.493    23696135.5764   23696146.0214
 -11602991.610 9  -9030177.75947  22519485.691    22519485.3354   22519494.0204
  -2059859.880 8  -1582683.24344  25330767.101    25330766.2944   25330779.6154
  -7990779.422 9  -6207010.11746  23456679.285    23456678.8094   23456692.2664
 -24337939.234 9 -18937958.65748  21208674.647    21208674.5504   21208682.5834
 00  7 15  0 26  0.0000000  0 10  1 21 22 30 25 29 20 16 15 11       -.000000001
  -7347566.134 9  -5713101.20846  23989775.965    23989775.7944   23989788.0044
 -12514312.887 9  -9735378.31746  23301380.868    23301380.7704   23301393.7044
 -10104087.318 8  -5648841.30746  24068331.147    24068330.6324   24068346.6634
  -6592721.082 8  -3284064.02445  24521707.640    24521708.0254   24521719.5114
 -27389122.663 9 -21327783.55249  20629726.529    20629726.6974   20629734.3304
  -6681107.996 9  -4904481.44346  23709241.566    23709241.7334   23709252.2134
 -11687674.642 9  -9096164.47247  22503370.981    22503370.6314   22503379.2524
  -2154628.455 8  -1656528.85044  25312733.312    25312732.5604   25312745.3844
  -7877031.757 9  -6118375.79046  23478324.951    23478324.4234   23478337.8424
 -24310243.830 9 -18916377.84348  21213944.909    21213944.8124   21213952.8444
 00  7 15  0 26 30.0000000  0 10  1 21 22 30 25 29 20 16 15 11       -.000000001
  -7413982.857 9  -5764854.32646  23977137.110    23977136.9344   23977149.1084
 -12431475.023 9  -9670829.50746  23317144.508    23317144.3674   23317157.3354
 -10202212.188 9  -5725301.95246  24049658.448    24049657.9294   24049673.7834
  -6569723.590 8  -3266143.88445  24526083.915    24526084.2354   24526095.7784
 -27367262.134 9 -21310749.36149  20633886.435    20633886.6084   20633894.2514
  -6612234.250 9  -4850813.68546  23722347.803    23722347.9504   23722358.6134
 -11772239.456 9  -9162059.06247  22487278.772    22487278.4314   22487287.0744
  -2249465.473 8  -1730427.78544  25294686.318    25294685.8534   25294698.7204
  -7763209.561 9  -6029683.37246  23499984.796    23499984.2394   23499997.7044
 -24282010.418 9 -18894377.80248  21219317.562    21219317.4724   21219325.4864
 00  7 15  0 27  0.0000000  0 10  1 21 22 30 25 29 20 16 15 11       -.000000001
  -7480284.807 9  -5816518.00746  23964520.124    23964519.9984   23964532.0524
 -12348353.898 9  -9606059.97746  23332962.015    23332961.9164   23332974.9874
 -10300369.167 8  -5801787.61545  24030979.554    24030979.0194   24030994.8994
  -6546211.722 8  -3247822.92245  24530558.031    24530558.4284   24530569.8714
 -27344928.702 9 -21293346.67349  20638136.348    20638136.5254   20638144.1574
  -6543359.741 9  -4797145.33546  23735454.345    23735454.4464   23735465.0864
 -11856684.593 9  -9227860.40047  22471209.363    22471209.0064   22471217.6584
  -2344370.169 8  -1804379.51944  25276626.613    25276625.7964   25276639.1734
  -7649315.674 9  -5940935.10846  23521658.232    23521657.8144   23521671.1754
 -24253240.704 9 -18871959.86248  21224792.283    21224792.1824   21224800.1964
 00  7 15  0 27 30.0000000  0 10  1 21 22 30 25 29 20 16 15 11       -.000000001
  -7546472.025 9  -5868092.31446  23951924.996    23951924.8684   23951936.8944
 -12264950.783 9  -9541070.68845  23348833.255    23348833.0194   23348846.2244
 -10398554.938 8  -5878295.72545  24012295.242    24012294.7454   24012310.5014
  -6522185.717 8  -3229101.34845  24535129.905    24535130.2734   24535141.8244
 -27322123.376 9 -21275576.27849  20642476.054    20642476.2314   20642483.8604
  -6474484.689 9  -4743476.55646  23748560.896    23748560.9534   23748571.6434
 -11941007.997 9  -9293566.89147  22455163.114    22455162.7454   22455171.3474
  -2439340.871 8  -1878382.63744  25258554.271    25258553.2784   25258566.2734
  -7535352.923 9  -5852133.17846  23543344.829    23543344.3724   23543357.7604
 -24223935.988 9 -18849125.04548  21230368.796    21230368.7214   21230376.6834
 00  7 15  0 28  0.0000000  0 10  1 21 22 30 25 29 20 16 15 11       -.000000001
  -7612544.626 9  -5919577.27646  23939351.711    23939351.5024   23939363.5874
 -12181266.710 9  -9475862.49546  23364757.933    23364757.6254   23364770.9574
 -10496766.456 8  -5954823.87345  23993605.941    23993605.5134   23993621.1324
  -6497645.782 8  -3209979.33745  24539799.792    24539800.0994   24539811.7734
 -27298848.043 9 -21257439.64449  20646905.178    20646905.3354   20646912.9824
  -6405609.192 9  -4689807.41146  23761667.552    23761667.6504   23761678.1764
 -12025207.730 9  -9359177.01347  22439140.380    22439140.0074   22439148.5974
  -2534377.371 8  -1952437.03144  25240469.475    25240468.5784   25240481.3354
  -7421324.412 9  -5763279.99045  23565043.920    23565043.4594   23565056.7024
 -24194097.905 9 -18825874.61548  21236046.819    21236046.7314   21236054.7054
 00  7 15  0 28 30.0000000  0 10  1 21 22 30 25 29 20 16 15 11       -.000000001
  -7678503.007 9  -5970973.25346  23926800.136    23926799.8724   23926812.0574
 -12097302.232 9  -9410435.79745  23380735.996    23380735.6934   23380749.0814
 -10595000.933 8  -6031369.94245  23974912.262    23974911.7054   23974927.4114
  -6472592.206 8  -3190457.07845  24544567.231    24544567.7494   24544579.0534
 -27275103.719 9 -21238937.56349  20651423.556    20651423.7274   20651431.3824
  -6336733.251 9  -4636137.92946  23774774.283    23774774.4164   23774784.9454
 -12109281.869 9  -9424689.25447  22423141.524    22423141.1534   22423149.7854
  -2629477.847 8  -2026541.23945  25222372.396    25222371.3554   25222384.2794
  -7307232.854 9  -5674377.71345  23586754.953    23586754.4194   23586767.9764
 -24163727.640 9 -18802209.49748  21241826.120    21241826.0304   21241834.0124
 00  7 15  0 29  0.0000000  0 10  1 21 22 30 25 29 20 16 15 11       -.000000001
  -7744347.594 9  -6022280.56846  23914270.166    23914269.9464   23914282.0964
 -12013057.630 9  -9344790.81845  23396767.343    23396766.9754   23396780.4304
 -10693255.842 8  -6107931.94645  23956214.672    23956214.1184   23956229.7894
  -6447025.354 8  -3170534.82845  24549432.482    24549432.9214   24549444.2894
 -27250891.865 9 -21220071.17449  20656030.910    20656031.0674   20656038.7254
  -6267857.026 9  -4582468.21746  23787881.101    23787881.2324   23787891.7244
 -12193228.518 9  -9490102.17047  22407166.950    22407166.5914   22407175.2294
  -2724642.030 8  -2100695.05445  25204263.170    25204262.3224   25204274.8974
  -7193081.048 9  -5585428.47945  23608477.437    23608476.8014   23608490.5804
 -24132826.821 9 -18778130.96248  21247706.393    21247706.2894   21247714.2814
 00  7 15  0 29 30.0000000  0 10  1 21 22 30 25 29 20 16 15 11       -.000000001
  -7810078.330 9  -6073499.13246  23901761.847    23901761.6254   23901773.8064
 -11928534.114 9  -9278928.52046  23412851.754    23412851.4314   23412864.8724
 -10791528.079 8  -6184507.43845  23937513.836    23937513.3844   23937528.8304
  -6420945.496 8  -3150212.85145  24554395.346    24554395.7764   24554407.2024
 -27226213.657 9 -21200841.38749  20660727.013    20660727.1564   20660734.8284
  -6198980.567 9  -4528798.32146  23800987.881    23800988.0694   23800998.5914
 -12277045.568 9  -9555414.09947  22391217.054    22391216.7034   22391225.3574
  -2819867.972 8  -2174896.98245  25186142.194    25186141.4264   25186153.9864
  -7078871.779 8  -5496434.46345  23630210.934    23630210.3254   23630224.1354
 -24101396.922 9 -18753640.15548  21253687.303    21253687.2084   21253695.2144
 00  7 15  0 30  0.0000000  0 10  1 21 22 30 25 29 20 16 15 11       -.000000001
  -7875695.823 9  -6124629.47946  23889275.110    23889274.8694   23889287.0144
 -11843732.984 9  -9212849.89745  23428988.978    23428988.6984   23429002.1754
 -10889814.138 8  -6261093.68945  23918810.368    23918809.9234   23918825.1534
  -6394353.079 8  -3129491.48245  24559455.635    24559456.2924   24559467.6004
 -27201070.432 9 -21181249.26149  20665511.584    20665511.7444   20665519.3974
  -6130104.231 9  -4475128.52646  23814094.696    23814094.8654   23814105.4694
 -12360731.096 9  -9620623.54047  22375292.182    22375291.8484   22375300.4914
  -2915154.941 8  -2249146.46245  25168009.694    25168009.0404   25168021.3874
  -6964608.219 9  -5407398.14045  23651954.643    23651954.2124   23651967.9314
 -24069439.606 9 -18728738.38348  21259768.578    21259768.4794   21259776.5074
 00  7 15  0 30 30.0000000  0 10  1 21 22 30 25 29 20 16 15 11       -.000000002
  -7941199.845 9  -6175671.41846  23876809.932    23876809.7594   23876821.7554
 -11758655.203 9  -9146555.68945  23445178.835    23445178.6004   23445192.0754
 -10988110.791 8  -6337688.18145  23900104.946    23900104.3834   23900119.6874
  -6367248.253 8  -3108370.83645  24564613.349    24564613.9814   24564625.3554
 -27175463.611 9 -21161295.88349  20670384.407    20670384.5614   20670392.2094
  -6061227.491 9  -4421458.42145  23827201.607    23827201.7214   23827212.3284
 -12444282.948 9  -9685728.82247  22359392.740    22359392.4054   22359401.0164
  -3010501.734 8  -2323442.55345  25149865.694    25149865.1014   25149877.6344
  -6850292.804 8  -5318321.42845  23673708.405    23673708.0124   23673721.7264
 -24036956.152 9 -18703426.63048  21265950.020    21265949.9294   21265957.9524
 00  7 15  0 31  0.0000000  0 10  1 21 22 30 25 29 20 16 15 11       -.000000001
  -8006590.841 9  -6226625.27346  23864366.378    23864366.2434   23864378.1264
 -11673301.557 9  -9080046.55545  23461421.184    23461421.0564   23461434.5214
 -11086415.544 8  -6414288.98245  23881397.952    23881397.2844   23881412.5894
  -6339631.343 8  -3086851.12945  24569868.775    24569869.1334   24569880.5324
 -27149394.804 9 -21140982.52349  20675345.124    20675345.2764   20675352.9184
  -5992350.658 9  -4367788.25145  23840308.464    23840308.5684   23840319.0964
 -12527699.292 9  -9750728.52047  22343519.113    22343518.7544   22343527.3284
  -3105907.341 8  -2397784.49245  25131710.557    25131709.8814   25131722.6034
  -6735928.446 8  -5229206.60545  23695471.458    23695470.9374   23695484.8454
 -24003948.175 9 -18677706.16148  21272231.225    21272231.1414   21272239.1814
 00  7 15  0 31 30.0000000  0 10  1 21 22 30 25 29 20 16 15 11       -.000000001
  -8071869.218 9  -6277491.38746  23851944.161    23851944.0034   23851955.8634
 -11587672.657 9  -9013322.91345  23477715.952    23477715.8954   23477729.3714
 -11184725.758 8  -6490894.06245  23862689.923    23862689.3144   23862704.4914
  -6311503.152 8  -3064933.06745  24575221.295    24575221.6894   24575233.3414
 -27122865.869 9 -21120310.61749  20680393.433    20680393.5824   20680401.2174
  -5923473.975 9  -4314118.19145  23853415.328    23853415.4444   23853425.9944
 -12610978.308 9  -9815621.21547  22327671.603    22327671.2454   22327679.8074
  -3201370.735 8  -2472171.45645  25113544.277    25113543.5564   25113556.1284
  -6621518.267 8  -5140056.06345  23717243.012    23717242.6044   23717256.5304
 -23970417.383 9 -18651578.30448  21278611.914    21278611.8244   21278619.8804
 00  7 15  0 32  0.0000000  0 10  1 21 22 30 25 29 20 16 15 11       -.000000007
  -8137036.889 9  -6328271.20846  23839543.055    23839542.8584   23839554.6554
 -11501771.471 9  -8946387.10845  23494062.502    23494062.4294   23494076.1024
 -11283039.849 8  -6567502.16645  23843981.166    23843980.6164   23843995.5934
  -6282865.708 8  -3042618.19445  24580670.658    24580670.9354   24580683.0354
 -27095879.613 9 -21099282.36149  20685528.731    20685528.8864   20685536.5244
  -5854599.430 8  -4260449.79845  23866521.747    23866521.8514   23866532.5094
 -12694119.753 9  -9880406.71247  22311850.253    22311849.8984   22311858.4754
  -3296892.515 8  -2546603.89645  25095367.067    25095366.3794   25095378.7504
  -6507066.589 8  -5050873.16245  23739022.628    23739022.1874   23739036.1784
 -23936367.413 9 -18625045.89448  21285091.457    21285091.3684   21285099.4264
 00  7 15  0 32 30.0000000  0 10  1 21 22 30 25 29 20 16 15 11       -.000000008
  -8202091.753 9  -6378963.16845  23827163.443    23827163.1684   23827174.9444
 -11415596.382 9  -8879237.89746  23510461.255    23510461.0974   23510474.8814
 -11381351.852 9  -6644108.64345  23825272.788    23825272.2784   23825287.0874
  -6253716.827 8  -3019904.73845  24586217.781    24586217.7864   24586229.7314
 -27068434.944 9 -21077896.90049  20690751.288    20690751.4414   20690759.0644
  -5785724.091 8  -4206780.77345  23879628.347    23879628.4374   23879639.0864
 -12777118.908 9  -9945081.32947  22296056.002    22296055.6724   22296064.1844
  -3392468.964 8  -2621078.97645  25077179.516    25077178.6414   25077191.1284
  -6392573.781 9  -4961658.24545  23760809.993    23760809.5444   23760823.6584
 -23901797.168 9 -18598108.07148  21291670.004    21291669.9144   21291677.9654
 00  7 15  0 33  0.0000000  0 10  1 21 22 30 25 29 20 16 15 11       -.000000008
  -8267034.331 9  -6429567.62645  23814805.042    23814804.8344   23814816.5494
 -11329149.042 9  -8811876.52945  23526911.773    23526911.6274   23526925.4664
 -11479659.153 9  -6720711.45545  23806565.421    23806564.9094   23806579.6664
  -6224057.308 8  -2996793.42845  24591861.702    24591861.8484   24591873.6634
 -27040533.817 9 -21056155.75749  20696060.681    20696060.8454   20696068.4584
  -5716848.649 8  -4153111.69245  23892734.934    23892735.1434   23892745.6174
 -12859974.099 9 -10009643.77547  22280289.134    22280288.7774   22280297.2814
  -3488099.282 8  -2695596.05245  25058981.625    25058980.9884   25058993.2244
  -6278042.908 9  -4872413.65446  23782604.647    23782604.2654   23782618.4564
 -23866708.531 9 -18570766.30848  21298347.168    21298347.0814   21298355.1114
 00  7 15  0 33 30.0000000  0 10  1 21 22 30 25 29 20 16 15 11       -.000000008
  -8331864.886 9  -6480084.79846  23802468.123    23802467.8754   23802479.4254
 -11242429.760 9  -8744303.26345  23543414.017    23543413.8534   23543427.7244
 -11577959.079 9  -6797308.51945  23787859.370    23787858.7594   23787873.5784
  -6193887.675 8  -2973284.60845  24597602.762    24597602.9844   24597614.7924
 -27012177.933 9 -21034060.26149  20701456.635    20701456.8004   20701464.4134
  -5647973.092 8  -4099442.49045  23905841.516    23905841.7714   23905852.2314
 -12942683.456 9 -10074092.58447  22264550.040    22264549.6934   22264558.1774
  -3583782.314 8  -2770154.15845  25040773.834    25040773.1634   25040785.2444
  -6163476.907 9  -4783141.68446  23804406.108    23804405.6234   23804419.8944
 -23831103.177 9 -18543021.91048  21305122.685    21305122.5904   21305130.6334
 00  7 15  0 34  0.0000000  0 10  1 21 22 30 25 29 20 16 15 11       -.000000008
  -8396583.824 9  -6530515.01846  23790152.460    23790152.2804   23790163.7374
 -11155440.398 9  -8676519.52645  23559967.742    23559967.6334   23559981.3564
 -11676249.039 9  -6873897.82146  23769155.271    23769154.6774   23769169.3704
  -6163208.573 8  -2949378.85045  24603440.859    24603440.9924   24603452.6874
 -26983368.660 9 -21011611.47349  20706938.847    20706939.0044   20706946.5934
  -5579097.580 8  -4045773.34645  23918948.086    23918948.3084   23918958.9384
 -13025245.232 9 -10138426.39247  22248839.027    22248838.6804   22248847.1844
  -3679516.863 8  -2844752.44145  25022556.037    25022555.4664   25022567.6754
  -6048878.644 9  -4693844.57845  23826213.556    23826213.0964   23826227.5064
 -23794983.253 9 -18514876.54348  21311996.082    21311995.9724   21312004.0444
 00  7 15  0 34 30.0000000  0 10  1 21 22 30 25 29 20 16 15 11       -.000000008
  -8461191.593 9  -6580858.59346  23777857.920    23777857.7724   23777869.1744
 -11068182.200 8  -8608526.34545  23576572.519    23576572.4584   23576586.2334
 -11774525.776 9  -6950476.82846  23750453.636    23750453.0344   23750467.6454
  -6132020.712 8  -2925076.62645  24609375.594    24609375.6834   24609387.2544
 -26954107.792 9 -20988810.79349  20712507.006    20712507.1704   20712514.7464
