     2              OBSERVATION DATA                        RINEX VERSION / TYPE
ASHCAN V.  1.90     SOPAC / SCIGN       20000919 05:14:59UTCPGM / RUN BY / DATE
                                                            COMMENT
     SCIGN - Southern California Integrated GPS Network     COMMENT
                                                            COMMENT
      SOPAC - Scripps Orbit and Permanent Array Center      COMMENT
    IGPP - Institute of Geophysics and Planetary Physics    COMMENT
         SIO - Scripps Institution of Oceanography          COMMENT
        UCSD - University of California, San Diego          COMMENT
                                                            COMMENT
                email: archive@lox.ucsd.edu                 COMMENT
                    ftp://lox.ucsd.edu                      COMMENT
                    http://lox.ucsd.edu                     COMMENT
                                                            COMMENT
DHLG DURMID_HILL__                                          MARKER NAME
PFJ                 SOPAC / SCIGN                           OBSERVER / AGENCY
LP02767             ASHTECH Z-XII3      CC00      1D02      REC # / TYPE / VERS
CR519991761         ASH701945B_M    SCIS                    ANT # / TYPE
 -2319099.1500 -4799846.5500  3490090.4400                  APPROX POSITION XYZ
        0.1224        0.0000        0.0000                  ANTENNA: DELTA H/E/N
     1     1                                                WAVELENGTH FACT L1/2
     5    L1    L2    C1    P1    P2                        # / TYPES OF OBSERV
  2000     9    18     0     0   30.000000                  TIME OF FIRST OBS
  2000     9    18    23    59   30.000000                  TIME OF LAST OBS
    30                                                      INTERVAL
                                                            END OF HEADER
 00  9 18  0  0 30.0000000  0 10  1  8 13 28 31 22 20 27  3 19        .000000000
 -24530745.876 9 -19094450.11149  20507599.555    20507599.4044   20507613.5234
  -6191990.102 9  -4802448.86845  23693223.764    23693223.4734   23693251.4524
 -18967285.113 9 -14765022.52348  21569328.383    21569328.8154   21569343.9204
 -19229223.981 9 -14960014.56548  21076617.822    21076617.6714   21076630.8464
  -7851171.628 9  -5859414.27046  23387766.798    23387766.5174   23387789.0414
 -11663972.404 9  -7040878.92946  23341091.241    23341090.6294   23341108.6854
 -11965190.336 9  -9311080.95146  23084547.377    23084547.0504   23084569.3634
 -15298298.850 9 -11903769.59648  22133760.930    22133760.7974   22133778.7984
  -7760812.926 9  -6032654.41746  23190018.372    23190018.3054   23190037.5584
 -24166270.104 9 -18804022.94948  20756498.122    20756498.0954   20756513.3444
 00  9 18  0  1  0.0000000  0 10  1  8 13 28 31 22 20 27  3 19        .000000016
 -24517545.628 9 -19084164.22249  20510111.453    20510111.3154   20510125.3974
  -6265731.644 9  -4859909.48745  23679190.964    23679190.6884   23679218.4544
 -19029837.837 9 -14813764.71848  21557424.845    21557425.2654   21557440.3114
 -19183600.355 9 -14924463.84848  21085299.813    21085299.6514   21085312.8264
  -7936237.094 9  -5925698.72046  23371579.067    23371578.8234   23371601.2204
 -11559452.403 9  -6959434.87946  23360980.771    23360980.2804   23360998.1534
 -11859889.317 9  -9229028.55346  23104585.741    23104585.4184   23104607.8434
 -15344765.388 9 -11939977.14348  22124918.533    22124918.4084   22124936.3654
  -7792594.273 9  -6057418.97546  23183970.598    23183970.5014   23183989.6974
 -24178285.019 9 -18813385.14648  20754211.683    20754211.6784   20754226.9114
 00  9 18  0  1 30.0000000  0 10  1  8 13 28 31 22 20 27  3 19        .000000017
 -24503960.291 9 -19073578.28649  20512696.648    20512696.5064   20512710.5564
  -6339360.886 9  -4917282.58445  23665179.535    23665179.1884   23665206.9214
 -19092159.486 9 -14862326.87948  21545565.294    21545565.7164   21545580.7004
 -19137524.071 9 -14888560.39348  21094067.926    21094067.7704   21094080.9724
  -8021145.693 9  -5991860.93346  23355421.152    23355420.8894   23355443.2134
 -11454751.549 9  -6877849.46646  23380904.720    23380904.2374   23380922.0634
 -11754446.732 9  -9146865.83546  23124651.038    23124650.6974   23124673.2774
 -15391112.143 9 -11976091.35548  22116098.889    22116098.7644   22116116.6994
  -7823932.866 9  -6081838.52746  23178006.956    23178006.8704   23178026.0264
 -24190116.484 9 -18822604.40948  20751960.155    20751960.1674   20751975.3604
 00  9 18  0  2  0.0000000  0 10  1  8 13 28 31 22 20 27  3 19        .000000017
 -24489988.837 9 -19062691.49849  20515355.324    20515355.1854   20515369.2014
  -6412877.441 9  -4974567.87345  23651189.472    23651189.1634   23651216.6674
 -19154247.271 9 -14910706.80348  21533750.259    21533750.6654   21533765.6084
 -19090996.857 9 -14852305.56248  21102921.819    21102921.6714   21102934.9154
  -8105893.953 9  -6057898.22746  23339293.772    23339293.5244   23339315.7944
 -11349872.677 9  -6796125.36346  23400862.456    23400861.9104   23400879.8344
 -11648865.197 9  -9064594.84346  23144742.769    23144742.4574   23144765.0934
 -15437339.247 9 -12012112.33048  22107302.039    22107301.9134   22107319.8144
  -7854826.477 9  -6105911.33746  23172128.054    23172127.9204   23172147.1434
 -24201764.440 9 -18831680.68348  20749743.541    20749743.5524   20749758.7084
 00  9 18  0  2 30.0000000  0 10  1  8 13 28 31 22 20 27  3 19        .000000017
 -24475630.085 9 -19051502.92049  20518087.714    20518087.5734   20518101.5874
  -6486281.317 9  -5031765.34445  23637220.937    23637220.6944   23637247.9934
 -19216099.218 9 -14958902.96248  21521980.089    21521980.5034   21521995.3864
 -19044020.448 9 -14815700.69348  21111861.224    21111861.0834   21111874.3854
  -8190478.368 9  -6123807.86246  23323197.635    23323197.4064   23323219.5774
 -11244818.230 9  -6714264.51246  23420853.546    23420852.9814   23420870.9584
 -11543147.575 9  -8982217.83046  23164860.410    23164860.1404   23164882.8224
 -15483447.057 9 -12048040.35848  22098527.900    22098527.7884   22098545.6324
  -7885273.116 9  -6129635.85246  23166334.129    23166334.0514   23166353.1454
 -24213229.380 9 -18840614.33748  20747561.760    20747561.7724   20747576.9154
 00  9 18  0  3  0.0000000  0 10  1  8 13 28 31 22 20 27  3 19        .000000017
 -24460883.203 9 -19040011.87349  20520893.991    20520893.8414   20520907.8584
  -6559572.589 9  -5088875.04945  23623273.766    23623273.5494   23623300.7854
 -19277712.854 9 -15006913.47848  21510255.268    21510255.6804   21510270.4994
 -18996596.971 9 -14778747.44748  21120885.691    21120885.5554   21120898.9104
  -8274895.615 9  -6189587.22546  23307133.275    23307133.0884   23307155.2194
 -11139590.883 9  -6632268.96046  23440877.503    23440876.9994   23440894.8984
 -11437296.779 9  -8899737.02946  23185003.411    23185003.1854   23185025.9084
 -15529435.562 9 -12083875.42348  22089776.465    22089776.3564   22089794.1604
  -7915270.871 9  -6153010.60546  23160625.584    23160625.5324   23160644.6144
 -24224511.615 9 -18849405.61748  20745414.785    20745414.7884   20745429.8994
 00  9 18  0  3 30.0000000  0 10  1  8 13 28 31 22 20 27  3 19        .000000017
 -24445747.834 9 -19028218.14249  20523774.181    20523774.0474   20523788.0344
  -6632751.391 9  -5145897.11745  23609348.106    23609347.8394   23609374.9484
 -19339087.280 9 -15054737.55548  21498575.983    21498576.3964   21498591.1744
 -18948728.631 9 -14741447.42548  21129994.841    21129994.6894   21130008.1084
  -8359142.845 9  -6255234.12846  23291101.388    23291101.2274   23291123.2124
 -11034193.961 9  -6550141.26246  23460933.644    23460933.2144   23460951.1704
 -11331316.295 9  -8817155.19746  23205171.081    23205170.8344   23205193.5834
 -15575305.230 9 -12119617.89148  22081047.641    22081047.5394   22081065.3124
  -7944818.088 9  -6176034.30046  23155002.853    23155002.8154   23155021.8694
 -24235611.620 9 -18858054.92248  20743302.488    20743302.4914   20743317.5834
 00  9 18  0  4  0.0000000  0 10  1  8 13 28 31 22 20 27  3 19        .000000017
 -24430223.093 9 -19016121.00349  20526728.460    20526728.3224   20526742.3064
  -6705818.030 9  -5202831.76546  23595443.773    23595443.4954   23595470.5004
 -19400219.854 9 -15102373.20648  21486942.721    21486943.1394   21486957.8724
 -18900417.354 9 -14703802.25548  21139188.221    21139188.0644   21139201.5184
  -8443216.775 9  -6320745.99046  23275102.398    23275102.2534   23275124.1604
 -10928630.660 8  -6467884.01645  23481021.415    23481021.0384   23481038.9894
 -11225209.054 9  -8734474.59146  23225362.899    23225362.6264   23225385.4634
 -15621056.506 9 -12155268.10248  22072341.379    22072341.2764   22072359.0054
  -7973912.722 9  -6198705.35146  23149466.211    23149466.1094   23149485.1664
 -24246529.623 9 -18866562.45048  20741224.809    20741224.8094   20741239.8754
 00  9 18  0  4 30.0000000  0 10  1  8 13 28 31 22 20 27  3 19        .000000017
 -24414307.599 9 -19003719.37449  20529757.111    20529756.9654   20529770.9564
  -6778772.112 9  -5259678.69246  23581560.791    23581560.4964   23581587.3964
 -19461108.608 9 -15149818.87948  21475355.877    21475356.2904   21475370.9984
 -18851664.917 9 -14665813.33548  21148465.544    21148465.3824   21148478.8554
  -8527113.519 9  -6386119.77646  23259137.194    23259136.9954   23259158.9044
 -10822902.081 8  -6385497.78945  23501140.665    23501140.2404   23501158.4384
 -11118977.440 9  -8651697.08146  23245578.281    23245578.0214   23245600.9844
 -15666689.137 9 -12190825.86948  22063657.679    22063657.5784   22063675.2994
  -8002552.141 9  -6221021.69146  23144016.181    23144016.0914   23144035.2214
 -24257265.455 9 -18874928.03148  20739181.812    20739181.8234   20739196.8444
 00  9 18  0  5  0.0000000  0 10  1  8 13 28 31 22 20 27  3 19        .000000017
 -24398000.932 9 -18991012.94849  20532860.212    20532860.0674   20532874.0554
  -6851613.722 9  -5316437.96246  23567699.210    23567698.8834   23567725.7034
 -19521751.418 9 -15197072.93148  21463815.834    21463816.2494   21463830.9044
 -18802473.612 9 -14627482.42448  21157826.361    21157826.1924   21157839.7024
  -8610830.149 9  -6451353.21446  23243206.270    23243206.0144   23243227.9084
 -10717011.500 8  -6302985.39546  23521290.808    23521290.3404   23521308.5634
 -11012624.940 9  -8568825.38046  23265816.728    23265816.4204   23265839.5044
 -15712203.690 9 -12226291.62548  22054996.406    22054996.3044   22055014.0134
  -8030734.852 9  -6242982.15546  23138653.070    23138653.0544   23138672.0504
 -24267819.420 9 -18883151.90448  20737173.453    20737173.4444   20737188.4674
 00  9 18  0  5 30.0000000  0 10  1  8 13 28 31 22 20 27  3 19        .000000017
 -24381302.370 9 -18978001.14449  20536037.871    20536037.7374   20536051.7434
  -6924343.490 9  -5373110.06746  23553858.884    23553858.5444   23553885.2844
 -19582146.946 9 -15244134.31048  21452322.856    21452323.2664   21452337.9004
 -18752845.635 9 -14588811.22148  21167270.234    21167270.0844   21167283.5914
  -8694363.877 9  -6516444.13846  23227310.094    23227309.8984   23227331.6074
 -10610962.064 8  -6220349.17446  23541471.139    23541470.7394   23541489.0134
 -10906154.544 9  -8485861.84746  23286077.654    23286077.3134   23286100.5344
 -15757600.726 9 -12261665.81548  22046357.534    22046357.4354   22046375.1044
  -8058459.373 9  -6264585.60246  23133377.190    23133377.1174   23133396.1144
 -24278192.482 9 -18891234.81748  20735199.483    20735199.5004   20735214.5034
 00  9 18  0  6  0.0000000  0 10  1  8 13 28 31 22 20 27  3 19        .000000017
 -24364210.668 9 -18964682.98649  20539290.363    20539290.2254   20539304.2454
  -6996960.875 9  -5429694.61546  23540039.945    23540039.6204   23540066.2974
 -19642292.200 9 -15291000.68148  21440877.508    21440877.9194   21440892.5354
 -18702782.918 9 -14549801.28248  21176796.864    21176796.7094   21176810.2294
  -8777710.891 9  -6581389.57846  23211449.478    23211449.2894   23211470.8054
 -10504756.384 8  -6137591.22946  23561681.128    23561680.7194   23561699.0804
 -10799568.848 9  -8402808.46446  23306360.566    23306360.2824   23306383.5244
 -15802880.060 9 -12296948.28048  22037741.115    22037741.0094   22037758.6254
  -8085723.509 9  -6285830.29146  23128188.910    23128188.8574   23128207.8644
 -24288384.479 9 -18899176.67648  20733260.010    20733260.0134   20733275.0064
 00  9 18  0  6 30.0000000  0 10  1  8 13 28 31 22 20 27  3 19        .000000017
 -24346725.179 9 -18951057.98649  20542617.762    20542617.6224   20542631.6604
  -7069466.202 9  -5486191.84846  23526242.302    23526242.0224   23526268.5314
 -19702185.736 9 -15337670.89748  21429480.103    21429480.5204   21429495.1164
 -18652287.357 9 -14510454.02448  21186405.840    21186405.6774   21186419.2034
  -8860868.143 9  -6646187.13846  23195624.981    23195624.7144   23195646.2024
 -10398396.929 8  -6054713.28646  23581920.424    23581920.0374   23581938.3294
 -10692871.177 9  -8319667.84646  23326664.771    23326664.4164   23326687.8284
 -15848041.954 9 -12332139.22948  22029146.999    22029146.8794   22029164.4364
  -8112525.265 9  -6306714.67846  23123088.662    23123088.5794   23123107.5024
 -24298395.412 9 -18906977.42548  20731354.995    20731355.0014   20731370.0014
 00  9 18  0  7  0.0000000  0 10  1  8 13 28 31 22 20 27  3 19        .000000018
 -24328844.988 9 -18937125.41149  20546020.292    20546020.1464   20546034.2184
  -7141859.073 9  -5542601.45246  23512466.127    23512465.9004   23512492.2624
 -19761825.170 9 -15384143.08348  21418131.031    21418131.4464   21418145.9934
 -18601360.971 9 -14470771.08748  21196096.787    21196096.6284   21196110.1524
  -8943831.872 9  -6710833.92146  23179837.317    23179837.0834   23179858.3874
 -10291885.936 9  -5971717.36846  23602188.605    23602188.2354   23602206.4844
 -10586063.946 9  -8236441.84946  23346989.896    23346989.5444   23347012.9904
 -15893086.400 9 -12367238.64448  22020575.206    22020575.1034   22020592.6234
  -8138862.965 9  -6327237.44646  23118076.708    23118076.6494   23118095.5244
 -24308225.481 9 -18914637.24248  20729484.410    20729484.4074   20729499.4174
 00  9 18  0  7 30.0000000  0 10  1  8 13 28 31 22 20 27  3 19        .000000018
 -24310569.988 9 -18922885.18149  20549497.919    20549497.7794   20549511.8774
  -7214140.365 9  -5598924.11546  23498711.139    23498710.8124   23498737.1374
 -19821208.755 9 -15430415.91848  21406830.657    21406831.0594   21406845.5854
 -18550006.554 9 -14430754.62248  21205869.207    21205869.0524   21205882.5604
  -9026599.376 9  -6775327.78646  23164086.981    23164086.7174   23164107.9644
 -10185227.023 9  -5888606.28646  23622484.923    23622484.5354   23622502.7034
 -10479150.772 9  -8153133.30346  23367335.111    23367334.7804   23367358.2074
 -15938014.375 9 -12402247.29848  22012025.599    22012025.4924   22012042.9964
  -8164735.142 9  -6347397.44446  23113153.363    23113153.2674   23113172.1044
 -24317875.846 9 -18922157.04548  20727648.037    20727648.0284   20727663.0004
 00  9 18  0  8  0.0000000  0 10  1  8 13 28 31 22 20 27  3 19        .000000018
 -24291899.120 9 -18908336.47749  20553050.911    20553050.7694   20553064.8874
  -7286309.907 9  -5655159.70846  23484977.389    23484977.0094   23485003.2854
 -19880334.591 9 -15476487.91848  21395579.324    21395579.7284   21395594.2384
 -18498225.901 9 -14390406.02348  21215722.688    21215722.5414   21215736.0384
  -9109167.056 9  -6839665.92846  23148374.662    23148374.3854   23148395.5444
 -10078422.649 9  -5805381.89046  23642808.968    23642808.5554   23642826.5814
 -10372134.392 9  -8069744.34446  23387700.007    23387699.7124   23387723.1944
 -15982825.708 9 -12437165.05748  22003498.177    22003498.0654   22003515.5294
  -8190139.753 9  -6367193.08046  23108318.948    23108318.8644   23108337.6484
 -24327346.069 9 -18929536.44448  20725845.917    20725845.9154   20725860.9024
 00  9 18  0  8 30.0000000  0 10  1  8 13 28 31 22 20 27  3 19        .000000018
 -24272831.065 9 -18893478.26749  20556679.461    20556679.3174   20556693.4534
  -7358367.135 9  -5711307.79546  23471264.984    23471264.6124   23471290.8434
 -19939199.966 9 -15522356.95648  21384377.542    21384377.9234   21384392.4184
 -18446020.517 9 -14349726.49148  21225657.060    21225656.9044   21225670.3794
  -9191531.235 9  -6903845.51146  23132701.126    23132700.7654   23132721.8744
  -9971474.861 9  -5722045.69846  23663160.366    23663159.9164   23663177.6844
 -10265017.313 9  -7986276.92646  23408084.012    23408083.7214   23408107.3254
 -16027520.025 9 -12471991.64448  21994993.008    21994992.8944   21995010.3154
  -8215074.571 9  -6386622.65046  23103573.861    23103573.7994   23103592.5634
 -24336635.819 9 -18936775.20248  20724078.127    20724078.1394   20724093.1444
 00  9 18  0  9  0.0000000  0 10  1  8 13 28 31 22 20 27  3 19        .000000018
 -24253365.321 9 -18878310.13949  20560383.672    20560383.5334   20560397.6864
  -7430312.405 9  -5767368.66846  23457573.919    23457573.5904   23457599.7004
 -19997802.470 9 -15568021.08048  21373225.764    21373226.1544   21373240.6224
 -18393392.814 9 -14308717.85748  21235671.769    21235671.6204   21235685.0614
  -9273688.777 9  -6967864.08046  23117066.854    23117066.4694   23117087.5044
  -9864386.381 9  -5638599.72946  23683538.466    23683537.9684   23683555.5294
 -10157802.659 9  -7902733.48646  23428486.575    23428486.2754   23428510.0904
 -16072097.892 9 -12506727.48748  21986510.005    21986509.8864   21986527.2604
  -8239538.096 9  -6405684.99846  23098918.493    23098918.4224   23098937.2154
 -24345745.657 9 -18943873.74048  20722344.600    20722344.5994   20722359.6094
 00  9 18  0  9 30.0000000  0 10  1  8 13 28 31 22 20 27  3 19        .000000018
 -24233501.383 9 -18862831.71449  20564163.647    20564163.5064   20564177.6894
  -7502145.872 9  -5823342.43546  23443904.146    23443903.7844   23443929.8454
 -20056141.502 9 -15613479.94348  21362124.155    21362124.5294   21362138.9854
 -18340345.089 9 -14267381.97648  21245766.410    21245766.2324   21245779.6654
  -9355636.595 9  -7031719.21946  23101472.437    23101472.0844   23101493.0964
  -9757159.896 9  -5555046.34046  23703942.787    23703942.3234   23703959.8584
 -10050493.638 9  -7819116.50746  23448907.140    23448906.8394   23448930.7394
 -16116559.732 9 -12541372.90948  21978049.081    21978048.9734   21978066.3054
  -8263529.010 9  -6424379.06946  23094353.113    23094353.0024   23094371.8304
 -24354675.933 9 -18950832.33948  20720645.199    20720645.2064   20720660.2384
 00  9 18  0 10  0.0000000  0 10  1  8 13 28 31 22 20 27  3 19        .000000019
 -24213238.075 9 -18847042.08449  20568019.635    20568019.4964   20568033.6834
  -7573867.323 9  -5879228.91846  23430255.685    23430255.3924   23430281.3014
 -20114214.051 9 -15658731.24248  21351073.261    21351073.6304   21351088.0394
 -18286878.942 9 -14225720.09048  21255940.696    21255940.5194   21255953.9304
  -9437371.000 9  -7095408.05846  23085918.654    23085918.3024   23085939.2634
  -9649797.461 9  -5471386.90446  23724373.021    23724372.5204   23724389.8064
  -9943092.523 9  -7735427.79346  23469345.189    23469344.9114   23469368.8694
 -16160905.188 9 -12575927.64348  21969610.305    21969610.1964   21969627.4984
  -8287044.725 9  -6442702.85446  23089878.019    23089877.9704   23089896.7844
 -24363426.530 9 -18957650.91348  20718979.987    20718979.9994   20718995.0094
 00  9 18  0 10 30.0000000  0 10  1  8 13 28 31 22 20 27  3 19        .000000019
 -24192575.503 9 -18830941.33549  20571951.596    20571951.4444   20571965.6454
  -7645477.399 9  -5935028.65146  23416628.442    23416628.1564   23416653.9944
 -20172018.762 9 -15703773.72848  21340073.302    21340073.6754   21340088.0754
 -18232997.324 9 -14183734.45448  21266193.995    21266193.8304   21266207.2504
  -9518889.509 9  -7158928.64946  23070405.970    23070405.6414   23070426.4894
  -9542302.781 9  -5387624.34845  23744828.284    23744827.7884   23744844.9334
  -9835603.099 9  -7651670.27146  23489800.033    23489799.7294   23489823.8984
 -16205135.211 9 -12610392.42948  21961193.459    21961193.3424   21961210.6644
  -8310084.572 9  -6460655.84746  23085493.530    23085493.5064   23085512.3094
 -24371998.491 9 -18964330.29348  20717348.801    20717348.7784   20717363.7854
 00  9 18  0 11  0.0000000  0 10  1  8 13 28 31 22 20 27  3 19        .000000019
 -24171512.396 9 -18814528.48549  20575959.731    20575959.6004   20575973.7864
  -7716975.710 9  -5990741.30946  23403022.494    23403022.1964   23403048.0564
 -20229552.568 9 -15748605.13148  21329124.891    21329125.2644   21329139.6274
 -18178701.905 9 -14141426.38748  21276526.082    21276525.9084   21276539.3364
  -9600188.059 9  -7222277.85046  23054935.149    23054934.7814   23054955.5864
  -9434678.381 8  -5303760.89745  23765308.271    23765307.6304   23765324.5814
  -9728027.760 9  -7567845.79946  23510271.240    23510270.9674   23510295.2864
 -16249249.429 9 -12644766.99648  21952798.665    21952798.5744   21952815.8524
  -8332646.088 9  -6478236.11646  23081200.076    23081200.0384   23081218.8534
 -24380391.261 9 -18970870.03048  20715751.667    20715751.6444   20715766.6474
 00  9 18  0 11 30.0000000  0 10  1  8 13 28 31 22 20 27  3 19        .000000019
 -24150047.876 9 -18797802.84749  20580044.314    20580044.1724   20580058.3454
  -7788362.151 9  -6046366.81546  23389437.779    23389437.5304   23389463.3254
 -20286813.722 9 -15793224.10448  21318228.369    21318228.7484   21318243.0964
 -18123994.777 9 -14098797.53848  21286936.500    21286936.3614   21286949.7864
  -9681263.529 9  -7285453.20946  23039506.721    23039506.3724   23039527.1264
  -9326925.700 8  -5219797.19645  23785812.590    23785812.0854   23785828.8914
  -9620369.434 9  -7483956.67546  23530758.214    23530757.9254   23530782.3824
 -16293248.102 9 -12679051.53748  21944425.896    21944425.7904   21944443.0364
  -8354727.679 9  -6495442.41246  23076997.957    23076997.9574   23077016.7414
 -24388604.950 9 -18977270.21648  20714188.609    20714188.5764   20714203.5834
 00  9 18  0 12  0.0000000  0 10  1  8 13 28 31 22 20 27  3 19        .000000019
 -24128181.344 9 -18780763.96249  20584205.345    20584205.2014   20584219.3744
  -7859636.639 9  -6101905.08146  23375874.463    23375874.1604   23375899.9344
 -20343800.356 9 -15837629.16748  21307384.059    21307384.4454   21307398.7744
 -18068877.968 9 -14055849.45948  21297424.910    21297424.7704   21297438.1884
  -9762112.794 9  -7348452.32546  23024121.333    23024121.0344   23024141.6604
  -9219047.660 8  -5135735.93145  23806340.770    23806340.3454   23806356.9324
  -9512630.896 9  -7400005.04346  23551260.482    23551260.2214   23551284.7744
 -16337131.439 9 -12713246.21248  21936075.091    21936074.9924   21936092.1764
  -8376327.933 9  -6512273.64546  23072887.463    23072887.4134   23072906.2244
 -24396640.001 9 -18983531.22548  20712659.552    20712659.5244   20712674.5074
 00  9 18  0 12 30.0000000  0 10  1  8 13 28 31 22 20 27  3 19        .000000019
 -24105912.560 9 -18763411.63449  20588442.947    20588442.7884   20588456.9564
  -7930799.987 9  -6157356.76446  23362332.269    23362331.9354   23362357.6464
 -20400510.308 9 -15881818.64148  21296592.431    21296592.8364   21296607.1244
 -18013354.150 9 -14012584.20148  21307990.803    21307990.6554   21308004.0734
  -9842732.644 9  -7411272.66446  23008779.622    23008779.2644   23008799.9114
  -9111047.111 8  -5051579.09445  23826892.213    23826891.6574   23826908.4544
  -9404815.578 9  -7315993.60446  23571777.435    23571777.1184   23571801.7774
 -16380899.853 9 -12747351.34648  21927746.119    21927746.0184   21927763.1544
  -8397445.334 9  -6528728.61546  23068868.802    23068868.7654   23068887.6344
 -24404496.801 9 -18989653.33948  20711164.373    20711164.3594   20711179.3244
 00  9 18  0 13  0.0000000  0 10  1  8 13 28 31 22 20 27  3 19        .000000019
 -24083240.648 9 -18745745.19149  20592757.254    20592757.1014   20592771.2444
  -8001851.504 9  -6212721.30346  23348811.387    23348811.0554   23348836.6994
 -20456941.343 9 -15925790.79148  21285853.867    21285854.2804   21285868.5344
 -17957424.986 9 -13969003.06848  21318633.817    21318633.6474   21318647.1014
  -9923119.232 9  -7473911.26046  22993482.312    22993482.0744   22993502.5184
  -9002926.870 8  -4967329.15745  23847466.328    23847465.7334   23847482.7554
  -9296925.886 9  -7231924.18346  23592308.553    23592308.2044   23592332.8484
 -16424553.288 9 -12781366.89248  21919439.036    21919438.9384   21919456.0134
  -8418078.039 9  -6544805.89946  23064942.459    23064942.4334   23064961.2064
 -24412175.392 9 -18995636.57048  20709703.139    20709703.1414   20709718.0944
 00  9 18  0 13 30.0000000  0 10  1  8 13 28 31 22 20 27  3 19        .000000019
 -24060165.045 9 -18727764.17649  20597148.391    20597148.2414   20597162.3814
  -8072791.548 9  -6267998.97946  23335311.771    23335311.4514   23335337.0034
 -20513091.810 9 -15969544.31848  21275168.718    21275169.1274   21275183.3774
 -17901092.953 9 -13925108.03648  21329353.448    21329353.2764   21329366.7554
 -10003269.344 9  -7536365.58146  22978229.974    22978229.7334   22978250.1614
  -8894689.999 8  -4882988.35345  23868062.756    23868062.0764   23868079.2644
  -9188964.966 9  -7147799.26846  23612853.221    23612852.9214   23612877.6694
 -16468092.069 9 -12815293.10048  21911153.787    21911153.6944   21911170.7284
  -8438224.690 9  -6560504.42146  23061108.613    23061108.5974   23061127.3374
 -24419676.026 9 -19001481.16548  20708275.736    20708275.7394   20708290.7034
 00  9 18  0 14  0.0000000  0 10  1  8 13 28 31 22 20 27  3 19        .000000020
 -24036685.282 9 -18709468.23649  20601616.416    20601616.2684   20601630.4034
  -8143620.444 9  -6323190.04346  23321833.265    23321832.9514   23321858.4064
 -20568959.980 9 -16013077.87648  21264537.287    21264537.6974   21264551.9174
 -17844360.238 9 -13880900.76648  21340149.347    21340149.1824   21340162.6674
 -10083180.166 9  -7598633.44746  22963023.195    22963022.9514   22963043.2794
  -8786338.472 8  -4798558.38345  23888681.074    23888680.5414   23888697.2904
  -9080935.815 9  -7063621.18546  23633410.877    23633410.5404   23633435.4264
 -16511516.568 9 -12849130.26248  21902890.285    21902890.1854   21902907.2094
  -8457883.761 9  -6575823.02146  23057367.560    23057367.5574   23057386.2134
 -24426998.865 9 -19007187.20948  20706882.199    20706882.2144   20706897.1464
 00  9 18  0 14 30.0000000  0 10  1  8 13 28 31 22 20 27  3 19        .000000020
 -24012800.397 9 -18690856.61149  20606161.551    20606161.3914   20606175.5284
  -8214338.015 9  -6378294.36546  23308375.904    23308375.5684   23308401.0144
 -20624543.019 9 -16056389.25648  21253960.112    21253960.5104   21253974.7074
 -17787229.030 9 -13836383.01648  21351021.078    21351020.9164   21351034.4264
 -10162848.137 9  -7660712.08346  22947862.624    22947862.3764   22947882.6644
  -8677874.253 8  -4714040.42345  23909320.862    23909320.3224   23909337.0444
  -8972841.169 9  -6979392.05646  23653980.987    23653980.6094   23654005.6244
 -16554826.627 9 -12882878.25848  21894648.570    21894648.4714   21894665.4894
  -8477053.291 9  -6590760.14546  23053719.631    23053719.6224   23053738.3064
 -24434143.983 9 -19012754.77548  20705522.517    20705522.5154   20705537.4164
 00  9 18  0 15  0.0000000  0 10  1  8 13 28 31 22 20 27  3 19        .000000020
 -23988510.370 9 -18671929.30649  20610783.772    20610783.6114   20610797.7374
  -8284944.680 9  -6433312.24946  23294939.693    23294939.3504   23294964.7124
 -20679838.907 9 -16099476.84648  21243437.589    21243437.9844   21243452.1514
 -17729701.716 9 -13791556.58948  21361968.196    21361968.0274   21361981.5654
 -10242270.175 9  -7722599.05546  22932748.853    22932748.6394   22932768.8524
  -8569300.143 9  -4629436.67445  23929981.602    23929981.0504   23929997.5514
  -8864684.343 9  -6895114.45645  23674562.953    23674562.5714   23674587.6014
 -16598023.016 9 -12916537.68848  21886428.492    21886428.3914   21886445.3484
  -8495732.334 9  -6605315.07846  23050164.946    23050164.9834   23050183.5834
 -24441112.043 9 -19018184.35948  20704196.475    20704196.4834   20704211.3944
 00  9 18  0 15 30.0000000  0 10  1  8 13 28 31 22 20 27  3 19        .000000020
 -23963814.109 9 -18652685.46849  20615483.300    20615483.1484   20615497.2534
  -8355439.853 9  -6488243.25546  23281524.696    23281524.3764   23281549.6084
 -20734846.420 9 -16142339.73548  21232969.958    21232970.3614   21232984.4744
 -17671780.111 9 -13746422.90348  21372990.361    21372990.1974   21373003.7624
 -10321442.640 9  -7784291.56546  22917682.589    22917682.4094   22917702.5154
  -8460619.035 9  -4544749.56445  23950662.607    23950662.1924   23950678.4554
  -8756467.550 9  -6810790.14445  23695156.285    23695155.9744   23695181.0274
 -16641105.174 9 -12950108.10948  21878230.113    21878230.0174   21878246.9544
  -8513918.809 9  -6619486.17446  23046704.041    23046704.0694   23046722.6504
 -24447902.697 9 -19023475.70648  20702904.230    20702904.2184   20702919.1064
 00  9 18  0 16  0.0000000  0 10  1  8 13 28 31 22 20 27  3 19        .000000021
 -23938711.140 9 -18633124.71349  20620260.223    20620260.0714   20620274.1694
  -8425823.938 9  -6543087.69146  23268130.899    23268130.6094   23268155.6544
 -20789562.427 9 -16184975.49048  21222557.749    21222558.1694   21222572.2564
 -17613466.780 9 -13700983.99448  21384087.068    21384086.8954   21384100.4904
 -10400362.519 9  -7845787.22346  22902664.411    22902664.2364   22902684.2144
  -8351833.637 9  -4459981.25346  23971363.435    23971362.9824   23971379.3394
  -8648194.116 9  -6726421.70045  23715760.356    23715760.0404   23715785.1384
 -16684073.589 9 -12983589.90948  21870053.425    21870053.3174   21870070.2284
  -8531611.676 9  -6633272.63146  23043337.124    23043337.1114   23043355.6644
 -24454516.315 9 -19028629.10248  20701645.650    20701645.6294   20701660.4984
 00  9 18  0 16 30.0000000  0 10  1  8 13 28 31 22 20 27  3 19        .000000021
 -23913201.122 9 -18613246.78649  20625114.615    20625114.4804   20625128.5644
  -8496097.086 9  -6597845.66846  23254758.190    23254757.8664   23254782.7854
 -20843985.571 9 -16227383.04048  21212201.286    21212201.7094   21212215.7934
 -17554763.849 9 -13655241.47548  21395257.889    21395257.7214   21395271.3254
 -10479026.597 9  -7907083.55046  22887694.920    22887694.7694   22887714.7054
  -8242946.004 9  -4375133.32146  23992083.704    23992083.1874   23992099.5514
  -8539866.955 9  -6642011.38445  23736374.708    23736374.4094   23736399.5314
 -16726928.410 9 -13016983.18548  21861898.356    21861898.2434   21861915.1164
  -8548809.476 9  -6646673.30146  23040064.362    23040064.3364   23040082.7744
 -24460953.034 9 -19033644.65748  20700420.731    20700420.7074   20700435.5634
 00  9 18  0 17  0.0000000  0 10  1  8 13 28 31 22 20 27  3 19        .000000021
 -23887283.181 9 -18593050.99749  20630046.596    20630046.4564   20630060.5464
  -8566259.033 9  -6652516.98546  23241406.563    23241406.2204   23241431.0734
 -20898112.885 9 -16269560.06748  21201901.129    21201901.5394   21201915.5894
 -17495673.126 9 -13609196.75648  21406502.464    21406502.3274   21406515.9364
 -10557431.468 9  -7968177.90146  22872774.776    22872774.5684   22872794.4714
  -8133958.315 9  -4290207.42346  24012823.065    24012822.5394   24012838.7474
  -8431488.601 9  -6557561.19045  23756998.802    23756998.4914   23757023.7994
 -16769669.626 9 -13050287.93848  21853764.873    21853764.7644   21853781.6404
  -8565510.348 9  -6659686.75346  23036886.125    23036886.1154   23036904.5424
 -24467212.732 9 -19038522.28448  20699229.491    20699229.4624   20699244.3004
 00  9 18  0 17 30.0000000  0 10  1  8 13 28 31 22 20 27  3 19        .000000021
 -23860956.813 9 -18572536.96249  20635056.364    20635056.2284   20635070.3124
  -8636309.842 9  -6707101.68346  23228076.091    23228075.7394   23228100.6004
 -20951943.067 9 -16311505.50448  21191657.508    21191657.9214   21191671.9504
 -17436197.117 9 -13562851.81748  21417820.392    21417820.2424   21417833.8714
 -10635573.750 9  -8029067.62046  22857904.559    22857904.3134   22857924.1754
  -8024873.383 8  -4205205.70546  24033580.902    24033580.3804   24033596.5734
  -8323061.929 9  -6473073.34245  23777632.051    23777631.8274   23777657.1804
 -16812297.328 9 -13083504.24048  21845653.056    21845652.9594   21845669.7874
  -8581713.004 9  -6672311.99046  23033802.691    23033802.6914   23033821.0714
 -24473295.603 9 -19043262.11048  20698071.911    20698071.8934   20698086.7024
 00  9 18  0 18  0.0000000  0 11  1  8 10 13 28 31 22 20 27  3 19     .000000021
 -23834221.425 9 -18551704.22149  20640143.913    20640143.7864   20640157.8594
  -8706249.716 9  -6761599.94346  23214766.755    23214766.4224   23214791.2104
   -619957.106 8   -466391.73352          .000            .0004           .0005
 -21005473.922 9 -16353217.70648  21181470.848    21181471.2534   21181485.2784
 -17376338.050 9 -13516208.37048  21429211.218    21429211.0564   21429224.6994
 -10713450.130 9  -8089750.14646  22843084.931    22843084.6324   22843104.4244
  -7915693.648 8  -4120129.91845  24054356.702    24054356.2464   24054372.1864
  -8214589.985 9  -6388550.21145  23798273.919    23798273.6674   23798299.2114
 -16854811.687 9 -13116632.22748  21837562.774    21837562.6904   21837579.4644
  -8597416.384 9  -6684548.16646  23030814.286    23030814.2994   23030832.6054
 -24479201.709 9 -19047864.19548  20696947.950    20696947.9514   20696962.7504
 00  9 18  0 18 30.0000000  0 11  1  8 10 13 28 31 22 20 27  3 19     .000000021
 -23807076.344 9 -18530552.22949  20645309.453    20645309.3104   20645323.4094
  -8776078.431 9  -6816011.56846  23201478.562    23201478.2214   23201502.9144
   -706478.75218   -533810.87045          .000            .0005   25642095.9254
 -21058703.272 9 -16394694.98748  21171341.555    21171341.9754   21171355.9494
 -17316098.184 9 -13469268.18248  21440674.520    21440674.3504   21440687.9884
 -10791057.132 9  -8150222.79046  22828316.546    22828316.2764   22828335.9284
  -7806421.979 8  -4034982.81745  24075150.001    24075149.6424   24075165.5184
  -8106075.274 8  -6303993.75645  23818923.899    23818923.5914   23818949.4194
 -16897212.677 9 -13149671.86948  21829494.043    21829493.9564   21829510.7114
  -8612618.489 9  -6696393.73646  23027921.268    23027921.2624   23027939.4984
 -24484931.006 9 -19052328.54048  20695857.644    20695857.6464   20695872.4374
 00  9 18  0 19  0.0000000  0 11  1  8 10 13 28 31 22 20 27  3 19     .000000021
 -23779521.311 9 -18509080.79549  20650553.023    20650552.8804   20650566.9684
  -8845796.311 9  -6870336.84846  23188211.422    23188211.0664   23188235.7204
   -792711.713 8   -601005.34345  25625655.805    25625654.0294   25625685.9314
 -21111628.229 9 -16435935.08048  21161270.183    21161270.5974   21161284.5444
 -17255479.627 9 -13422032.88048  21452209.852    21452209.6644   21452223.2984
 -10868391.814 9  -8210483.24146  22813600.043    22813599.7244   22813619.3384
  -7697060.149 8  -3949765.49345  24095960.515    24095960.0754   24095975.8924
  -7997520.819 8  -6219406.31345  23839581.357    23839581.2314   23839607.0584
 -16939500.554 9 -13182623.36548  21821446.866    21821446.7574   21821463.5064
  -8627318.243 9  -6707847.86246  23025123.851    23025123.8194   23025142.1024
 -24490483.684 9 -19056655.27148  20694800.956    20694800.9574   20694815.7224
 00  9 18  0 19 30.0000000  0 11  1  8 10 13 28 31 22 20 27  3 19     .000000021
 -23751555.995 9 -18487289.68049  20655874.656    20655874.5064   20655888.6034
  -8915403.262 9  -6924575.67046  23174965.401    23174965.0864   23174989.5434
   -878653.533 8   -667972.84545  25609301.481    25609301.2804   25609330.9094
 -21164247.747 9 -16476937.19148  21151256.916    21151257.3294   21151271.2454
 -17194484.835 9 -13374504.44548  21463816.770    21463816.5894   21463830.2154
 -10945450.974 9  -8270529.02346  22798935.911    22798935.6054   22798955.0674
  -7587610.259 8  -3864479.36745  24116787.799    24116787.4964   24116802.9714
  -7888929.541 8  -6134790.19545  23860245.887    23860245.7154   23860271.7444
 -16981675.389 9 -13215486.77048  21813421.170    21813421.0634   21813437.8034
  -8641514.658 9  -6718909.79246  23022422.192    23022422.1604   23022440.3924
 -24495860.000 9 -19060844.61648  20693777.847    20693777.8564   20693792.5694
 00  9 18  0 20  0.0000000  0 11  1  8 10 13 28 31 22 20 27  3 19     .000000021
 -23723179.771 9 -18465178.37249  20661274.500    20661274.3574   20661288.4334
  -8984899.389 9  -6978728.12846  23161740.445    23161740.1614   23161764.5374
   -964302.239 8   -734711.91245  25593002.974    25593001.8934   25593032.4884
 -21216559.297 9 -16517699.34248  21141302.252    21141302.6614   21141316.5454
 -17133115.975 9 -13326684.51148  21475494.848    21475494.6744   21475508.3154
 -11022230.894 9  -8330357.23046  22784324.924    22784324.6214   22784344.0154
  -7478076.192 8  -3779128.15145  24137631.130    24137630.7774   24137646.4364
  -7780304.077 9  -6050147.42445  23880916.953    23880916.7544   23880942.9564
 -17023737.304 9 -13248262.17748  21805416.985    21805416.8844   21805433.6034
  -8655206.129 9  -6729578.23846  23019816.630    23019816.6034   23019834.8084
 -24501060.091 9 -19064896.60448  20692788.259    20692788.2714   20692802.9904
 00  9 18  0 20 30.0000000  0 11  1  8 10 13 28 31 22 20 27  3 19     .000000021
 -23694392.462 9 -18442746.74249  20666752.564    20666752.4254   20666766.4904
  -9054284.965 9  -7032794.43146  23148536.556    23148536.2634   23148560.5594
  -1049655.500 8   -801220.89845  25576760.748    25576759.8084   25576790.4194
 -21268561.091 9 -16558220.08948  21131406.550    21131406.9624   21131420.8204
 -17071375.499 9 -13278574.98948  21487243.621    21487243.4614   21487257.1114
 -11098728.771 9  -8389965.66746  22769767.601    22769767.2894   22769786.6464
  -7368459.113 8  -3693711.51845  24158490.206    24158489.8964   24158505.1024
  -7671647.766 9  -5965480.61745  23901593.937    23901593.7104   23901619.9764
 -17065686.652 9 -13280949.86048  21797434.219    21797434.1214   21797450.7914
  -8668391.472 9  -6739852.29846  23017307.350    23017307.3204   23017325.4324
 -24506084.249 9 -19068811.49248  20691832.144    20691832.1534   20691846.8724
 00  9 18  0 21  0.0000000  0 11  1  8 10 13 28 31 22 20 27  3 19     .000000022
 -23665193.173 9 -18419994.08249  20672309.033    20672308.8784   20672322.9644
  -9123559.868 9  -7086774.52446  23135353.678    23135353.3894   23135377.5294
  -1134711.009 7   -867497.78745  25560575.245    25560574.0844   25560604.8664
 -21320251.152 9 -16598497.93548  21121570.168    21121570.5814   21121584.4134
 -17009265.457 9 -13230177.47548  21499062.733    21499062.5794   21499076.2424
 -11174941.110 9  -8449351.62746  22755264.583    22755264.2894   22755283.4954
  -7258761.555 8  -3608232.37745  24179364.634    24179364.2264   24179379.8154
  -7562963.031 9  -5880791.64345  23922276.371    23922276.1024   23922302.6594
 -17107523.341 9 -13313549.76148  21789472.869    21789472.7624   21789489.4234
  -8681069.188 9  -6749730.80346  23014894.738    23014894.7204   23014912.7734
 -24510932.225 9 -19072589.09848  20690909.629    20690909.6314   20690924.3214
 00  9 18  0 21 30.0000000  0 11  1  8 10 13 28 31 22 20 27  3 19     .000000022
 -23635581.889 9 -18396920.39449  20677943.912    20677943.7574   20677957.8384
  -9192724.259 9  -7140668.49646  23122191.876    23122191.5404   23122215.6124
  -1219465.454 8   -933539.95245  25544446.911    25544445.3284   25544476.5624
 -21371627.462 9 -16638531.30548  21111793.496    21111793.9094   21111807.7134
 -16946788.481 9 -13181494.04648  21510951.681    21510951.5084   21510965.1704
 -11250865.007 9  -8508512.83646  22740816.546    22740816.2514   22740835.3604
  -7148986.611 8  -3522692.89445  24200253.710    24200253.1834   24200268.8214
  -7454252.941 9  -5796082.92345  23942963.585    23942963.2704   23942989.9664
 -17149247.691 9 -13346062.13648  21781532.900    21781532.8094   21781549.4404
  -8693238.397 9  -6759213.06146  23012578.845    23012578.8034   23012596.8194
 -24515604.373 9 -19076229.64449  20690020.507    20690020.4874   20690035.1974
 00  9 18  0 22  0.0000000  0 11  1  8 10 13 28 31 22 20 27  3 19     .000000022
 -23605558.137 9 -18373525.28949  20683657.265    20683657.1124   20683671.2044
  -9261778.418 9  -7194476.56946  23109051.054    23109050.7184   23109074.6554
  -1303917.207 8   -999346.26745  25528376.221    25528374.9344   25528406.1444
 -21422687.549 9 -16678318.26348  21102077.020    21102077.4264   21102091.1984
 -16883946.697 9 -13132526.36048  21522910.071    21522909.8904   21522923.5354
 -11326496.815 9  -8567446.43346  22726424.023    22726423.7444   22726442.7644
  -7039135.969 8  -3437094.58245  24221157.265    24221156.9824   24221172.1264
  -7345520.282 8  -5711356.60945  23963655.033    23963654.7774   23963681.5684
 -17190859.701 9 -13378486.97148  21773614.311    21773614.2314   21773630.8464
  -8704897.597 9  -6768297.93146  23010360.021    23010359.9594   23010377.8984
 -24520100.716 9 -19079733.21849  20689164.864    20689164.8694   20689179.5424
 00  9 18  0 22 30.0000000  0 11  1  8 10 13 28 31 22 20 27  3 19     .000000022
 -23575121.556 9 -18349808.49249  20689449.177    20689449.0134   20689463.1314
  -9330722.396 9  -7248198.79346  23095931.134    23095930.7804   23095954.6624
  -1388063.701 8  -1064914.71545  25512363.585    25512362.3794   25512393.5284
 -21473429.676 9 -16717857.47348  21092421.003    21092421.4114   21092435.1644
 -16820742.441 9 -13083276.23948  21534937.398    21534937.2134   21534950.8464
 -11401833.785 9  -8626150.30946  22712087.720    22712087.4094   22712106.3114
  -6929212.679 8  -3351439.42545  24242074.644    24242074.4024   24242089.1804
  -7236768.262 8  -5626615.17445  23984350.163    23984349.9494   23984376.8394
 -17232359.595 9 -13410824.44448  21765717.071    21765716.9684   21765733.5624
  -8716045.993 9  -6776984.77646  23008238.431    23008238.3784   23008256.2624
 -24524421.553 9 -19083100.03549  20688342.615    20688342.6094   20688357.2454
 00  9 18  0 23  0.0000000  0 11  1  8 10 13 28 31 22 20 27  3 19     .000000023
 -23544271.260 9 -18325769.32449  20695319.818    20695319.6584   20695333.7874
  -9399555.612 9  -7301834.70746  23082832.317    23082831.9994   23082855.8484
  -1471902.658 8  -1130243.50245  25496409.428    25496408.4744   25496439.5244
 -21523851.283 9 -16757146.91848  21082826.008    21082826.4234   21082840.1324
 -16757177.800 9 -13033745.31048  21547033.277    21547033.1094   21547046.7174
 -11476871.976 9  -8684621.35346  22697808.159    22697807.8954   22697826.7164
  -6819218.974 8  -3265729.46445  24263005.474    24263005.2134   24263019.6034
  -7127998.997 9  -5541860.30745  24005048.617    24005048.3104   24005075.2604
 -17273747.064 9 -13443074.31748  21757841.231    21757841.1204   21757857.6874
  -8726681.885 9  -6785272.29946  23006214.289    23006214.2194   23006232.0464
 -24528566.574 9 -19086329.84549  20687553.787    20687553.7654   20687568.4064
 00  9 18  0 23 30.0000000  0 11  1  8 10 13 28 31 22 20 27  3 19     .000000023
 -23513007.025 9 -18301407.60049  20701269.222    20701269.0604   20701283.2034
  -9468278.518 9  -7355384.65846  23069754.457    23069754.1724   23069777.9594
  -1555431.408 8  -1195330.63744  25480514.277    25480513.3584   25480543.9344
 -21573950.622 9 -16796185.25348  21073292.342    21073292.7534   21073306.4454
 -16693254.976 9 -12983935.23348  21559197.335    21559197.1784   21559210.7854
 -11551608.411 9  -8742857.27346  22683586.022    22683585.7514   22683604.5104
  -6709156.319 8  -3179965.57145  24283949.370    24283948.9034   24283963.2314
  -7019215.365 9  -5457094.22545  24025749.747    24025749.4894   24025776.5714
 -17315022.410 9 -13475236.82048  21749986.723    21749986.6084   21750003.1354
  -8736804.202 9  -6793159.62946  23004287.942    23004287.8934   23004305.6344
 -24532536.028 9 -19089422.86349  20686798.383    20686798.3484   20686812.9764
 00  9 18  0 24  0.0000000  0 11  1  8 10 13 28 31 22 20 27  3 19     .000000023
 -23481328.799 9 -18276723.27449  20707297.425    20707297.2564   20707311.4044
  -9536891.423 9  -7408848.89346  23056697.603    23056697.3414   23056721.0244
  -1638648.064 7  -1260174.50754  25464678.425    25464677.7704           .0005
 -21623725.464 9 -16834970.72548  21063820.385    21063820.7914   21063834.4744
 -16628976.825 9 -12933848.31548  21571429.016    21571428.8614   21571442.4664
 -11626040.073 9  -8800855.70446  22669421.910    22669421.6464   22669440.3894
  -6599028.338 9  -3094151.07545  24304905.660    24304905.1554   24304919.7454
  -6910420.560 9  -5372319.43645  24046453.113    24046452.7664   24046479.8534
 -17356186.036 9 -13507312.26948  21742153.468    21742153.3514   21742169.8574
  -8746412.080 9  -6800646.12546  23002459.545    23002459.4494   23002477.1034
 -24536330.073 9 -19092379.18549  20686076.350    20686076.3074   20686090.9334
 00  9 18  0 24 30.0000000  0 11  1  8 10 13 28 31 22 20 27  3 19     .000000023
 -23449235.983 9 -18251715.89049  20713404.473    20713404.3194   20713418.4744
  -9605393.950 9  -7462227.12846  23043661.725    23043661.4264   23043685.0824
  -1721549.175 7  -1324772.52854  25448902.560    25448902.1514           .0005
 -21673174.040 9 -16873501.96648  21054410.564    21054410.9754   21054424.6284
 -16564345.375 9 -12883486.15448  21583727.953    21583727.8164   21583741.3704
 -11700163.401 9  -8858613.88346  22655316.546    22655316.2914   22655334.9104
  -6488836.124 9  -3008286.37145  24325874.156    24325873.5694   24325887.8834
  -6801617.077 9  -5287537.88345  24067158.077    24067157.7034   24067184.8924
 -17397237.518 9 -13539300.33748  21734341.548    21734341.4494   21734357.9144
  -8755504.271 9  -6807730.80546  23000729.177    23000729.1074   23000746.7464
 -24539948.549 9 -19095198.68549  20685387.725    20685387.6944   20685402.3074
 00  9 18  0 25  0.0000000  0 11  1  8 10 13 28 31 22 20 27  3 19     .000000023
 -23416728.551 9 -18226385.42149  20719590.444    20719590.2864   20719604.4754
  -9673786.510 9  -7515519.66346  23030646.765    23030646.4564   23030670.0954
  -1804132.958 7  -1389123.25244  25433187.265    25433187.0014   25433217.8434
 -21722293.934 9 -16911777.09448  21045063.286    21045063.6964   21045077.3194
 -16499363.085 9 -12832850.62848  21596093.673    21596093.5464   21596107.0764
 -11773975.670 9  -8916129.65946  22641270.333    22641270.0554   22641288.6474
  -6378583.688 8  -2922374.85145  24346854.168    24346853.4754   24346867.7694
  -6692807.899 8  -5202751.91245  24087863.998    24087863.5884   24087890.9244
 -17438177.254 9 -13571201.33148  21726550.909    21726550.8024   21726567.2154
  -8764079.898 9  -6814412.98046  22999097.139    22999097.0564   22999114.6514
 -24543391.646 9 -19097881.51048  20684732.419    20684732.3984   20684747.0214
 00  9 18  0 25 30.0000000  0 11  1  8 10 13 28 31 22 20 27  3 19     .000000024
 -23383805.721 9 -18200731.25848  20725855.457    20725855.2994   20725869.5024
  -9742068.697 9  -7568726.19746  23017652.829    23017652.4914   23017676.0674
  -1886396.697 8  -1453224.68544  25417532.919    25417532.5284   25417563.2454
 -21771083.369 9 -16949794.71548  21035778.859    21035779.2634   21035792.8774
 -16434031.591 9 -12781942.90048  21608525.839    21608525.6894   21608539.2184
 -11847473.026 9  -8973400.04546  22627284.032    22627283.7284   22627302.2474
  -6268271.342 8  -2836416.36845  24367845.503    24367844.8434   24367858.6694
  -6583995.613 8  -5117963.50845  24108570.497    24108570.1754   24108597.3814
 -17479004.854 9 -13603014.95148  21718781.600    21718781.5014   21718797.8804
  -8772137.495 9  -6820691.52746  22997563.729    22997563.5984   22997581.1234
 -24546659.066 9 -19100427.42349  20684110.567    20684110.5584   20684125.1834
 00  9 18  0 26  0.0000000  0 11  1  8 10 13 28 31 22 20 27  3 19     .000000024
 -23350467.402 9 -18174753.33648  20732199.523    20732199.3674   20732213.5684
  -9810240.795 9  -7621846.95046  23004679.851    23004679.4934   23004702.9504
  -1968338.210 8  -1517074.97944  25401939.787    25401939.3954   25401969.7994
 -21819540.112 9 -16987553.08648  21026557.756    21026558.1574   21026571.7424
 -16368353.720 9 -12730765.30248  21621023.873    21621023.7374   21621037.2464
 -11920652.712 9  -9030422.90946  22613358.207    22613357.8794   22613376.3514
  -6157902.327 9  -2750413.57145  24388847.523    24388846.7544   24388860.4944
  -6475183.172 8  -5033174.97445  24129277.041    24129276.6994   24129304.2424
 -17519720.735 9 -13634741.51148  21711033.537    21711033.4254   21711049.7894
  -8779676.232 9  -6826565.76246  22996129.072    22996128.9614   22996146.4664
 -24549751.351 9 -19102836.89449  20683522.052    20683522.0464   20683536.6314
 00  9 18  0 26 30.0000000  0 11  1  8 10 13 28 31 22 20 27  3 19     .000000024
 -23316713.190 9 -18148451.33948  20738622.753    20738622.5904   20738636.7964
  -9878302.894 9  -7674881.98246  22991727.817    22991727.4294   22991750.7934
  -2049955.208 8  -1580672.37044  25386408.301    25386407.6074   25386437.5714
 -21867662.019 9 -17025050.55648  21017400.362    21017400.7764   21017414.3154
 -16302331.871 9 -12679319.74148  21633587.408    21633587.2394   21633600.7364
 -11993511.203 9  -9087195.48946  22599493.514    22599493.1974   22599511.6004
  -6047478.768 8  -2664368.38045  24409859.932    24409859.1674   24409872.8164
  -6366373.250 8  -4948388.44645  24149983.047    24149982.8034   24150010.5844
 -17560324.938 9 -13666381.05148  21703306.765    21703306.6634   21703322.9864
  -8786695.107 9  -6832034.94046  22994793.263    22994793.1864   22994810.6754
 -24552668.418 9 -19105109.79348  20682966.868    20682966.8704   20682981.4594
 00  9 18  0 27  0.0000000  0 11  1  8 10 13 28 31 22 20 27  3 19     .000000024
 -23282542.853 9 -18121825.08048  20745125.131    20745124.9894   20745139.1824
  -9946255.095 9  -7727831.38746  22978796.663    22978796.2614   22978819.5504
  -2131245.010 8  -1644014.71654  25370939.225    25370939.0554           .0005
 -21915447.253 9 -17062285.67248  21008307.046    21008307.4624   21008320.9774
 -16235968.171 9 -12627607.78848  21646215.978    21646215.8274   21646229.3314
 -12066045.536 9  -9143715.46746  22585690.449    22585690.1324   22585708.5054
  -5937003.228 8  -2578282.60945  24430882.109    24430881.5144   24430894.8994
  -6257568.579 8  -4863605.94445  24170688.048    24170687.9504   24170715.7124
 -17600817.517 9 -13697933.61148  21695601.235    21695601.1284   21695617.4194
  -8793192.725 9  -6837097.93646  22993556.676    22993556.6024   22993574.1194
 -24555410.260 9 -19107246.16649  20682445.026    20682445.0414   20682459.6114
 00  9 18  0 27 30.0000000  0 11  1  8 10 13 28 31 22 20 27  3 19     .000000024
 -23247956.214 9 -18094874.42848  20751706.740    20751706.5824   20751720.7744
 -10014097.373 9  -7780695.13346  22965886.432    22965886.0884   22965909.2384
  -2212205.401 8  -1707100.40244  25355532.843    25355532.5814   25355561.6604
 -21962893.247 9 -17099256.43848  20999278.294    20999278.7024   20999292.1744
 -16169264.776 9 -12575631.06448  21658909.190    21658909.0294   21658922.5364
 -12138252.534 9  -9199980.38346  22571949.739    22571949.4354   22571967.7054
  -5826478.330 8  -2492158.39345  24451913.713    24451913.0244   24451926.3094
  -6148772.027 8  -4778829.78545  24191391.744    24191391.4964   24191419.4034
 -17641198.570 9 -13729399.26848  21687916.915    21687916.8084   21687933.0594
  -8799168.530 9  -6841754.33246  22992419.467    22992419.3794   22992436.8164
 -24557976.919 9 -19109246.01749  20681956.550    20681956.5604   20681971.0564
 00  9 18  0 28  0.0000000  0 11  1  8 10 13 28 31 22 20 27  3 19     .000000024
 -23212953.087 9 -18067599.22648  20758367.632    20758367.4714   20758381.6564
 -10081829.852 9  -7833473.31546  22952997.090    22952996.7524   22953019.7854
  -2292833.925 8  -1769927.39644  25340189.541    25340189.2954   25340218.7564
 -22009998.414 9 -17135961.62448  20990314.383    20990314.7984   20990328.2354
 -16102224.268 9 -12523391.63848  21671666.520    21671666.3584   21671679.8844
 -12210128.657 9  -9255987.47247  22558271.975    22558271.6644   22558289.8634
  -5715906.143 8  -2405997.42045  24472954.270    24472953.6184   24472966.6884
  -6039986.192 8  -4694061.96245  24212093.429    24212093.1464   24212121.1184
 -17681468.205 9 -13760778.10748  21680253.778    21680253.6734   21680269.9004
  -8804621.458 9  -6846003.30346  22991381.747    22991381.6974   22991399.0324
 -24560368.621 9 -19111109.55449  20681501.320    20681501.3254   20681515.8154
 00  9 18  0 28 30.0000000  0 11  1  8 10 13 28 31 22 20 27  3 19     .000000025
 -23177533.372 9 -18039999.42248  20765107.754    20765107.5954   20765121.7764
 -10149452.633 9  -7886166.02346  22940128.644    22940128.3104   22940151.2414
  -2373129.006 8  -1832494.58345  25324909.560    25324908.9604   25324938.9984
 -22056760.718 9 -17172399.65248  20981415.695    20981416.1184   20981429.5394
 -16034849.472 9 -12470891.80748  21684487.516    21684487.3624   21684500.8694
 -12281671.035 9  -9311734.50147  22544657.732    22544657.4094   22544675.5764
  -5605288.776 8  -2319801.20945  24494003.372    24494002.6064   24494015.5944
  -5931214.091 8  -4609304.85345  24232792.427    24232792.1854   24232820.3334
 -17721626.517 9 -13792070.18648  21672611.846    21672611.7334   21672627.9314
  -8809550.920 9  -6849844.36846  22990443.658    22990443.6174   22990460.9274
 -24562585.470 9 -19112836.86348  20681079.360    20681079.3674   20681093.8304
 00  9 18  0 29  0.0000000  0 11  1  8 10 13 28 31 22 20 27  3 19     .000000012
 -23141699.000 9 -18012076.50348  20771926.778    20771926.6244   20771940.7904
 -10216968.057 9  -7938775.08846  22927280.629    22927280.3354   22927303.1434
  -2453089.778 8  -1894801.28544  25309693.084    25309692.9154   25309722.6764
 -22103179.880 9 -17208570.27648  20972582.354    20972582.7634   20972596.1354
 -15967144.211 9 -12418134.42448  21697371.411    21697371.2524   21697384.7414
 -12352878.770 9  -9367220.76147  22531107.175    22531106.8404   22531124.9194
  -5494630.507 8  -2233573.08745  24515060.216    24515059.5694   24515072.3884
  -5822460.657 8  -4524562.29445  24253487.800    24253487.5504   24253515.6874
 -17761675.611 9 -13823277.16148  21664990.664    21664990.5504   21665006.7264
  -8813957.787 9  -6853278.24546  22989604.962    22989604.9684   22989622.2244
 -24564629.498 9 -19114429.51449  20680690.326    20680690.3164   20680704.7274
 00  9 18  0 29 30.0000000  0 11  1  8 10 13 28 31 22 20 27  3 19     .000000010
 -23105448.313 9 -17983829.18448  20778825.045    20778824.8994   20778839.0414
 -10284374.539 9  -7991299.25446  22914453.336    22914453.0454   22914475.7264
  -2532712.350 8  -1956844.42345  25294541.207    25294540.7844   25294570.3354
 -22149253.107 9 -17244471.31548  20963814.817    20963815.2234   20963828.5614
 -15899109.806 9 -12365120.58748  21710317.926    21710317.7604   21710331.2474
 -12423747.125 9  -9422442.58647  22517621.142    22517620.8264   22517638.8634
  -5383933.111 8  -2147314.72845  24536124.504    24536124.0064   24536136.9944
  -5713727.107 8  -4439835.21145  24274179.395    24274179.1454   24274207.2264
 -17801614.045 9 -13854397.89948  21657390.504    21657390.4014   21657406.5704
  -8817839.775 9  -6856303.09046  22988866.213    22988866.1894   22988883.3724
 -24566499.410 9 -19115886.48449  20680334.398    20680334.4034   20680348.7844
 00  9 18  0 30  0.0000000  0 11  1  8 10 13 28 31 22 20 27  3 19     .000000010
 -23068779.646 9 -17955256.15048  20785802.832    20785802.6884   20785816.8254
 -10351670.780 9  -8043737.51746  22901647.004    22901646.7514   22901669.3444
  -2611993.405 8  -2018621.42745  25279454.335    25279453.7284   25279483.1724
 -22194977.169 9 -17280100.26748  20955113.714    20955114.1174   20955127.4234
 -15830746.875 9 -12311850.73848  21723326.935    21723326.7844   21723340.2504
 -12494271.512 9  -9477396.36447  22504200.600    22504200.2774   22504218.2764
  -5273197.628 8  -2061026.95345  24557196.134    24557195.7284   24557208.4124
  -5605014.858 8  -4355124.74645  24294866.973    24294866.7424   24294895.0614
 -17841440.533 9 -13885431.40348  21649811.722    21649811.6174   21649827.7984
  -8821194.785 9  -6858917.31546  22988227.739    22988227.6714   22988244.9254
 -24568193.668 9 -19117206.60649  20680011.930    20680011.9364   20680026.2944
 00  9 18  0 30 30.0000000  0 11  1  8 10 13 28 31 22 20 27  3 19     .000000010
 -23031692.574 9 -17926357.08548  20792860.240    20792860.0924   20792874.2274
 -10418856.768 9  -8096089.87846  22888861.686    22888861.4314   22888883.9204
  -2690930.387 8  -2080130.30445  25264432.852    25264432.3394   25264461.6984
 -22240349.300 9 -17315454.97348  20946479.568    20946479.9644   20946493.2344
 -15762057.698 9 -12258326.64948  21736398.013    21736397.8654   21736411.3404
 -12564448.554 9  -9532079.48947  22490846.162    22490845.8624   22490863.7374
  -5162425.401 8  -1974710.78545  24578274.836    24578274.8064   24578287.1104
  -5496326.219 9  -4270432.67445  24315550.042    24315549.8144   24315578.1074
 -17881154.867 9 -13916377.51248  21642254.268    21642254.1494   21642270.3174
  -8824021.857 9  -6861120.17846  22987689.727    22987689.6944   22987706.8844
 -24569711.970 9 -19118389.61949  20679722.944    20679722.9264   20679737.2494
 00  9 18  0 31  0.0000000  0 11  1  8 10 13 28 31 22 20 27  3 19     .000000010
 -22994187.065 9 -17897131.96248  20799997.291    20799997.1324   20800011.2684
 -10485932.573 9  -8148356.38246  22876097.327    22876097.0484   22876119.4594
  -2769520.946 8  -2141369.30445  25249477.260    25249476.6724   25249505.9944
 -22285366.986 9 -17350533.49748  20937912.865    20937913.2644   20937926.4914
 -15693044.869 9 -12204550.35448  21749530.677    21749530.5134   21749543.9924
 -12634275.534 9  -9586489.81647  22477558.316    22477558.0014   22477575.8484
  -5051617.803 8  -1888366.89045  24599360.369    24599360.1394   24599372.2304
  -5387664.345 9  -4185761.43145  24336228.065    24336227.7994   24336256.1444
 -17920757.231 9 -13947236.35148  21634718.065    21634717.9374   21634734.0854
  -8826320.211 9  -6862911.01446  22987252.317    22987252.2674   22987269.4934
 -24571054.626 9 -19119435.75048  20679467.379    20679467.3734   20679481.6744
 00  9 18  0 31 30.0000000  0 11  1  8 10 13 28 31 22 20 27  3 19     .000000010
 -22956263.313 9 -17867580.95148  20807213.892    20807213.7264   20807227.8574
 -10552898.504 9  -8200537.25246  22863353.867    22863353.6204   22863375.9204
  -2847762.905 8  -2202336.48745  25234587.931    25234587.3004   25234616.5874
 -22330029.351 9 -17385335.15748  20929413.788    20929414.1884   20929427.3724
 -15623711.129 9 -12150524.01248  21762724.401    21762724.2404   21762737.7274
 -12703749.484 9  -9640625.05647  22464337.623    22464337.2944   22464355.0954
