     2              OBSERVATION DATA    G (GPS)             RINEX VERSION / TYPE
teqc  1997Sep28     CORS/NGS/NOAA       19980919 02:35:23UTCPGM / RUN BY / DATE
HP-UX 10.20|PA-RISC|cc A.10.32.03|=+|=|                     COMMENT
BIT 2 OF LLI FLAGS DATA COLLECTED UNDER A-S CONDITION       COMMENT
ppt1                                                        MARKER NAME
xxx                                                         MARKER NUMBER
CORS/NGS/NOAA       U.S. Coast Guard                        OBSERVER / AGENCY
05402               ASHTECH Z-XII3      1C01                REC # / TYPE / VERS
11092               ASHTECH L1/L2 P                         ANT # / TYPE
 -2725252.3748 -4295978.5284  3833958.9631                  APPROX POSITION XYZ 
        0.0000        0.0000        0.0000                  ANTENNA: DELTA H/E/N
     1     1                                                WAVELENGTH FACT L1/2
     7    C1    L1    L2    P1    P2    D1    D2            # / TYPES OF OBSERV
    30.0000                                                 INTERVAL
  1998     9    18     0     0   30.000000                  TIME OF FIRST OBS
                                                            END OF HEADER
 98  9 18  0  0 30.0000000  0  8G 4G22G19G16G25G18G15G14
  24453908.5204   -8641649.68847  -6472860.46645  24453908.1634   24453919.8384
      1647.3844       1283.6754
  21628189.7464  -18891333.94748 -14435677.78247  21628188.8814   21628197.3644
      1230.3954        958.7474
  24258851.1644  -11137725.66847  -8073944.10645  24258850.8554   24258864.6484
      3706.6774       2888.3154
  21253227.9234  -28928557.38349 -22246466.82147  21253227.3524   21253236.8044
      2462.6114       1918.9164
  24258988.0894  -15696301.10047 -11937523.20945  24258988.9024   24258997.6604
     -2373.3234      -1849.3404
  22964656.7864  -18768263.39448 -14352516.50846  22964656.6404   22964667.0384
      3227.1234       2514.6404
  24761945.8734  -14790254.27347 -11204059.54445  24761944.6824   24761962.2784
     -2856.8814      -2226.1354
  20571549.2204  -38258866.09549 -29561642.33147  20571549.1624   20571557.4434
      -352.1054       -274.3684
 98  9 18  0  1  0.0000000  0  8G 4G22G19G16G25G18G15G14
  24444567.4564   -8690733.21947  -6511107.35445  24444568.0304   24444579.4144
      1628.3324       1268.8304
  21621234.0024  -18927882.70348 -14464157.31347  21621233.6944   21621242.4074
      1209.8214        942.7184
  24237716.3344  -11248789.77747  -8160487.40245  24237716.1554   24237729.0014
      3701.0794       2883.9544
  21239220.7614  -29002165.14849 -22303823.48947  21239220.3294   21239230.1164
      2448.1884       1907.6784
  24272552.0004  -15625021.97747 -11881981.10645  24272552.2154   24272562.3064
     -2375.0944      -1850.7194
  22946253.3224  -18864974.44548 -14427875.69746  22946253.1884   22946263.2904
      3223.7584       2512.0144
  24778259.1924  -14704524.63247 -11137257.57845  24778258.9304   24778275.2904
     -2854.8064      -2224.5134
  20573620.7174  -38247980.37249 -29553159.97247  20573620.6734   20573628.9644
      -369.9974       -288.3094
 98  9 18  0  1 30.0000000  0  8G 4G22G19G16G25G18G15G14
  24435326.3094   -8739299.64647  -6548951.29645  24435326.8694   24435337.0854
      1607.8734       1252.8874
  21614388.4574  -18963860.02848 -14492191.56547  21614387.7694   21614395.7654
      1186.9264        924.8764
  24216606.0994  -11359723.45847  -8246929.06345  24216606.0434   24216619.0484
      3692.8424       2877.5324
  21225285.4894  -29075395.58149 -22360886.13547  21225285.1764   21225294.3394
      2432.2714       1895.2754
  24286115.3514  -15553745.26047 -11826440.86945  24286115.7364   24286125.7764
     -2378.0754      -1853.0534
  22927859.4574  -18961634.29948 -14503194.98946  22927858.9394   22927868.8724
      3218.4574       2507.8854
  24794551.9994  -14618911.55447 -11070546.43345  24794551.4214   24794567.3264
     -2854.2704      -2224.1004
  20575783.0064  -38236616.45749 -29544304.99547  20575782.8824   20575791.4574
      -389.0094       -303.1234
 98  9 18  0  2  0.0000000  0  8G 4G22G19G16G25G18G15G14
  24426197.8994   -8787270.04747  -6586330.81545  24426197.9354   24426208.2154
      1593.8204       1241.9414
  21607675.8934  -18999133.01948 -14519676.98847  21607675.2254   21607683.9184
      1168.3524        910.4034
  24195544.6894  -11470401.72547  -8333171.72145  24195544.5624   24195557.7154
      3689.4054       2874.8614
  21211440.3794  -29148152.34349 -22417579.69247  21211439.8854   21211449.3314
      2421.9014       1887.1954
  24299694.1704  -15482389.23047 -11770838.83745  24299694.2174   24299704.1454
     -2375.2494      -1850.8424
  22909496.7324  -19058128.82748 -14578385.45346  22909497.0434   22909506.4014
      3218.3504       2507.8034
  24810841.2474  -14533314.86347 -11003848.04445  24810840.0184   24810854.3424
     -2848.3664      -2219.4994
  20578051.4554  -38224698.03949 -29535017.94147  20578051.2044   20578059.3474
      -401.9044       -313.1724
 98  9 18  0  2 30.0000000  0  8G 4G22G19G16G25G18G15G14
  24417156.9284   -8834783.49747  -6623354.27045  24417156.6944   24417165.9284
      1575.0094       1227.2834
  21601075.3504  -19033819.18848 -14546705.15247  21601074.5704   21601083.1864
      1145.7644        892.8024
  24174509.4074  -11580937.85447  -8419303.62646  24174510.3154   24174523.2374
      3680.9914       2868.3004
  21197661.8934  -29220560.04049 -22474001.24947  21197661.2364   21197670.9094
      2406.6424       1875.3044
  24313264.1314  -15411079.42447 -11715272.81245  24313264.1644   24313274.0874
     -2377.5154      -1852.6094
  22891143.3354  -19154581.67748 -14653543.42546  22891142.6344   22891152.6034
      3213.3714       2503.9254
  24827102.0144  -14447863.92347 -10937263.23045  24827102.1164   24827116.1924
     -2846.8334      -2218.3004
  20580400.4094  -38212352.75949 -29525398.26847  20580400.2174   20580408.9754
      -419.6514       -327.0004
 98  9 18  0  3  0.0000000  0  8G 4G22G19G16G25G18G15G14
  24408202.9364   -8881827.19847  -6660011.65745  24408203.7674   24408214.2504
      1559.6774       1215.3304
  21594585.7314  -19067923.26748 -14573279.73947  21594584.7284   21594593.2934
      1126.7174        877.9614
  24153510.3424  -11691291.26747  -8505293.15046  24153510.2264   24153524.1984
      3674.8294       2863.4954
  21183954.1564  -29292591.60249 -22530129.71447  21183953.7774   21183963.6924
      2394.1654       1865.5814
  24326834.7784  -15339765.79747 -11659703.81045  24326835.3594   24326844.3214
     -2378.0584      -1853.0344
  22872801.0744  -19250966.68848 -14728648.54246  22872801.0944   22872810.9044
      3211.0264       2502.0954
  24843338.0444  -14362546.68247 -10870782.59845  24843338.0684   24843354.6054
     -2842.2804      -2214.7554
  20582834.8504  -38199559.46149 -29515429.48747  20582834.7844   20582843.4144
      -434.5734       -338.6274
 98  9 18  0  3 30.0000000  0  7G 4G22G19G16G25G18G14
  24399359.5034   -8928307.53347  -6696230.07645  24399359.6244   24399369.4934
      1540.7724       1200.6054
  21588223.5984  -19101353.75648 -14599329.45647  21588223.0904   21588231.6444
      1103.9724        860.2374
  24132563.4344  -11801368.19647  -8591067.25746  24132563.5244   24132576.8224
      3665.7564       2856.4284
  21170339.3054  -29364138.12449 -22585880.22747  21170338.7234   21170348.8434
      2377.4514       1852.5574
  24340428.4914  -15268333.16847 -11604042.07145  24340428.7644   24340438.1984
     -2382.1454      -1856.2124
  22854492.4324  -19347181.32648 -14803620.91146  22854492.0264   22854501.4624
      3205.2284       2497.5774
  20585375.2614  -38186210.96249 -29505028.08247  20585375.0634   20585383.5554
      -453.5044       -353.3794
 98  9 18  0  4  0.0000000  0  7G 4G22G19G16G25G18G14
  24390605.7104   -8974313.67247  -6732079.00645  24390605.4004   24390615.3524
      1524.6064       1188.0034
  21581972.8634  -19134205.08248 -14624927.87447  21581971.8334   21581980.2234
      1084.8094        845.3084
  24111647.5894  -11911281.69547  -8676713.99546  24111647.3014   24111660.8654
      3660.5254       2852.3564
  21156803.1424  -29435272.86949 -22641309.87847  21156802.6534   21156812.0174
      2363.3804       1841.5954
  24354027.7324  -15196867.96047 -11548354.96045  24354027.9014   24354037.2304
     -2383.6954      -1857.4264
  22836198.7094  -19443315.56148 -14878530.62846  22836198.5044   22836208.0274
      3202.4334       2495.4024
  20588006.4534  -38172381.48449 -29494251.89547  20588006.2744   20588015.1854
      -470.1204       -366.3264
 98  9 18  0  4 30.0000000  0  7G 4G22G19G16G25G18G14
  24381959.2184   -9019748.46547  -6767482.71245  24381959.3554   24381969.4164
      1503.4464       1171.5184
  21575842.5644  -19166420.00848 -14650030.39547  21575841.7854   21575849.6824
      1062.0004        827.5314
  24090774.3674  -12020967.03947  -8762182.95146  24090774.2204   24090788.0524
      3651.0634       2844.9784
  21143363.8884  -29505897.64849 -22696342.15847  21143363.2714   21143372.4394
      2344.2194       1826.6644
  24367652.4344  -15125270.65047 -11492564.91445  24367652.6994   24367661.7244
     -2390.1394      -1862.4424
  22817933.7434  -19539295.50248 -14953320.11146  22817933.6974   22817944.0974
      3195.5514       2490.0364
  20590749.7134  -38157965.35249 -29483018.56947  20590749.6224   20590758.6464
      -491.6904       -383.1334
 98  9 18  0  5  0.0000000  0  7G 4G22G19G16G25G18G14
  24373417.9584   -9064621.23847  -6802448.46945  24373418.8544   24373430.3254
      1490.0774       1161.1054
  21569829.4094  -19198016.42548 -14674650.95947  21569828.9204   21569837.3764
      1046.3724        815.3544
  24069941.4054  -12130445.33847  -8847490.58646  24069941.2194   24069955.3764
      3649.6994       2843.9174
  21130018.8754  -29576024.91949 -22750986.77147  21130018.3894   21130027.6244
      2333.0584       1817.9674
  24381297.5424  -15053562.77247 -11436688.72745  24381297.8984   24381307.2054
     -2388.1094      -1860.8594
  22799693.5704  -19635147.10348 -15028009.58446  22799693.5934   22799703.8534
      3196.6594       2490.8994
  20593603.3604  -38142967.67949 -29471332.09647  20593603.4884   20593612.6464
      -506.1624       -394.4124
 98  9 18  0  5 30.0000000  0  7G 4G22G19G16G25G18G14
  24364957.8074   -9109084.16147  -6837094.87845  24364957.7664   24364970.0884
      1474.1494       1148.6894
  21563910.3794  -19229119.73648 -14698887.28847  21563909.9804   21563918.5104
      1026.9934        800.2524
  24049116.0804  -12239881.81248  -8932765.63546  24049116.0474   24049129.9234
      3645.8524       2840.9204
  21116739.3264  -29645808.98549 -22805363.94747  21116738.9064   21116748.1024
      2319.1274       1807.1114
  24394930.2574  -14981924.79647 -11380867.00345  24394930.2184   24394939.7584
     -2387.8574      -1860.6634
  22781448.1284  -19731030.11248 -15102723.53346  22781448.0174   22781456.9554
      3195.5064       2490.0054
  20596543.1734  -38127521.60949 -29459296.22847  20596543.1114   20596552.2244
      -523.5204       -407.9374
 98  9 18  0  6  0.0000000  0  7G 4G22G19G16G25G18G14
  24356601.9924   -9152998.42647  -6871313.75145  24356602.0034   24356612.7484
      1454.6464       1133.4894
  21558117.4304  -19259565.37148 -14722611.13747  21558116.7274   21558124.8704
      1003.8794        782.2434
  24028328.9624  -12349126.27448  -9017891.05146  24028328.5434   24028340.8274
      3638.3494       2835.0754
  21103552.6264  -29715105.59049 -22859361.28947  21103552.1684   21103561.3164
      2301.8764       1793.6694
  24408575.6204  -14910217.83147 -11324991.53045  24408575.4634   24408585.5774
     -2391.2344      -1863.2984
  22763223.3574  -19826803.38148 -15177351.96946  22763222.7714   22763231.8814
      3190.7654       2486.3074
  20599594.2594  -38111486.95349 -29446801.72047  20599594.0724   20599603.1644
      -544.1474       -424.0104
 98  9 18  0  6 30.0000000  0  7G 4G22G19G16G25G18G14
  24348348.9284   -9196371.12947  -6905110.64145  24348348.5814   24348359.5804
      1436.6024       1119.4264
  21552448.5814  -19289354.99348 -14745823.80647  21552447.7384   21552456.1714
       982.0194        765.2094
  24007576.2614  -12458184.12748  -9102871.05646  24007575.6264   24007587.5244
      3632.1044       2830.2074
  21090455.8294  -29783931.14849 -22912991.58047  21090455.1764   21090464.2894
      2286.5954       1781.7624
  24422230.7124  -14838458.60447 -11269075.32045  24422230.6354   24422239.8594
     -2392.5734      -1864.3434
  22745016.0904  -19922482.48648 -15251907.03146  22745015.5874   22745025.0204
      3187.7264       2483.9384
  20602753.6644  -38094880.66849 -29433861.78747  20602753.8874   20602763.2724
      -562.9684       -438.6754
 98  9 18  0  7  0.0000000  0  7G 4G22G19G16G25G18G14
  24340191.8014   -9239236.86247  -6938512.49345  24340192.4694   24340202.3014
      1419.1434       1105.8234
  21546899.1434  -19318516.83848 -14768547.30947  21546898.4514   21546906.7124
       960.2024        748.2094
  23986851.1254  -12567088.97848  -9187731.83846  23986851.0834   23986863.7574
      3626.3264       2825.7074
  21077436.7934  -29852345.50749 -22966301.45847  21077436.2554   21077445.2214
      2272.3844       1770.6894
  24435885.3524  -14766705.24547 -11213163.67645  24435884.7454   24435894.7784
     -2393.0554      -1864.7184
  22726820.0944  -20018100.54048 -15326414.52046  22726819.8874   22726829.8994
      3184.7124       2481.5914
  20606016.5614  -38077739.46949 -29420505.03947  20606016.2224   20606025.1404
      -581.6214       -453.2104
 98  9 18  0  7 30.0000000  0  7G 4G22G19G16G25G18G14
  24332133.9904   -9281579.04647  -6971506.37545  24332134.0574   24332145.1694
      1405.6204       1095.2874
  21541473.5094  -19347030.19848 -14790765.49547  21541472.5954   21541480.9134
       942.8554        734.6944
  23966158.3374  -12675830.48548  -9272465.33746  23966158.1354   23966170.0974
      3625.0834       2824.7404
  21064497.5844  -29920339.90749 -23019284.09847  21064497.2994   21064506.2834
      2262.5024       1762.9884
  24449540.0624  -14694949.52347 -11157250.20145  24449540.1724   24449549.6604
     -2388.7854      -1861.3854
  22708640.5484  -20113634.59848 -15400856.56246  22708640.1314   22708650.1614
      3186.2984       2482.8274
  20609381.3094  -38060057.54449 -29406726.94747  20609381.1964   20609390.0934
      -595.0234       -463.6534
 98  9 18  0  8  0.0000000  0  7G 4G22G19G16G25G18G14
  24324187.7494   -9323331.25347  -7004040.54745  24324188.2304   24324199.5874
      1384.1564       1078.5624
  21536177.1174  -19374860.10848 -14812451.12547  21536176.3604   21536185.1974
       918.9554        716.0714
  23945506.4554  -12784355.70648  -9357030.29846  23945506.0804   23945518.5704
      3616.4174       2817.9834
  21051649.3504  -29987858.02149 -23071895.60247  21051648.8864   21051658.1674
      2245.1984       1749.5044
  24463204.2774  -14623142.53347 -11101296.77345  24463204.4674   24463213.9394
     -2391.9234      -1863.8334
  22690485.5964  -20209038.16748 -15475196.93746  22690485.3034   22690495.3444
      3180.4944       2478.3014
  20612856.4664  -38041795.86749 -29392497.10247  20612856.3224   20612865.1754
      -615.8284       -479.8654
 98  9 18  0  8 30.0000000  0  7G 4G22G19G16G25G18G14
  24316334.7484   -9364604.44347  -7036201.45545  24316334.4424   24316344.5234
      1365.7524       1064.2184
  21530986.0124  -19402139.24948 -14833707.58347  21530985.4744   21530994.0934
       898.2254        699.9144
  23924874.2064  -12892776.01248  -9441513.50746  23924874.5864   23924886.1434
      3610.1044       2813.0624
  21038869.0064  -30055021.03149 -23124230.40247  21038868.4474   21038877.5774
      2230.7554       1738.2504
  24476855.6864  -14551405.42947 -11045397.80345  24476855.4614   24476864.6424
     -2392.2244      -1864.0744
  22672332.9834  -20304431.53948 -15549529.35746  22672332.8674   22672342.4464
      3177.4724       2475.9494
  20616418.0494  -38023078.47849 -29377912.15147  20616418.1194   20616426.8504
      -633.4714       -493.6144
 98  9 18  0  9  0.0000000  0  7G 4G22G19G16G25G18G14
  24308598.1514   -9405257.61347  -7067879.22845  24308598.3064   24308608.7314
      1342.3794       1046.0084
  21525925.7454  -19428731.92148 -14854429.12847  21525925.2494   21525934.0234
       872.3784        679.7754
  23904291.0774  -13000938.91348  -9525796.13246  23904291.1594   23904304.2814
      3598.6234       2804.1164
  21026184.4044  -30121677.89749 -23176170.80547  21026183.8484   21026193.0194
      2210.6124       1722.5544
  24490523.5124  -14479582.10347 -10989431.63745  24490523.0764   24490533.4514
     -2398.2754      -1868.7834
  22654210.4834  -20399660.91048 -15623733.97146  22654210.8724   22654220.9154
      3168.9924       2469.3424
  20620093.2834  -38003766.58749 -29362863.95647  20620093.2264   20620101.6904
      -656.0374       -511.1954
 98  9 18  0  9 30.0000000  0  7G 4G22G19G16G25G18G14
  24300958.1354   -9445406.10347  -7099163.74945  24300958.8604   24300969.5654
      1332.4144       1038.2474
  21520977.3364  -19454734.62748 -14874690.95647  21520976.7674   21520985.6554
       859.3594        669.6314
  23883738.9754  -13108941.34248  -9609953.70746  23883739.0384   23883751.8434
      3599.8064       2805.0394
  21013582.5714  -30187902.08849 -23227774.05747  21013582.0184   21013591.1494
      2202.4424       1716.1884
  24504191.4884  -14407756.81647 -10933463.92645  24504191.3964   24504201.1814
     -2391.8694      -1863.7954
  22636102.1004  -20494825.23048 -15697887.90246  22636101.7934   22636111.3414
      3173.5404       2472.8874
  20623859.5224  -37983973.72149 -29347440.98147  20623859.3734   20623868.4064
      -665.4304       -518.5154
 98  9 18  0 10  0.0000000  0  7G 4G22G19G16G25G18G14
  24293413.5064   -9485055.55947  -7130059.40345  24293413.6664   24293425.5004
      1314.3974       1024.2034
  21516142.7714  -19480141.58148 -14894488.56247  21516142.1544   21516150.6974
       837.9024        652.9104
  23863221.0074  -13216764.43848  -9693971.54446  23863220.9604   23863233.2844
      3591.9844       2798.9434
  21001067.0914  -30253669.89749 -23279021.69047  21001066.6314   21001076.1974
      2185.7044       1703.1454
  24517864.9374  -14335900.89347 -10877472.35745  24517864.5244   24517874.4224
     -2394.9214      -1866.1754
  22618008.1134  -20589912.03848 -15771981.44346  22618007.9834   22618016.1934
      3169.0164       2469.3624
  20627721.6214  -37963679.46349 -29331627.30247  20627721.4434   20627730.1804
      -683.8454       -532.8654
 98  9 18  0 10 30.0000000  0  7G 4G22G19G16G25G18G14
  24285958.7654   -9524228.23047  -7160583.55145  24285958.9764   24285971.0724
      1294.9804       1009.0744
  21511421.4404  -19504951.84748 -14913821.21847  21511420.7494   21511429.6004
       814.1854        634.4284
  23842737.6014  -13324406.46648  -9777848.29346  23842737.2304   23842749.2054
      3582.2314       2791.3444
  20988637.6774  -30318987.42749 -23329918.45447  20988637.2504   20988646.1284
      2166.8454       1688.4514
  24531544.9604  -14264012.68747 -10821455.64545  24531545.7934   24531554.7764
     -2399.5674      -1869.7874
  22599930.2554  -20684907.37748 -15846003.70546  22599930.1284   22599939.3994
      3162.0294       2463.9164
  20631677.1664  -37942891.83749 -29315429.18447  20631677.1854   20631686.0734
      -704.1314       -548.6724
 98  9 18  0 11  0.0000000  0  7G 4G22G19G16G25G18G14
  24278600.5664   -9562900.65147  -7190717.88645  24278600.4904   24278611.1194
      1282.2764        999.1754
  21506819.5384  -19529135.10148 -14932665.28947  21506819.1524   21506827.7154
       796.9434        620.9934
  23822292.4604  -13431842.62348  -9861564.61446  23822292.7604   23822304.6824
      3579.2744       2789.0384
  20976299.7134  -30383822.63249 -23380439.38547  20976299.2854   20976308.5234
      2154.7094       1678.9954
  24545234.0114  -14192079.88347 -10765404.17145  24545232.5974   24545242.7254
     -2396.8124      -1867.6404
  22581877.5164  -20779775.28448 -15919926.65746  22581877.4414   22581886.4754
      3161.5114       2463.5134
  20635734.2324  -37921573.92549 -29298817.85747  20635734.1004   20635742.5754
      -717.9204       -559.4194
 98  9 18  0 11 30.0000000  0  7G 4G22G19G16G25G18G14
  24271337.5414   -9601066.93147  -7220457.85045  24271337.8244   24271348.2074
      1263.6134        984.6374
  21502339.8954  -19552674.89748 -14951007.96947  21502339.1744   21502348.0984
       774.0684        603.1714
  23801888.6914  -13539069.51048  -9945117.86546  23801888.5974   23801900.4694
      3570.8844       2782.5024
  20964054.3284  -30448174.14149 -23430583.40447  20964053.9334   20964062.9454
      2137.2674       1665.4024
  24558926.9684  -14120118.50647 -10709330.44345  24558926.6024   24558937.0284
     -2398.9494      -1869.3064
  22563850.8654  -20874509.32448 -15993745.30446  22563850.5904   22563859.5504
      3155.6564       2458.9514
  20639891.7874  -37899726.61049 -29281794.00447  20639891.5924   20639899.8294
      -737.0104       -574.2924
 98  9 18  0 12  0.0000000  0  7G 4G22G19G16G25G18G14
  24264170.2044   -9638734.36947  -7249809.07945  24264170.1034   24264179.9284
      1248.3404        972.7364
  21497976.7434  -19575604.46748 -14968875.15147  21497976.0014   21497984.7314
       755.6974        588.8554
  23781517.6914  -13646118.87848 -10028532.79646  23781517.6384   23781529.2874
      3566.7934       2779.3174
  20951891.4484  -30512090.00949 -23480387.96847  20951890.9824   20951900.0934
      2125.0424       1655.8774
  24572616.5614  -14048175.90347 -10653271.33445  24572617.6434   24572627.2644
     -2396.1434      -1867.1194
  22545843.3254  -20969135.87548 -16067480.20246  22545843.0844   22545852.7754
      3153.9644       2457.6334
  20644143.2674  -37877383.59749 -29264383.89947  20644143.2304   20644151.7474
      -751.1644       -585.3204
 98  9 18  0 12 30.0000000  0  7G 4G22G19G16G25G18G14
  24257104.2214   -9675862.08947  -7278739.76345  24257104.2804   24257114.7804
      1226.8814        956.0114
  21493734.1004  -19597900.92748 -14986248.99747  21493733.3604   21493741.6924
       731.1014        569.6884
  23761183.5244  -13752974.68848 -10111796.90846  23761183.6554   23761194.8324
      3557.3034       2771.9174
  20939812.8844  -30575563.48149 -23529847.80647  20939812.3624   20939821.5844
      2106.7684       1641.6364
  24586302.3674  -13976256.09047 -10597230.01145  24586302.5984   24586312.5204
     -2398.3714      -1868.8654
  22527858.1354  -21063646.89748 -16141125.07246  22527857.7434   22527867.6574
      3147.0904       2452.2744
  20648487.9584  -37854552.64249 -29246593.57647  20648487.7704   20648495.9714
      -770.8194       -600.6374
 98  9 18  0 13  0.0000000  0  7G 4G22G19G16G25G18G14
  24250147.6304   -9712416.45147  -7307223.67845  24250147.4644   24250157.9354
      1206.8304        940.3884
  21489616.7684  -19619535.86248 -15003107.37547  21489616.0204   21489624.4794
       708.0604        551.7354
  23740888.2134  -13859624.79248 -10194900.73746  23740887.9754   23740900.0824
      3549.7674       2766.0474
  20927824.8544  -30638558.69049 -23578934.97147  20927824.5094   20927833.8554
      2089.7294       1628.3594
  24599989.9084  -13904330.57747 -10541184.23045  24599990.0754   24600000.4884
     -2399.8834      -1870.0344
  22509897.7284  -21158029.82448 -16214670.13846  22509897.3684   22509907.1664
      3142.0394       2448.3394
  20652931.9604  -37831200.10649 -29228396.82947  20652931.7144   20652940.0704
      -789.0834       -614.8694
 98  9 18  0 13 30.0000000  0  7G 4G22G19G16G25G18G14
  24243311.2784   -9748342.24547  -7335217.79745  24243312.1624   24243322.9294
      1187.8314        925.5844
  21485635.4894  -19640457.80848 -15019410.16847  21485634.7694   21485643.2924
       686.5264        534.9544
  23720639.4304  -13966033.52248 -10277816.48146  23720639.1504   23720650.7764
      3543.9034       2761.4774
  20915939.9064  -30701016.01249 -23627602.99247  20915939.5354   20915948.7174
      2073.6944       1615.8644
  24613690.2534  -13832334.95547 -10485083.82945  24613690.0744   24613699.8334
     -2400.4104      -1870.4474
  22491969.3024  -21252244.71948 -16288084.25746  22491969.2194   22491978.9984
      3138.7634       2445.7874
  20657483.9034  -37807277.68749 -29209756.01447  20657483.7734   20657492.5454
      -806.2104       -628.2154
 98  9 18  0 14  0.0000000  0  7G 4G22G19G16G25G18G14
  24236577.6994   -9783727.81847  -7362790.97345  24236577.7804   24236589.3344
      1169.3724        911.2024
  21481772.4064  -19660757.54048 -15035228.12147  21481771.7434   21481780.4174
       665.0214        518.1974
  23700420.5524  -14072284.35548 -10360609.18546  23700420.4304   23700432.3854
      3537.6664       2756.6174
  20904144.3194  -30763005.51849 -23675906.48847  20904143.7574   20904152.3264
      2057.0364       1602.8844
  24627391.3294  -13760336.81247 -10428981.43845  24627391.1724   24627401.0904
     -2401.2474      -1871.0954
  22474054.1244  -21346393.22048 -16361446.65346  22474053.7284   22474062.9004
      3136.0274       2443.6554
  20662131.0054  -37782856.97949 -29190726.92747  20662130.8054   20662139.6704
      -823.6114       -641.7744
 98  9 18  0 14 30.0000000  0  7G 4G22G19G16G25G18G14
  24229948.3304   -9818567.33447  -7389938.65945  24229948.1964   24229958.9614
      1154.0604        899.2664
  21478034.5784  -19680403.35048 -15050536.52447  21478033.7424   21478042.1214
       645.6734        503.1204
  23680237.8784  -14178342.46848 -10443251.71346  23680237.9124   23680249.8634
      3533.8734       2753.6614
  20892447.6804  -30824470.45149 -23723801.23147  20892447.0704   20892455.6654
      2041.5864       1590.8464
  24641100.5984  -13688296.20647 -10372845.94545  24641099.8354   24641110.0264
     -2400.5774      -1870.5794
  22456155.4154  -21440447.90748 -16434735.95346  22456155.2504   22456164.8484
      3135.1124       2442.9394
  20666881.1244  -37757895.58149 -29171276.51547  20666881.0634   20666889.7244
      -839.7534       -654.3524
 98  9 18  0 15  0.0000000  0  7G 4G22G19G16G25G18G14
  24223410.7844   -9852923.60147  -7416709.77645  24223410.8534   24223420.0914
      1138.9924        887.5344
  21474410.0014  -19699445.88048 -15065374.84047  21474409.6854   21474417.9594
       626.7214        488.3544
  23660084.4824  -14284249.08948 -10525776.20146  23660084.5074   23660096.3864
      3529.4054       2750.1804
  20880844.6444  -30885446.26549 -23771314.83547  20880844.0054   20880852.4924
      2026.5124       1579.0984
  24654812.6434  -13616240.47147 -10316698.68145  24654812.1044   24654821.7764
     -2400.0384      -1870.1604
  22438269.1614  -21534439.22648 -16507975.86846  22438269.2224   22438278.5324
      3133.9574       2442.0434
  20671731.0044  -37732410.90149 -29151418.35747  20671730.8404   20671739.7554
      -856.0904       -667.0824
 98  9 18  0 15 30.0000000  0  7G 4G22G19G16G25G18G14
  24216958.0274   -9886829.09847  -7443129.64445  24216958.4614   24216967.5204
      1122.8024        874.9124
  21470895.4034  -19717919.52048 -15079769.86647  21470894.6004   21470902.8954
       606.4884        472.5884
  23639958.6344  -14390009.37548 -10608186.66446  23639958.7014   23639970.7424
      3522.8784       2745.0964
  20869324.8674  -30945980.23549 -23818484.14747  20869324.4744   20869333.4254
      2010.7204       1566.7954
  24668518.4264  -13544209.15747 -10260570.43945  24668518.4554   24668528.6454
     -2400.3404      -1870.3944
  22420389.9454  -21628395.11948 -16581188.18746  22420390.0064   22420398.8384
      3131.3244       2439.9884
  20676671.9414  -37706444.28049 -29131184.66047  20676671.9774   20676681.0414
      -873.3224       -680.5104
 98  9 18  0 16  0.0000000  0  7G 4G22G19G16G25G18G14
  24210597.7794   -9920254.14747  -7469175.14245  24210598.0034   24210607.2844
      1104.3514        860.5394
  21467493.9234  -19735791.76448 -15093696.27347  21467493.2834   21467501.9444
       584.1884        455.2104
  23619870.9424  -14495573.42748 -10690444.21446  23619870.5554   23619882.2794
      3513.9454       2738.1324
  20857894.9174  -31006044.13649 -23865287.17347  20857894.7284   20857903.0784
      1992.7214       1552.7704
  24682224.3494  -13472184.49747 -10204447.38345  24682225.2914   24682235.8614
     -2402.2504      -1871.8804
  22402526.2014  -21722269.22648 -16654336.76646  22402525.8804   22402535.1834
      3125.8194       2435.6994
  20681710.6634  -37679967.81449 -29110553.67647  20681710.3824   20681719.1814
      -892.6524       -695.5724
 98  9 18  0 16 30.0000000  0  7G 4G22G19G16G25G18G14
  24204336.4934   -9953161.28747  -7494817.06945  24204336.0554   24204346.3864
      1090.1564        849.4704
  21464209.8834  -19753048.17648 -15107142.81447  21464209.2914   21464217.8414
       567.1764        441.9564
  23599822.4964  -14600926.58448 -10772537.43546  23599822.6744   23599834.5244
      3510.5484       2735.4874
  20846556.5684  -31065629.93249 -23911717.65147  20846556.2474   20846564.3784
      1980.6594       1543.3704
  24695931.0794  -13400156.56347 -10148321.77345  24695932.1554   24695941.8634
     -2398.7614      -1869.1614
  22384687.6534  -21816012.41848 -16727383.33946  22384687.5904   22384696.6194
      3124.7864       2434.8974
  20686848.7414  -37652964.21249 -29089511.94547  20686848.6824   20686857.8054
      -906.6414       -706.4734
 98  9 18  0 17  0.0000000  0  7G 4G22G19G16G25G18G14
  24198175.7664   -9985530.74247  -7520040.02245  24198175.8114   24198186.5514
      1071.5894        835.0004
  21461043.0184  -19769692.11448 -15120112.10147  21461042.3804   21461050.4214
       546.3364        425.7154
  23579814.4664  -14706070.41648 -10854467.55146  23579814.2504   23579826.2684
      3503.0044       2729.6084
  20835305.9234  -31124752.31849 -23957787.02947  20835305.2844   20835313.9264
      1964.6074       1530.8624
  24709635.4184  -13328138.74847 -10092204.06945  24709637.0314   24709645.2274
     -2398.5134      -1868.9614
  22366872.9574  -21909627.81948 -16800330.33046  22366872.8324   22366882.5304
      3120.1734       2431.3014
  20692087.1114  -37625439.23449 -29068063.94447  20692086.7894   20692095.5344
      -924.1704       -720.1314
 98  9 18  0 17 30.0000000  0  7G 4G22G19G16G25G18G14
  24192116.7694  -10017368.86347  -7544848.94745  24192117.5694   24192127.5174
      1052.1204        819.8324
  21457990.2674  -19785734.04348 -15132612.28547  21457989.6414   21457997.8954
       524.3144        408.5574
  23559842.1414  -14811021.72848 -10936247.65146  23559842.0544   23559855.0184
      3495.2104       2723.5354
  20824143.6444  -31183409.08349 -24003493.58747  20824143.1374   20824152.1144
      1946.9014       1517.0664
  24723333.5644  -13256158.52147 -10036115.63345  24723333.0894   24723344.1684
     -2398.9014      -1869.2744
  22349079.8074  -22003132.89448 -16873191.35646  22349079.6714   22349089.1114
      3114.7484       2427.0764
  20697416.6084  -37597429.70649 -29046238.37047  20697416.5544   20697425.6774
      -942.0014       -734.0254
 98  9 18  0 18  0.0000000  0  7G 4G22G19G16G25G18G14
  24186178.7194  -10048575.24747  -7569165.60045  24186179.3094   24186189.8894
      1032.7904        804.7694
  21455072.5334  -19801065.87448 -15144559.14947  21455071.9814   21455080.3904
       502.4084        391.4874
  23539922.7674  -14915699.67148 -11017814.74046  23539922.8004   23539935.2684
      3487.9494       2717.8794
  20813093.1174  -31241480.07849 -24048743.70247  20813092.5754   20813101.4524
      1929.3014       1503.3534
  24737043.3754  -13184114.53947  -9979977.51145  24737043.0174   24737053.5784
     -2399.5194      -1869.7514
  22331325.7994  -22096430.47548 -16945890.70946  22331325.8084   22331335.1034
      3109.6934       2423.1354
  20702859.7664  -37568826.60549 -29023950.27647  20702859.6884   20702869.1774
      -960.2584       -748.2524
 98  9 18  0 18 30.0000000  0  7G 4G22G19G16G25G18G14
  24180342.6184  -10079243.95847  -7593063.28245  24180342.7724   24180354.1554
      1014.5424        790.5494
  21452274.1884  -19815771.63848 -15156018.17147  21452273.5234   21452282.0504
       480.6904        374.5624
  23520038.9064  -15020190.60248 -11099236.10746  23520038.9444   23520050.6424
      3480.8544       2712.3514
  20802135.4774  -31299062.50349 -24093613.11347  20802135.2354   20802143.9024
      1912.2204       1490.0414
  24750751.7164  -13112077.32047  -9923844.66545  24750752.5954   24750762.1844
     -2400.0204      -1870.1524
  22313591.8864  -22189623.04848 -17018508.23546  22313591.6794   22313601.1344
      3106.1014       2420.3354
  20708399.4004  -37539716.12749 -29001266.82147  20708399.3094   20708408.3764
      -977.6414       -761.7984
 98  9 18  0 19  0.0000000  0  7G 4G22G19G16G25G18G14
  24174608.5304  -10109378.24747  -7616544.53545  24174608.4434   24174620.1364
       996.6014        776.5724
  21449599.0214  -19829829.09948 -15166972.03147  21449598.2704   21449606.8074
       458.8744        357.5634
  23500195.1404  -15124468.53248 -11180491.50446  23500195.2364   23500206.9564
      3473.4104       2706.5444
  20791276.1774  -31356129.12549 -24138080.60647  20791275.7674   20791284.5294
      1894.5934       1476.3054
  24764460.5564  -13040037.15747  -9867709.52245  24764460.4834   24764471.0544
     -2400.3304      -1870.3874
  22295876.5524  -22282717.01848 -17091048.93746  22295876.3984   22295885.3504
      3102.4674       2417.5034
  20714036.9754  -37510091.53949 -28978182.76247  20714036.9214   20714045.4424
      -994.9454       -775.2814
 98  9 18  0 19 30.0000000  0  7G 4G22G19G16G25G18G14
  24168968.9134  -10139015.21347  -7639638.28045  24168969.3374   24168979.1604
       977.1254        761.3904
  21447041.4414  -19843271.07448 -15177446.28047  21447040.7434   21447048.8094
       435.4524        339.3114
  23480386.6804  -15228563.83848 -11261604.60446  23480386.7584   23480398.5564
      3464.3294       2699.4714
  20780508.3844  -31412713.64149 -24182172.43147  20780507.9664   20780516.9684
      1875.9034       1461.7434
  24778164.6604  -12968022.20047  -9811594.01545  24778164.5684   24778175.1144
     -2402.3854      -1871.9884
  22278174.8814  -22375740.36148 -17163534.60046  22278174.6494   22278183.2844
      3097.1584       2413.3674
  20719766.2444  -37479986.51249 -28954724.33747  20719765.8584   20719774.7334
     -1014.1264       -790.2284
 98  9 18  0 20  0.0000000  0  7G 4G22G19G16G25G18G14
  24163433.4644  -10168104.01347  -7662304.89145  24163433.7544   24163444.4594
       958.7374        747.0704
  21444608.6224  -19856055.16148 -15187407.88847  21444607.9644   21444616.6384
       413.7044        322.3674
  23460624.3554  -15332414.37048 -11342526.97846  23460624.3594   23460636.3104
      3455.6584       2692.7154
  20769839.0034  -31468783.64449 -24225863.33347  20769838.4474   20769847.2974
      1858.8104       1448.4234
  24791873.6044  -12895978.52047  -9755456.13145  24791874.0024   24791883.1134
     -2403.7084      -1873.0134
  22260497.3514  -22468637.85648 -17235922.20346  22260497.0744   22260505.3744
      3092.5904       2409.8084
  20725598.6114  -37449334.29449 -28930839.52847  20725598.5704   20725607.6984
     -1032.5274       -804.5654
 98  9 18  0 20 30.0000000  0  7G 4G22G19G16G25G18G14
  24158017.1774  -10196568.91247  -7684485.32845  24158017.2744   24158028.0164
       941.3374        733.5094
  21442312.1434  -19868122.62648 -15196811.09747  21442311.4174   21442320.3904
       393.3834        306.5304
  23440925.7384  -15435928.96148 -11423187.57546  23440925.9574   23440937.7334
      3447.9214       2686.6874
  20759279.8154  -31524270.12449 -24269099.54547  20759279.7194   20759288.5134
      1842.6404       1435.8234
  24805601.8314  -12823839.69847  -9699244.11645  24805601.3474   24805611.8314
     -2402.8884      -1872.3824
  22242858.8794  -22561323.81948 -17308144.97246  22242858.8464   22242867.8144
      3088.9764       2406.9934
  20731547.1514  -37418073.85449 -28906480.77747  20731547.3324   20731555.9454
     -1048.9904       -817.3944
 98  9 18  0 21  0.0000000  0  6G 4G22G19G16G18G14
  24152694.7244  -10224536.15147  -7706278.00545  24152695.1474   24152704.9534
       924.5274        720.4104
  21440126.5404  -19879607.73848 -15205760.52247  21440125.8794   21440134.5554
       373.6954        291.1904
  23421265.4264  -15539244.53948 -11503693.10946  23421265.5064   23421277.5184
      3441.2894       2681.5214
  20748809.1944  -31579294.77849 -24311975.89247  20748808.7584   20748817.7684
      1827.1564       1423.7584
  22225240.3474  -22653912.80748 -17380292.17746  22225240.1294   22225248.5814
      3085.0614       2403.9414
  20737586.3654  -37386340.35949 -28881753.41347  20737586.2114   20737594.5914
     -1065.1844       -830.0134
 98  9 18  0 21 30.0000000  0  6G 4G22G19G16G18G14
  24147475.1214  -10251963.46147  -7727649.96445  24147475.3654   24147485.6104
       907.0444        706.7884
  21438061.3854  -19890460.62148 -15214217.29747  21438060.6604   21438069.1084
       352.9164        274.9984
  23401650.5114  -15642321.55248 -11584012.75046  23401650.5354   23401662.1714
      3433.7404       2675.6364
  20738433.3954  -31633822.38549 -24354464.93147  20738432.8384   20738441.4544
      1811.1294       1411.2704
  22207650.7444  -22746346.22248 -17452318.16746  22207650.6794   22207659.2924
      3080.3914       2400.3034
  20743724.2984  -37354083.25849 -28856618.05247  20743724.3354   20743733.1874
     -1082.0344       -843.1434
 98  9 18  0 22  0.0000000  0  6G 4G22G19G16G18G14
  24142366.8554  -10278811.71647  -7748570.69845  24142366.7564   24142377.2124
       881.4754        686.8644
  21436124.9734  -19900634.79948 -15222145.21947  21436124.3074   21436132.9524
       324.1664        252.5974
  23382087.6744  -15745126.71248 -11664120.56846  23382087.7004   23382098.7644
      3418.9064       2664.0824
  20728158.7904  -31687812.60549 -24396535.22747  20728158.5164   20728167.5814
      1786.9754       1392.4494
  22190097.8074  -22838585.56048 -17524192.93046  22190097.6924   22190106.4174
      3067.8554       2390.5354
  20749969.1534  -37321268.17449 -28831047.89047  20749968.9704   20749977.7194
     -1106.8334       -862.4664
 98  9 18  0 22 30.0000000  0  6G 4G22G19G16G18G14
  24137357.9104  -10305132.69447  -7769080.54446  24137358.5294   24137369.5424
       871.4834        679.0784
  21434309.6734  -19910175.92148 -15229579.85047  21434309.0284   21434317.4164
       310.3274        241.8124
  23362561.9634  -15847733.87348 -11744074.09046  23362562.0584   23362573.1514
      3420.1924       2665.0804
  20717978.4514  -31741310.66549 -24438222.01547  20717978.0084   20717987.4864
      1777.8884       1385.3664
  22172569.9414  -22930695.33348 -17595966.73546  22172569.6324   22172578.7314
      3071.3974       2393.2954
  20756309.1474  -37287950.35049 -28805085.98247  20756308.8984   20756317.6004
     -1116.0234       -869.6284
 98  9 18  0 23  0.0000000  0  5G 4G22G19G18G14
  24132438.3774  -10330984.68647  -7789224.96545  24132439.0864   24132449.9964
       853.2484        664.8694
  21432604.7414  -19919135.11648 -15236561.03347  21432604.0624   21432612.4114
       288.1724        224.5504
  23343059.8814  -15950219.54748 -11823932.94946  23343059.8364   23343070.5394
      3413.5384       2659.8944
  22155053.2714  -23022747.34148 -17667695.52346  22155052.9934   22155061.5654
      3066.7584       2389.6794
  20762735.7394  -37254178.13249 -28778770.00847  20762735.6674   20762744.5374
     -1134.0994       -883.7134
 98  9 18  0 23 30.0000000  0  6G 4G22G19G16G18G14
  24127622.0504  -10356294.85247  -7808947.18945  24127622.1594   24127633.1894
       835.9994        651.4284
  21431024.4814  -19927438.70548 -15243031.36447  21431023.6794   21431032.2624
       267.4654        208.4144
  23323593.2124  -16052515.40448 -11903643.91946  23323592.9154   23323603.7514
      3408.2254       2655.7604
  20697880.0274     -60835.58259    -35805.58547  20697884.9694   20697894.7134
      1743.5694       1358.6274
  22137557.9144  -23114681.50648 -17739332.48846  22137558.0184   22137567.2954
      3064.2114       2387.6954
  20769262.6584  -37219880.22149 -28752044.39847  20769262.5294   20769271.3764
     -1150.3134       -896.3464
 98  9 18  0 24  0.0000000  0  6G 4G22G19G16G18G14
  24122901.2304  -10381106.88047  -7828281.25445  24122901.4244   24122912.4384
       819.4324        638.5104
  21429557.6354  -19935147.18948 -15249037.97247  21429556.9914   21429565.6434
       247.7734        193.0674
  23304151.3374  -16154680.61948 -11983253.08646  23304151.1064   23304162.6174
      3404.0724       2652.5214
  20687984.1774    -112877.46349    -76357.72147  20687982.6364   20687992.2014
      1727.1684       1345.8454
  22120073.9644  -23206561.89648 -17810927.54846  22120074.0334   22120082.8074
      3062.4594       2386.3284
  20775877.9774  -37185113.27349 -28724953.30847  20775878.0374   20775887.4184
     -1166.1264       -908.6704
 98  9 18  0 24 30.0000000  0  6G 4G22G19G16G18G14
  24118296.6854  -10405299.22147  -7847132.44245  24118297.1154   24118307.3104
       799.0554        622.6484
  21428229.7234  -19942126.03648 -15254476.03147  21428229.1664   21428237.4564
       223.2204        173.9384
  23284759.1034  -16256584.42348 -12062658.55146  23284759.4254   23284771.1754
      3395.1224       2645.5474
  20678200.4804    -164288.64249   -116418.36547  20678200.0584   20678208.9124
      1705.9704       1329.3274
  22102625.9864  -23298253.15548 -17882375.23046  22102625.8984   22102634.5774
      3055.9044       2381.2254
  20782607.0174  -37149751.08249 -28697398.39347  20782607.1074   20782616.4884
     -1185.5504       -923.8044
 98  9 18  0 25  0.0000000  0  6G 4G22G19G16G18G14
  24113779.3794  -10429037.65547  -7865629.93545  24113780.0914   24113790.2334
       783.4554        610.4874
  21427011.9054  -19948526.30848 -15259463.25247  21427011.0614   21427019.4684
       203.4284        158.5154
  23265390.6754  -16358368.37748 -12141970.62846  23265390.7874   23265402.7784
      3390.4674       2641.9184
  20668508.3664    -215219.66849   -156104.87047  20668508.0174   20668517.0154
      1689.6254       1316.5904
  22085186.1144  -23389896.00848 -17953785.19846  22085186.2374   22085195.1024
      3053.6314       2379.4514
  20789416.4994  -37113969.54549 -28669516.70947  20789416.5684   20789425.7334
     -1199.7514       -934.8694
 98  9 18  0 25 30.0000000  0  6G 4G22G19G16G18G14
  24109370.4654  -10452212.51947  -7883688.29245  24109370.2494   24109380.0334
       760.1884        592.3594
  21425926.0384  -19954233.45948 -15263910.37947  21425925.1274   21425933.6594
       175.8984        137.0644
  23246068.3154  -16459908.42448 -12221092.65146  23246068.6244   23246079.4184
      3377.4354       2631.7644
  20658927.1304    -265571.69249   -195340.20647  20658926.6034   20658935.3604
      1665.9624       1298.1534
  22067778.8574  -23481374.67148 -18025067.22346  22067778.6994   22067787.8314
      3043.5154       2371.5694
  20796324.1254  -37077671.23949 -28641232.34847  20796323.9954   20796332.9564
     -1221.4714       -951.7944
 98  9 18  0 26  0.0000000  0  6G 4G22G19G16G18G14
  24105052.7704  -10474897.82347  -7901365.16245  24105053.2464   24105063.5584
       750.2294        584.5904
  21424956.6944  -19959326.21648 -15267878.75847  21424956.0094   21424964.5564
       161.8374        126.1074
  23226783.2574  -16561253.06048 -12300062.40446  23226783.2134   23226794.2514
      3376.9164       2631.3624
  20649440.2634    -315423.61649   -234185.85347  20649439.9304   20649448.9184
      1655.6964       1290.1524
  22050392.3814  -23572742.43648 -18096262.82746  22050392.1824   22050401.3584
      3045.7584       2373.3174
  20803317.6624  -37040919.14249 -28612594.39247  20803317.3534   20803326.4754
     -1230.4924       -958.8224
 98  9 18  0 26 30.0000000  0  6G 4G22G19G16G18G14
  24100825.7544  -10497100.17247  -7918665.69445  24100827.0424   24100837.9704
       735.4534        573.0804
  21424101.8814  -19963816.72248 -15271377.84847  21424101.3784   21424109.8454
       143.4194        111.7554
  23207539.4424  -16662378.06848 -12378861.02046  23207539.3784   23207551.1654
      3370.4554       2626.3244
  20640046.1874    -364789.92549   -272653.09447  20640045.7554   20640055.0604
      1641.1974       1278.8544
  22033028.7394  -23663985.23548 -18167361.06846  22033028.9844   22033037.5284
      3042.8904       2371.0814
  20810396.2144  -37003719.58449 -28583607.76347  20810396.2654   20810405.5374
     -1243.8444       -969.2284
 98  9 18  0 27  0.0000000  0  6G 4G22G19G16G18G14
  24096690.5774  -10518839.16247  -7935605.17745  24096691.3174   24096701.9424
       715.7004        557.6834
  21423352.0924  -19967757.55148 -15274448.62347  21423351.5534   21423360.1324
       121.2974         94.5164
  23188334.2444  -16763301.54648 -12457502.59446  23188334.4244   23188345.8404
      3359.9164       2618.1144
  20630735.4164    -413718.60149   -310779.32047  20630734.9524   20630744.0994
      1622.7274       1264.4624
  22015682.6674  -23755143.62448 -18238393.53046  22015682.5284   22015690.5604
      3036.2844       2365.9344
  20817555.4584  -36966098.38849 -28554292.57947  20817555.4654   20817564.6854
     -1262.3954       -983.6844
 98  9 18  0 27 30.0000000  0  6G 4G22G19G16G18G14
  24092666.4144  -10539990.01747  -7952086.37845  24092666.8974   24092677.4114
       698.5364        544.3144
  21422726.1844  -19971046.36448 -15277011.33147  21422725.5874   21422734.2464
       102.1444         79.5924
  23169187.2054  -16863922.63548 -12535908.54046  23169187.1544   23169197.3374
      3352.3514       2612.2174
  20621528.1714    -462100.95549   -348479.84647  20621527.9624   20621537.2754
      1606.8534       1252.0934
  21998372.7904  -23846104.70548 -18309272.24146  21998372.7924   21998381.6474
      3031.8324       2362.4654
  20824821.7244  -36927916.50449 -28524540.50347  20824821.5394   20824830.3634
     -1278.9014       -996.5444
 98  9 18  0 28  0.0000000  0  6G 4G22G19G16G18G14
  24088741.8394  -10560613.89647  -7968156.94545  24088741.7854   24088753.6444
       679.0144        529.1044
  21422213.0594  -19973742.31748 -15279112.07147  21422212.5424   21422221.0234
        80.1834         62.4794
  23150083.9924  -16964310.09148 -12614132.43746  23150083.8514   23150094.3634
      3343.0684       2604.9854
  20612415.3454    -509989.98349   -385795.96347  20612415.1404   20612424.1704
      1588.3244       1237.6544
  21981092.4974  -23936913.66748 -18380032.40946  21981092.1764   21981100.9634
      3025.0084       2357.1464
  20832183.7004  -36889228.13649 -28494393.76647  20832183.6444   20832192.8714
     -1297.4914      -1011.0294
 98  9 18  0 28 30.0000000  0  6G 4G22G19G16G18G14
  24084924.1754  -10580677.32847  -7983790.80846  24084924.6124   24084935.4164
       660.3514        514.5614
  21421823.3424  -19975794.41748 -15280711.10147  21421822.5464   21421830.7234
        58.4234         45.5234
  23131025.5924  -17064462.04948 -12692172.82546  23131025.4184   23131036.0004
      3335.7304       2599.2664
  20603404.8194    -557341.56549   -422693.28747  20603404.3354   20603413.3894
      1570.1564       1223.4974
  21963844.0384  -24027555.73448 -18450662.53246  21963843.7984   21963852.1674
      3019.7254       2353.0314
  20839645.0134  -36850019.36949 -28463841.52347  20839644.8514   20839653.6814
     -1314.6874      -1024.4304
 98  9 18  0 29  0.0000000  0  6G 4G22G19G16G18G14
  24081221.8664  -10600130.43047  -7998949.09045  24081222.3354   24081232.9614
       638.1874        497.2914
  21421569.8544  -19977125.08648 -15281747.98447  21421569.0134   21421577.7304
        31.9464         24.8924
  23112015.4284  -17164358.47348 -12770014.09446  23112015.3754   23112026.4394
      3325.4864       2591.2824
  20594510.8854    -604079.36449   -459112.34247  20594510.5024   20594519.5144
      1547.3014       1205.6894
  21946633.9984  -24117991.95748 -18521132.27046  21946633.9544   21946642.8864
      3010.8504       2346.1144
  20847216.9574  -36810227.15949 -28432834.64747  20847216.8894   20847225.9414
     -1336.4454      -1041.3844
 98  9 18  0 29 30.0000000  0  6G 4G22G19G16G18G14
  24077602.8994  -10619152.59847  -8013771.57045  24077603.0924   24077612.4594
       627.5454        488.9954
  21421426.3034  -19977878.96649 -15282335.41447  21421425.6184   21421433.9174
        16.1164         12.5584
  23093025.1084  -17264154.60848 -12847777.21646  23093024.7874   23093036.2004
      3325.1864       2591.0524
  20585706.6914    -650346.09849   -495164.33247  20585706.3454   20585715.3624
      1535.0334       1196.1294
  21929435.2764  -24208373.87148 -18591559.69446  21929435.2404   21929443.6504
      3012.5394       2347.4294
  20854869.5414  -36770011.94549 -28401498.16047  20854869.6084   20854878.7334
     -1346.6724      -1049.3544
 98  9 18  0 30  0.0000000  0  6G 4G22G19G16G18G14
  24074076.6084  -10637674.21447  -8028204.01345  24074077.1004   24074088.8034
       609.6894        475.0854
  21421406.9424  -19977980.12549 -15282414.23047  21421406.1564   21421414.6724
        -6.6294         -5.1684
  23074071.7014  -17363756.42348 -12925388.92046  23074071.5684   23074082.7354
      3317.5194       2585.0764
  20577005.8024    -696069.28049   -530792.77347  20577005.4104   20577014.4794
      1515.7334       1181.0904
  21912257.8984  -24298641.79148 -18661898.28246  21912257.7384   21912266.6744
      3008.0254       2343.9154
  20862613.2294  -36729320.59249 -28369790.65647  20862613.2324   20862622.2654
     -1363.4574      -1062.4334
 98  9 18  0 30 30.0000000  0  6G 4G22G19G16G18G14
  24070640.0544  -10655736.85547  -8042278.79845  24070640.4664   24070651.2104
       593.8474        462.7404
  21421500.1434  -19977491.26549 -15282033.29447  21421499.3544   21421507.9044
       -26.2214        -20.4334
  23055148.0624  -17463199.99848 -13002877.32746  23055148.0434   23055159.5134
      3311.6344       2580.4914
  20568401.0624    -741286.92449   -566027.29147  20568400.7704   20568409.9024
      1498.4724       1167.6404
  21895089.9204  -24388858.34148 -18732196.84246  21895090.0304   21895098.9904
      3005.9624       2342.3074
  20870437.2194  -36688204.19049 -28337751.94947  20870437.2154   20870446.2824
     -1378.1324      -1073.8684
 98  9 18  0 31  0.0000000  0  6G 4G22G19G16G18G14
  24067310.3964  -10673233.30047  -8055912.40645  24067310.2084   24067322.2184
       571.9684        445.6854
  21421719.5104  -19976337.74349 -15281134.43547  21421718.8754   21421726.9634
       -51.0654        -39.7924
  23036277.2914  -17562365.22848 -13080148.83446  23036277.1814   23036288.9254
      3298.8684       2570.5434
  20559911.3674    -785901.51549   -600791.89947  20559911.0944   20559919.9304
      1475.6134       1149.8274
  21877952.7444  -24478918.03848 -18802373.17646  21877952.5564   21877961.1484
      2997.5514       2335.7534
  20878363.4584  -36646552.01449 -28305295.74747  20878363.5404   20878372.5344
     -1398.9044      -1090.0534
 98  9 18  0 31 29.9990000  0  6G 4G22G19G16G18G14
  24064079.1174  -10690220.53947  -8069149.23545  24064079.3104   24064089.6124
       560.6774        436.8914
  21422049.5884  -19974604.81449 -15279784.09347  21422048.8414   21422056.8914
       -64.1864        -50.0164
  23017452.7004  -17661287.36748 -13157230.91846  23017452.5804   23017464.3134
      3296.9174       2569.0244
  20551521.1294    -829993.61949   -635149.37647  20551520.6304   20551529.7194
      1464.2764       1140.9944
  21860834.9514  -24568868.68748 -18872464.54746  21860834.7714   21860844.0654
      2999.8594       2337.5534
  20886375.5964  -36604448.36649 -28272487.75247  20886375.5034   20886384.4694
     -1407.7284      -1096.9304
 98  9 18  0 31 59.9990000  0  6G 4G22G19G16G18G14
  24060940.2784  -10706711.54947  -8081999.39645  24060940.3384   24060950.7134
       540.2504        420.9754
  21422483.5674  -19972323.02949 -15278006.06247  21422482.9784   21422491.4664
       -86.5564        -67.4474
  22998664.0144  -17760023.34548 -13234167.94546  22998664.0354   22998675.3934
      3286.9844       2561.2834
  20543224.6124    -873590.75149   -669121.16047  20543224.1814   20543233.2254
      1443.5604       1124.8534
  21843733.2784  -24658735.62448 -18942490.67846  21843733.5164   21843742.7684
      2992.5984       2331.8924
  20894467.9704  -36561924.69349 -28239352.46947  20894467.8754   20894476.6044
     -1425.8534      -1111.0524
 98  9 18  0 32 29.9990000  0  6G 4G22G19G16G18G14
  24057895.2804  -10722710.03647  -8094465.75345  24057895.7234   24057907.1444
       522.9874        407.5234
  21423023.0604  -19969485.49748 -15275794.99847  21423022.4154   21423031.4754
      -106.0844        -82.6614
  22979910.0124  -17858576.86448 -13310962.80446  22979909.6264   22979920.3104
      3279.9724       2555.8214
  20535024.5634    -916682.59849   -702699.21447  20535024.0754   20535033.2454
      1425.9734       1111.1474
  21826652.9324  -24748496.88248 -19012434.47346  21826652.8584   21826661.6194
      2987.9634       2328.2814
  20902642.4164  -36518966.75349 -28205878.79247  20902642.3964   20902651.2334
     -1441.4374      -1123.1964
 98  9 18  0 32 59.9990000  0  6G 4G22G19G16G18G14
  24054964.4374  -10738110.93447  -8106466.45345  24054964.4904   24054975.5474
       506.6654        394.8034
  21423693.8614  -19965959.62248 -15273047.56147  21423693.3894   21423702.0584
      -126.0654        -98.2324
  22961213.4374  -17956827.44848 -13387521.61046  22961213.1304   22961223.9804
      3273.0544       2550.4274
  20526941.8134    -959157.32049   -735796.39247  20526941.3194   20526950.2724
      1408.7194       1097.7034
  21809618.5344  -24838013.34748 -19082187.50846  21809618.4924   21809627.3624
      2982.8034       2324.2604
  20910925.0044  -36475442.38249 -28171963.73847  20910924.8664   20910933.5544
     -1457.0734      -1135.3814
 98  9 18  0 33 29.9990000  0  6G 4G22G19G16G18G14
  24052124.3914  -10753038.99347  -8118098.71545  24052124.5954   24052134.4964
       490.5754        382.2664
  21424476.3644  -19961849.00448 -15269844.46947  21424475.5644   21424484.3564
      -145.8544       -113.6534
  22942551.2844  -18054895.05248 -13463937.83746  22942551.2654   22942562.6784
      3267.0424       2545.7444
  20518953.6544   -1001134.41749   -768505.81147  20518953.2574   20518962.2314
      1391.7644       1084.4924
  21792609.0484  -24927396.94848 -19151837.01446  21792609.1344   21792617.7874
      2978.3684       2320.8044
  20919292.3574  -36431472.29549 -28137701.37847  20919292.1234   20919300.5204
     -1472.1994      -1147.1674
 98  9 18  0 33 59.9990000  0  6G 4G22G19G16G18G14
  24049379.4944  -10767456.71947  -8129333.32545  24049379.8794   24049391.5184
       468.1934        364.8254
  21425378.6854  -19957109.24748 -15266151.14647  21425377.7874   21425386.3544
      -172.5174       -134.4304
  22923930.1894  -18152749.89348 -13540188.27446  22923930.1384   22923941.0124
      3253.9474       2535.5414
  20511067.8314   -1042572.51649   -800795.23347  20511067.5624   20511076.9834
      1368.5324       1066.3884
  21775629.6174  -25016627.85448 -19221367.53146  21775629.3324   21775637.6564
      2967.8584       2312.6164
  20927753.0054  -36387009.63149 -28103055.19247  20927753.0944   20927761.4724
     -1494.3864      -1164.4564
 98  9 18  0 34 29.9990000  0  6G 4G22G19G16G18G14
  24046743.7814  -10781313.97947  -8140131.19145  24046744.3714   24046754.6834
       453.4204        353.3114
  21426412.2794  -19951675.46748 -15261917.02247  21426411.5734   21426420.0424
      -191.6654       -149.3494
  22905366.3894  -18250300.52548 -13616201.67446  22905366.5554   22905377.3144
      3247.3654       2530.4094
  20503295.0974   -1083420.43849   -832624.77547  20503294.6074   20503303.8494
      1352.5034       1053.8984
  21758687.8394  -25105652.88048 -19290737.61946  21758687.9784   21758697.2804
      2965.0774       2310.4464
  20936320.6914  -36341987.14949 -28067972.78147  20936320.6394   20936329.1794
     -1509.0664      -1175.8954
 98  9 18  0 34 59.9990000  0  6G 4G22G19G16G18G14
  24044223.7114  -10794558.78447  -8150451.82145  24044223.7814   24044235.5784
       435.3404        339.2254
  21427586.4834  -19945504.36548 -15257108.36547  21427585.9264   21427594.6164
      -213.6924       -166.5134
  22886871.4264  -18347491.27448 -13691934.64746  22886871.5654   22886882.2104
      3238.1734       2523.2504
  20495645.8024   -1123617.09749   -863946.84147  20495645.6344   20495654.7994
      1333.4014       1039.0144
  21741793.9444  -25194430.03548 -19359914.55446  21741793.7874   21741803.3104
      2959.5434       2306.1364
  20945000.7734  -36296371.04949 -28032427.81247  20945000.8354   20945009.4834
     -1525.8444      -1188.9684
 98  9 18  0 35 29.9990000  0  6G 4G22G19G16G18G14
  24041778.4814  -10807405.48247  -8160462.24945  24041779.0284   24041790.0004
       419.2504        326.6884
  21428858.2174  -19938823.66148 -15251902.62047  21428857.5044   21428865.7714
      -233.5734       -182.0054
  22868401.2164  -18444556.01748 -13767569.43146  22868401.0654   22868411.8524
      3231.0184       2517.6744
  20488077.3814   -1163389.46549   -894938.29347  20488077.1544   20488086.2824
      1316.0524       1025.4954
  21724902.6304  -25283194.38548 -19429081.51946  21724902.7124   21724911.4704
      2956.1144       2303.4644
  20953748.0084  -36250407.60049 -27996612.18247  20953747.9504   20953756.0974
     -1540.3014      -1200.2314
 98  9 18  0 35 59.9990000  0  6G 4G22G19G16G18G14
  24039440.0134  -10819694.77447  -8170038.32645  24039440.3004   24039451.2704
       404.6474        315.3074
  21430260.3834  -19931452.41048 -15246158.78147  21430259.8394   21430268.5754
      -253.0524       -197.1844
  22849987.8814  -18541314.88948 -13842965.87946  22849988.1794   22849999.4944
      3224.4404       2512.5474
  20480626.2314   -1202546.29549   -925450.10447  20480625.9854   20480634.7684
      1299.1404       1012.3164
  21708050.2034  -25371756.81448 -19498091.14446  21708049.8924   21708058.9124
      2952.6364       2300.7554
  20962594.2894  -36203918.44349 -27960386.90747  20962594.2494   20962602.8764
     -1554.3374      -1211.1714
 98  9 18  0 36 29.9990000  0  6G 4G22G19G16G18G14
  24037196.1364  -10831490.03547  -8179229.44945  24037196.5964   24037206.2874
       382.0834        297.7254
  21431782.4584  -19923455.72048 -15239927.58547  21431781.6834   21431790.3494
      -279.2754       -217.6174
  22831620.6344  -18637838.41948 -13918178.94046  22831620.4054   22831631.6774
      3211.3274       2502.3304
  20473281.9954   -1241140.27249   -955523.33147  20473281.6444   20473290.6654
      1274.3304        992.9844
  21691226.9934  -25460162.23348 -19566978.42946  21691226.8624   21691235.7774
      2941.5884       2292.1444
  20971529.2604  -36156963.37649 -27923798.58747  20971529.3264   20971538.2234
     -1575.4484      -1227.6214
 98  9 18  0 36 59.9990000  0  6G 4G22G19G16G18G14
  24035038.2214  -10842824.36947  -8188061.40545  24035038.3534   24035049.6984
       370.7784        288.9214
  21433411.3434  -19914897.08549 -15233258.51447  21433410.7254   21433419.0474
      -293.9344       -229.0404
  22813282.8444  -18734203.70948 -13993268.69146  22813282.6564   22813294.0354
      3210.4894       2501.6784
  20466035.3874   -1279220.08849   -985195.91147  20466035.1354   20466044.2614
      1261.8204        983.2374
  21674427.2644  -25548450.20248 -19635774.19147  21674426.9704   21674435.3314
      2941.6534       2292.1954
  20980543.5544  -36109595.80849 -27886888.83447  20980543.3134   20980552.1464
