     2.11           OBSERVATION DATA    M (MIXED)           RINEX VERSION / TYPE
teqc  2011Oct11     Kristine Larson     20131023 22:44:27UTCPGM / RUN BY / DATE
ONSA                                                        MARKER NAME
10402M004                                                   MARKER NUMBER
SWEPOS              LMV                                     OBSERVER / AGENCY
AG72YY6YV40         JPS E_GGD           2.6.1 Jan,10,2008   REC # / TYPE / VERS
  3370658.8318   711876.9387  5349786.7450                  APPROX POSITION XYZ
        0.9950        0.0000        0.0000                  ANTENNA: DELTA H/E/N
     1     1                                                WAVELENGTH FACT L1/2
     7    C1    L1    L2    P1    P2    S1    S2            # / TYPES OF OBSERV
    30.0000                                                 INTERVAL
    16                                                      LEAP SECONDS
020                 AOAD/M_B        OSOD                    ANT # / TYPE
Linux 2.4.21-27.ELsmp|Opteron|gcc|Linux x86_64|=+           COMMENT
teqc  2010Oct21                         20120921 02:30:38UTCCOMMENT
MSXP|IAx86-PII|bcc32 5.0|MSWin95->XP|486/DX+                COMMENT
teqc  2010Oct21                         20120920 01:01:33UTCCOMMENT
Forced Modulo Decimation to 30 seconds                      COMMENT
IMoS GFileSrv 3.61  Lantmäteriet        19.09.2012          COMMENT
teqc edited: all GLONASS satellites excluded                COMMENT
  2012     9    20     0     0    0.0000000     GPS         TIME OF FIRST OBS
                                                            END OF HEADER
 12  9 20  0  0  0.0000000  0 11G08G13G02G23G30G05G29G07G04G16G10
  23184847.270 7 121837208.549 7  94938098.51243  23184845.847 3  23184849.787 3
        46.000          29.000
  20701921.395 8 108789390.110 8  84770990.60246  20701921.250 6  20701923.013 6
        51.000          41.000
  21977322.819 7 115491636.059 7  89993496.25145  21977321.753 5  21977322.500 5
        46.000          35.000
  23118871.217 7 121490567.752 7  94668009.95543  23118869.988 3  23118870.943 3
        45.000          27.000
  24378635.675 5 128110593.610 5  99826444.29841  24378635.416 1  24378637.063 1
        39.000          17.000
  22701006.084 7 119294612.442 7  92956858.38944  22701006.225 4  22701008.502 4
        48.000          34.000
  24684588.887 6 129718413.192 6 101079309.34342  24684587.867 2  24684590.004 2
        41.000          20.000
  20874796.917 8 109697818.731 8  85478853.79246  20874796.991 6  20874799.243 6
        50.000          42.000
  23670864.133 6 124391217.703 6  96928233.28142  23670863.134 2  23670867.062 2
        42.000          24.000
  23276339.588 7 122318016.697 7  95312753.39543  23276338.292 3  23276341.620 3
        45.000          26.000
  20318840.024 8 106776260.472 8  83202306.67146  20318838.575 6  20318841.983 6
        52.000          42.000
 12  9 20  0  0 30.0000000  0 11G08G13G02G23G30G05G29G07G04G16G10
  23165169.178 7 121733803.382 7  94857523.10143  23165168.921 3  23165172.575 3
        45.000          29.000
  20712280.709 8 108843828.636 8  84813410.22946  20712280.480 6  20712282.242 6
        51.000          41.000
  21984107.442 7 115527293.709 7  90021281.42845  21984107.301 5  21984108.131 5
        47.000          35.000
  23136881.737 6 121585217.855 6  94741763.21743  23136881.740 3  23136882.140 3
        44.000          28.000
  24392674.831 6 128184370.977 6  99883933.11641  24392672.898 1  24392677.383 1
        40.000          16.000
  22684314.381 7 119206898.038 7  92888509.46444  22684314.664 4  22684317.303 4
        47.000          34.000
  24691053.537 5 129752395.080 5 101105788.62842  24691054.269 1  24691056.187 2
        39.000          20.000
  20866277.905 8 109653049.849 8  85443968.96846  20866277.794 6  20866279.899 6
        51.000          42.000
  23691158.559 6 124497870.081 6  97011338.99542  23691158.143 2  23691163.010 2
        42.000          24.000
  23278950.583 6 122331740.803 6  95323447.50943  23278950.548 3  23278953.159 3
        44.000          26.000
  20322524.034 8 106795622.646 8  83217394.07446  20322523.095 6  20322526.512 6
        51.000          42.000
 12  9 20  0  1  0.0000000  0 11G08G13G02G23G30G05G29G07G04G16G10
  23145534.485 6 121630624.087 6  94777123.69943  23145534.110 3  23145538.045 3
        44.000          29.000
  20722715.696 8 108898663.700 8  84856138.84946  20722715.342 6  20722716.813 6
        52.000          41.000
  21991002.790 7 115563527.822 7  90049515.79345  21991002.370 5  21991003.344 5
        49.000          35.000
  23154927.111 7 121680045.560 7  94815654.85043  23154926.999 3  23154927.142 3
        45.000          28.000
  24406806.973 6 128258635.418 6  99941800.96441  24406806.719 1  24406810.426 1
        42.000          19.000
  22667679.109 7 119119477.907 7  92820389.87244  22667678.863 4  22667681.378 4
        47.000          34.000
  24697618.135 5 129786902.571 5 101132677.48741  24697618.963 1  24697620.987 1
        36.000          19.000
  20857860.103 8 109608813.914 8  85409499.42746  20857859.910 6  20857861.950 6
        50.000          42.000
  23711487.379 6 124604698.078 6  97094581.55742  23711487.210 2  23711491.421 2
        43.000          23.000
  23281683.197 7 122346099.068 7  95334635.85943  23281683.017 3  23281685.472 3
        45.000          25.000
  20326314.953 8 106815541.952 8  83232915.60546  20326313.566 6  20326317.034 6
        52.000          42.000
 12  9 20  0  1 30.0000000  0 11G08G13G02G23G30G05G29G07G04G16G10
  23125943.664 7 121527672.779 7  94696901.94444  23125943.009 4  23125947.070 4
        45.000          30.000
  20733225.253 8 108953894.601 8  84899175.92146  20733225.287 6  20733226.972 6
        51.000          41.000
  21998007.191 7 115600337.324 7  90078198.50945  21998007.245 5  21998007.850 5
        48.000          35.000
  23173005.263 7 121775049.534 7  94889683.86543  23173005.351 3  23173006.362 3
        45.000          27.000
  24421030.357 6 128333386.663 6 100000048.82641  24421029.284 1  24421033.732 1
        40.000          18.000
  22651099.803 7 119032354.071 7  92752501.24545  22651099.918 4  22651102.499 5
        46.000          35.000
  24704285.599 5 129821934.700 5 101159975.28841  24704285.821 1  24704289.399 1
        38.000          19.000
  20849543.561 8 109565111.889 8  85375445.94446  20849543.697 6  20849545.690 6
        51.000          42.000
  23731849.468 6 124711698.800 6  97177958.70042  23731848.606 2  23731853.339 2
        42.000          23.000
  23284536.688 7 122361090.637 7  95346317.55543  23284535.025 3  23284537.885 3
        45.000          25.000
  20330211.010 8 106836018.247 8  83248871.15346  20330210.155 6  20330213.576 6
        52.000          42.000
 12  9 20  0  2  0.0000000  0 11G08G13G02G23G30G05G29G07G04G16G10
  23106396.896 7 121424951.415 7  94616859.36044  23106395.904 4  23106400.161 4
        46.000          30.000
  20743810.600 8 109009519.970 8  84942520.35546  20743810.630 6  20743812.217 6
        53.000          41.000
  22005121.092 8 115637720.733 8  90107328.41745  22005120.825 5  22005121.687 5
        50.000          36.000
  23191118.844 7 121870228.171 7  94963848.95243  23191117.563 3  23191117.455 3
        45.000          27.000
  24435347.138 5 128408620.296 5 100058672.31141  24435346.364 1  24435350.252 1
        39.000          18.000
  22634577.293 7 118945528.463 7  92684844.92545  22634577.509 5  22634579.962 5
        47.000          35.000
  24711050.579 5 129857488.959 5 101187679.80041  24711052.052 1  24711055.083 1
        38.000          19.000
  20841329.216 8 109521944.437 8  85341808.99046  20841329.305 6  20841331.226 6
        51.000          42.000
  23752242.462 6 124818869.210 6  97261468.07842  23752243.058 2  23752246.948 2
        42.000          22.000
  23287509.535 7 122376715.229 7  95358492.51143  23287508.938 3  23287511.117 3
        45.000          26.000
  20334213.643 8 106857051.160 8  83265260.42746  20334212.480 6  20334215.843 6
        53.000          42.000
 12  9 20  0  2 30.0000000  0 11G08G13G02G23G30G05G29G07G04G16G10
  23086893.622 7 121322462.363 7  94536997.80944  23086892.667 4  23086896.705 4
        45.000          30.000
  20754470.484 8 109065538.305 8  84986171.00746  20754470.398 6  20754472.217 6
        51.000          41.000
  22012343.584 7 115675676.314 7  90136904.18045  22012343.702 5  22012344.355 5
        49.000          35.000
  23209262.962 6 121965580.192 6  95038149.09143  23209262.764 3  23209262.343 3
        43.000          26.000
  24449755.897 6 128484334.687 6 100117670.46842  24449755.574 2  24449759.766 2
        40.000          20.000
  22618112.466 7 118859003.730 7  92617423.11445  22618112.355 5  22618114.965 5
        47.000          35.000
  24717916.908 5 129893564.134 5 101215790.17341  24717918.165 1  24717921.262 1
        37.000          19.000
  20833216.895 8 109479313.175 8  85308589.84046  20833216.744 6  20833218.823 6
        51.000          42.000
  23772667.940 6 124926206.516 6  97345107.52242  23772668.069 2  23772672.460 2
        41.000          22.000
  23290603.053 7 122392972.624 7  95371160.64743  23290602.387 3  23290604.195 3
        46.000          26.000
  20338321.742 8 106878640.602 8  83282083.36546  20338320.801 6  20338324.239 6
        51.000          42.000
 12  9 20  0  3  0.0000000  0 11G08G13G02G23G30G05G29G07G04G16G10
  23067435.468 7 121220207.646 7  94457318.84944  23067434.197 4  23067438.270 4
        46.000          30.000
  20765205.136 8 109121948.201 8  85030126.76546  20765204.915 6  20765206.680 6
        52.000          41.000
  22019675.457 7 115714202.840 7  90166924.83145  22019674.814 5  22019675.979 5
        47.000          35.000
  23227440.888 7 122061104.153 7  95112583.29143  23227440.409 3  23227440.248 3
        45.000          26.000
  24464253.664 5 128560527.109 5 100177041.42441  24464252.888 1  24464258.831 1
        39.000          19.000
  22601704.481 7 118772781.878 7  92550237.33945  22601704.676 5  22601707.508 5
        48.000          35.000
  24724883.003 5 129930159.405 5 101244305.94542  24724880.844 2  24724885.005 2
        39.000          20.000
  20825206.490 8 109437218.711 8  85275788.98046  20825206.437 6  20825208.529 6
        52.000          42.000
  23793125.183 6 125033707.971 6  97428874.84242  23793125.189 2  23793128.757 2
        41.000          21.000
  23293816.852 6 122409861.671 6  95384320.85443  23293816.614 3  23293818.646 3
        44.000          26.000
  20342536.129 8 106900786.036 8  83299339.53946  20342535.007 6  20342538.338 6
        51.000          42.000
 12  9 20  0  3 30.0000000  0 11G08G13G02G23G30G05G29G07G04G16G10
  23048021.703 7 121118189.448 7  94377824.20044  23048021.116 4  23048025.302 4
        45.000          30.000
  20776013.916 8 109178748.411 8  85074386.66846  20776013.803 6  20776015.243 6
        52.000          41.000
  22027114.998 7 115753298.750 7  90197389.14445  22027114.490 4  22027115.267 5
        49.000          35.000
  23245649.902 6 122156799.233 6  95187150.82643  23245649.722 3  23245650.754 3
        42.000          26.000
  24478844.283 5 128637193.960 5 100236781.76241  24478842.231 1  24478847.491 1
        39.000          19.000
  22585354.561 7 118686865.096 7  92483289.23845  22585355.394 5  22585357.854 5
        47.000          35.000
  24731944.937 5 129967272.692 5 101273225.44042  24731942.990 2  24731946.976 2
        39.000          21.000
  20817298.401 8 109395661.551 8  85243406.80246  20817298.277 6  20817300.250 6
        51.000          42.000
  23813613.113 6 125141370.704 6  97512767.85142  23813612.564 2  23813616.819 2
        40.000          21.000
  23297151.200 7 122427382.174 7  95397973.13343  23297150.457 3  23297152.554 3
        45.000          25.000
  20346855.923 8 106923487.168 8  83317028.72746  20346854.754 6  20346858.241 6
        52.000          42.000
 12  9 20  0  4  0.0000000  0 11G08G13G02G23G30G05G29G07G04G16G10
  23028653.099 7 121016409.839 7  94298515.46244  23028652.385 4  23028657.102 4
        46.000          30.000
  20786896.414 8 109235937.291 8  85118949.43346  20786896.341 6  20786898.187 6
        52.000          41.000
  22034662.396 7 115792962.628 7  90228296.04945  22034662.544 5  22034663.088 5
        47.000          35.000
  23263893.353 6 122252663.775 6  95261850.40543  23263892.612 3  23263892.948 3
        44.000          26.000
  24493522.277 5 128714333.656 5 100296890.64841  24493521.260 1  24493525.578 1
        39.000          17.000
  22569064.394 7 118601255.502 7  92416580.46545  22569064.363 5  22569066.928 5
        48.000          35.000
  24739103.145 5 130004901.925 5 101302547.01541  24739104.327 1  24739108.055 1
        38.000          19.000
  20809492.888 8 109354643.620 8  85211444.79746  20809492.934 6  20809495.002 6
        50.000          43.000
  23834129.498 6 125249191.722 6  97596784.17142  23834129.385 2  23834134.280 2
        41.000          20.000
  23300605.270 6 122445533.678 6  95412117.10743  23300604.472 3  23300607.748 3
        44.000          25.000
  20351281.598 8 106946743.366 8  83335150.43346  20351280.541 6  20351283.809 6
        51.000          42.000
 12  9 20  0  4 30.0000000  0 11G08G13G02G23G30G05G29G07G04G16G10
  23009331.553 7 120914871.023 7  94219394.34744  23009330.739 4  23009334.604 4
        45.000          30.000
  20797853.099 8 109293514.049 8  85163814.44746  20797852.696 6  20797854.740 6
        52.000          40.000
  22042318.264 7 115833192.819 7  90259644.22345  22042318.044 5  22042318.947 5
        48.000          35.000
  23282167.434 6 122348696.453 6  95336680.99643  23282167.052 3  23282167.657 3
        44.000          26.000
  24508291.555 6 128791942.801 6 100357365.22841  24508292.311 1  24508295.866 1
        41.000          19.000
  22552832.282 7 118515955.476 7  92350112.96345  22552832.455 5  22552834.317 5
        48.000          35.000
  24746365.568 5 130043045.210 5 101332268.85642  24746363.831 2  24746366.437 2
        39.000          20.000
  20801789.710 8 109314165.484 8  85179903.41646  20801790.048 6  20801792.134 6
        51.000          42.000
  23854677.983 6 125357168.159 6  97680921.62142  23854677.338 2  23854680.383 2
        40.000          20.000
  23304179.546 7 122464315.527 7  95426752.28143  23304179.319 3  23304181.570 3
        45.000          26.000
  20355812.595 8 106970554.307 8  83353704.40546  20355811.568 6  20355814.876 6
        52.000          42.000
 12  9 20  0  5  0.0000000  0 11G08G13G02G23G30G05G29G07G04G16G10
  22990055.169 7 120813574.949 7  94140462.38044  22990054.595 4  22990058.673 4
        45.000          30.000
  20808882.800 8 109351476.682 8  85208980.12646  20808882.647 6  20808884.522 6
        51.000          41.000
  22050081.851 7 115873987.455 7  90291432.23645  22050080.815 5  22050081.627 5
        47.000          35.000
  23300474.158 6 122444896.170 6  95411641.78043  23300473.310 3  23300474.094 3
        44.000          25.000
  24523149.495 6 128870019.252 6 100418204.02341  24523147.569 1  24523152.802 1
        40.000          18.000
  22536659.209 7 118430966.744 7  92283887.99045  22536659.605 5  22536661.724 5
        48.000          35.000
  24753719.631 5 130081701.977 5 101362390.93441  24753719.773 1  24753722.058 1
        39.000          19.000
  20794190.220 8 109274227.857 8  85148783.20146  20794190.269 6  20794192.213 6
        50.000          43.000
  23875254.291 6 125465296.831 6  97765177.68942  23875253.310 2  23875257.188 2
        42.000          20.000
  23307872.794 7 122483727.271 7  95441878.29143  23307872.575 3  23307875.467 3
        45.000          26.000
  20360449.413 8 106994920.050 8  83372690.68746  20360448.285 6  20360451.620 6
        51.000          42.000
 12  9 20  0  5 30.0000000  0 11G08G13G02G23G30G05G29G07G04G16G10
  22970825.609 7 120712523.740 7  94061721.22344  22970825.177 4  22970829.209 4
        46.000          31.000
  20819985.894 8 109409824.239 8  85254445.75446  20819985.701 6  20819987.701 6
        52.000          41.000
  22057951.538 7 115915345.367 7  90323659.14945  22057951.187 5  22057951.940 5
        48.000          35.000
  23318812.109 6 122541261.190 6  95486731.32943  23318811.400 3  23318811.826 3
        43.000          26.000
  24538095.512 6 128948559.527 6 100479403.93841  24538095.343 1  24538099.174 1
        41.000          19.000
  22520547.031 7 118346291.974 7  92217907.51745  22520546.799 5  22520549.174 5
        48.000          36.000
  24761169.847 5 130120869.871 5 101392911.34841  24761172.299 1  24761176.435 1
        37.000          19.000
  20786693.057 8 109234831.508 8  85118084.76746  20786693.276 6  20786695.185 6
        52.000          42.000
  23895858.879 6 125573575.266 6  97849550.45342  23895858.871 2  23895862.971 2
        42.000          21.000
  23311687.218 6 122503768.309 6  95457494.73343  23311686.228 3  23311688.898 3
        44.000          26.000
  20365191.465 8 107019839.940 8  83392108.77346  20365190.245 6  20365193.528 6
        52.000          42.000
 12  9 20  0  6  0.0000000  0 11G08G13G02G23G30G05G29G07G04G16G10
  22951643.096 7 120611719.189 7  93983172.26944  22951642.653 4  22951646.872 4
        45.000          31.000
  20831161.895 8 109468555.220 8  85300210.15646  20831161.888 6  20831163.613 6
        52.000          40.000
  22065929.268 7 115957264.554 7  90356323.41845  22065928.460 5  22065929.053 5
        48.000          35.000
  23337180.326 6 122637790.491 6  95561948.88843  23337180.612 3  23337180.107 3
        43.000          25.000
  24553127.992 5 129027562.813 5 100540965.41141  24553127.356 1  24553130.698 1
        38.000          18.000
  22504493.325 7 118261933.368 7  92152173.61045  22504493.756 5  22504495.983 5
        48.000          36.000
  24768724.098 6 130160547.440 6 101423828.87442  24768721.962 1  24768725.710 2
        40.000          20.000
  20779299.521 8 109195977.216 8  85087808.71846  20779299.512 6  20779301.559 6
        51.000          42.000
  23916491.517 6 125682000.515 6  97934037.61842  23916490.594 2  23916495.288 2
        40.000          21.000
  23315619.882 6 122524437.715 6  95473600.72543  23315619.733 3  23315622.076 3
        44.000          25.000
  20370038.848 8 107045313.511 8  83411958.30146  20370037.692 6  20370041.100 6
        51.000          42.000
 12  9 20  0  6 30.0000000  0 11G08G13G02G23G30G05G29G07G04G16G10
  22932507.897 7 120511163.587 7  93904817.29344  22932507.400 4  22932511.721 4
        46.000          31.000
  20842411.052 8 109527668.167 8  85346272.20046  20842410.903 6  20842412.377 6
        52.000          40.000
  22074012.244 7 115999743.455 7  90389423.84545  22074011.630 5  22074012.364 5
        48.000          35.000
  23355580.310 6 122734482.752 6  95637293.46242  23355580.223 2  23355579.304 2
        44.000          24.000
  24568250.353 5 129107025.117 5 100602884.48041  24568249.568 1  24568252.667 1
        39.000          18.000
  22488501.148 7 118177893.095 7  92086687.66245  22488501.453 5  22488503.496 5
        48.000          35.000
  24776372.275 6 130200733.222 6 101455142.47242  24776371.349 2  24776373.784 2
        41.000          20.000
  20772009.168 8 109157666.259 8  85057956.04146  20772009.180 6  20772011.286 6
        51.000          42.000
  23937151.338 6 125790569.552 6  98018636.81542  23937151.196 2  23937154.844 2
        40.000          21.000
  23319672.795 6 122545734.460 6  95490195.61343  23319672.647 3  23319674.041 3
        44.000          25.000
  20374991.330 8 107071340.480 8  83432239.05746  20374990.452 6  20374993.832 6
        51.000          42.000
 12  9 20  0  7  0.0000000  0 11G08G13G02G23G30G05G29G07G04G16G10
  22913420.957 7 120410859.029 7  93826657.92844  22913420.377 4  22913424.074 4
        47.000          31.000
  20853732.674 8 109587161.739 8  85392630.81146  20853732.122 6  20853733.698 6
        52.000          40.000
  22082201.668 7 116042780.482 7  90422959.16845  22082201.288 5  22082202.280 5
        48.000          35.000
  23374011.625 6 122831336.436 6  95712763.80843  23374010.629 3  23374011.141 3
        44.000          25.000
  24583457.558 5 129186942.864 5 100665157.99641  24583455.871 1  24583460.116 1
        37.000          17.000
  22472569.780 7 118094173.640 7  92021451.72945  22472570.126 5  22472571.965 5
        48.000          36.000
  24784111.859 5 130241425.022 5 101486850.50542  24784113.529 2  24784115.745 2
        39.000          21.000
  20764822.396 8 109119899.484 8  85028527.40446  20764822.465 6  20764824.483 6
        51.000          42.000
  23957837.833 6 125899279.691 6  98103345.97142  23957838.445 2  23957842.544 2
        41.000          21.000
  23323845.051 7 122567658.327 7  95507279.13643  23323844.614 3  23323846.595 3
        45.000          25.000
  20380049.539 8 107097920.004 8  83452950.36346  20380048.568 6  20380051.788 6
        52.000          42.000
 12  9 20  0  7 30.0000000  0 11G08G13G02G23G30G05G29G07G04G16G10
  22894381.676 7 120310807.632 7  93748695.84544  22894380.768 4  22894384.656 4
        46.000          31.000
  20865125.510 8 109647034.912 8  85439285.23046  20865125.439 6  20865127.309 6
        52.000          40.000
  22090497.303 7 116086374.080 7  90456928.18845  22090496.808 5  22090497.813 5
        49.000          35.000
  23392472.314 6 122928350.428 6  95788359.08043  23392471.968 3  23392472.935 3
        44.000          25.000
  24598751.068 4 129267313.998 4 100727784.73241  24598750.244 1  24598753.359 1
        34.000          13.000
  22456700.302 7 118010776.481 7  91956466.92145  22456700.287 5  22456702.301 5
        48.000          36.000
  24791953.945 6 130282621.204 6 101518951.62442  24791953.572 2  24791956.768 2
        41.000          20.000
  20757739.385 8 109082677.655 8  84999523.38546  20757739.301 6  20757741.338 6
        51.000          42.000
  23978550.921 6 126008127.795 6  98188162.62942  23978550.885 2  23978555.229 2
        40.000          22.000
  23328136.396 6 122590208.564 6  95524850.74143  23328135.130 3  23328137.874 3
        44.000          25.000
  20385212.666 8 107125051.564 8  83474091.83146  20385211.372 6  20385214.758 6
        52.000          42.000
 12  9 20  0  8  0.0000000  0 11G08G13G02G23G30G05G29G07G04G16G10
  22875391.383 7 120211011.263 7  93670932.47544  22875390.363 4  22875394.436 4
        47.000          31.000
  20876590.880 8 109707285.886 8  85486234.04246  20876591.082 6  20876592.459 6
        52.000          40.000
  22098898.390 7 116130522.343 7  90491329.41444  22098897.817 4  22098898.790 4
        48.000          34.000
  23410964.497 7 123025523.332 7  95864078.16443  23410962.850 3  23410964.364 3
        45.000          25.000
  24614131.593 4 129348135.056 4 100790761.65141  24614131.846 1  24614134.025 1
        34.000          14.000
  22440891.674 7 117927704.216 7  91891735.35945  22440891.990 5  22440894.174 5
        47.000          36.000
  24799889.011 6 130324319.409 6 101551443.64342  24799887.659 2  24799892.683 2
        41.000          21.000
  20750759.851 8 109046001.132 8  84970944.29546  20750760.077 6  20750762.167 6
        51.000          42.000
  23999290.553 6 126117111.195 6  98273084.72942  23999288.945 2  23999294.924 2
        41.000          21.000
  23332545.756 6 122613384.174 6  95542909.56743  23332545.742 3  23332548.089 3
        44.000          26.000
  20390480.307 8 107152734.599 8  83495663.01246  20390479.448 6  20390482.729 6
        53.000          42.000
 12  9 20  0  8 30.0000000  0 11G08G13G02G23G30G05G29G07G04G16G10
  22856449.232 7 120111471.964 7  93593369.43944  22856448.288 4  22856452.732 4
        46.000          31.000
  20888128.321 8 109767913.383 8  85533476.25346  20888128.098 6  20888129.698 6
        52.000          40.000
  22107404.799 7 116175223.669 7  90526161.61044  22107404.477 4  22107405.255 4
        48.000          34.000
  23429485.808 6 123122853.933 6  95939920.13643  23429485.240 3  23429485.814 3
        44.000          26.000
  24629597.274 5 129429403.924 5 100854087.43241  24629595.728 1  24629600.052 1
        35.000          15.000
  22425145.748 7 117844958.866 7  91827258.40545  22425145.956 5  22425148.138 5
        48.000          36.000
  24807913.339 5 130366518.415 5 101584325.93542  24807915.596 1  24807921.636 2
        36.000          20.000
  20743884.783 7 109009871.180 7  84942791.11046  20743884.771 6  20743886.819 6
        49.000          42.000
  24020053.940 6 126226226.988 6  98358109.96442  24020054.467 2  24020059.455 2
        41.000          22.000
  23337074.692 6 122637184.596 6  95561455.33143  23337074.568 3  23337077.236 3
        44.000          26.000
  20395853.246 8 107180968.915 8  83517663.77946  20395852.222 6  20395855.587 6
        52.000          42.000
 12  9 20  0  9  0.0000000  0 11G08G13G02G23G30G05G29G07G04G16G10
  22837556.873 7 120012192.035 7  93516008.49144  22837555.911 4  22837560.299 4
        46.000          31.000
  20899736.494 8 109828916.292 8  85581010.97546  20899736.476 5  20899738.024 6
        52.000          40.000
  22116016.082 7 116220475.961 7  90561423.11744  22116015.533 4  22116016.705 4
        48.000          34.000
  23448036.715 6 123220340.707 6  96015883.76443  23448036.439 3  23448036.811 3
        44.000          26.000
  24645147.446 5 129511118.933 5 100917761.12441  24645145.860 1  24645150.917 1
        35.000          16.000
  22409463.066 7 117762542.900 7  91763038.20645  22409462.726 5  22409464.789 5
        49.000          36.000
  24816042.517 5 130409216.410 5 101617596.99542  24816042.529 2  24816047.309 2
        39.000          21.000
  20737113.686 8 108974288.437 8  84915064.31946  20737113.636 6  20737115.564 6
        51.000          43.000
  24040843.698 6 126335472.179 6  98443236.03642  24040843.663 2  24040847.196 2
        41.000          22.000
  23341723.229 6 122661608.669 6  95580487.04643  23341722.629 3  23341724.983 3
        44.000          26.000
  20401331.097 8 107209753.945 8  83540093.66146  20401329.705 6  20401333.176 6
        52.000          42.000
 12  9 20  0  9 30.0000000  0 11G08G13G02G23G30G05G29G07G04G16G10
  22818713.770 7 119913173.503 7  93438851.24044  22818713.388 4  22818717.427 4
        46.000          31.000
  20911416.358 8 109890292.889 8  85628836.90146  20911416.113 6  20911417.553 6
        52.000          40.000
  22124732.445 7 116266278.151 7  90597113.10745  22124731.468 4  22124732.342 5
        48.000          35.000
  23466617.511 6 123317982.542 6  96091968.25243  23466617.435 3  23466617.438 3
        44.000          26.000
  24660780.683 5 129593276.753 5 100981780.14141  24660780.202 1  24660784.427 1
        36.000          17.000
  22393842.181 7 117680458.740 7  91699076.61145  22393842.386 5  22393844.865 5
        48.000          36.000
  24824265.757 6 130452411.714 6 101651255.58042  24824264.344 2  24824266.916 2
        40.000          20.000
  20730447.086 8 108939253.570 8  84887764.44046  20730446.634 6  20730448.560 6
        51.000          43.000
  24061655.792 6 126444844.193 6  98528460.94742  24061656.390 2  24061660.637 2
        40.000          22.000
  23346489.357 6 122686655.715 6  95600004.14343  23346488.892 3  23346491.710 3
        42.000          27.000
  20406913.198 8 107239089.124 8  83562952.23646  20406912.029 6  20406915.549 6
        51.000          42.000
 12  9 20  0 10  0.0000000  0 11G08G13G02G23G30G05G29G07G04G16G10
  22799921.663 7 119814418.289 7  93361899.16544  22799921.185 4  22799925.256 4
        47.000          32.000
  20923166.549 8 109952042.080 8  85676953.15446  20923166.304 5  20923167.981 6
        51.000          40.000
  22133552.642 7 116312627.967 7  90633229.81644  22133551.722 4  22133552.427 4
        48.000          34.000
  23485226.353 6 123415777.974 6  96168172.45943  23485226.356 3  23485227.386 3
        44.000          26.000
  24676497.982 4 129675873.968 4 101046141.32641  24676496.975 1  24676502.733 1
        34.000          14.000
  22378285.693 7 117598708.154 7  91635374.86445  22378286.204 5  22378288.374 5
        49.000          36.000
  24832575.639 5 130496102.400 5 101685300.33641  24832575.979 1  24832580.076 1
        39.000          19.000
  20723884.176 8 108904767.299 8  84860892.03946  20723884.070 6  20723886.078 6
        51.000          43.000
  24082491.752 6 126554340.023 6  98613782.31142  24082491.259 2  24082496.439 2
        40.000          21.000
  23351373.701 7 122712324.931 7  95620006.02943  23351373.638 3  23351376.402 3
        45.000          25.000
  20412600.089 8 107268973.989 8  83586239.13646  20412598.965 6  20412602.348 6
        53.000          42.000
 12  9 20  0 10 30.0000000  0 11G08G13G02G23G30G05G29G07G04G16G10
  22781179.399 7 119715928.530 7  93285153.94644  22781178.617 4  22781182.739 4
        46.000          32.000
  20934987.775 8 110014162.479 8  85725358.67245  20934987.492 5  20934989.184 5
        52.000          39.000
  22142476.058 7 116359523.397 7  90669771.67944  22142475.765 4  22142476.717 4
        47.000          34.000
  23503865.770 6 123513725.979 6  96244495.51743  23503865.431 3  23503865.506 3
        44.000          26.000
  24692300.003 5 129758908.991 5 101110844.08841  24692298.413 1  24692304.626 1
        36.000          14.000
  22362792.921 7 117517293.690 7  91571935.07945  22362793.398 5  22362795.734 5
        48.000          36.000
  24840983.920 5 130540286.502 5 101719729.70841  24840984.234 1  24840986.792 1
        37.000          17.000
  20717426.213 8 108870830.522 8  84834447.81846  20717426.282 6  20717428.152 6
        51.000          43.000
  24103351.399 6 126663956.828 6  98699197.96242  24103352.079 2  24103356.508 2
        41.000          21.000
  23356376.934 7 122738615.369 7  95640492.04843  23356376.567 2  23356378.653 3
        45.000          25.000
  20418391.410 8 107299408.063 8  83609953.99246  20418390.408 6  20418393.951 6
        52.000          42.000
 12  9 20  0 11  0.0000000  0 11G08G13G02G23G30G05G29G07G04G16G10
  22762488.681 7 119617706.346 7  93208617.22244  22762487.998 4  22762491.771 4
        46.000          32.000
  20946879.114 8 110076652.144 8  85774051.90346  20946878.887 5  20946880.640 6
        50.000          40.000
  22151503.606 7 116406962.832 7  90706737.44644  22151503.165 4  22151504.043 4
        48.000          34.000
  23522533.296 7 123611825.255 7  96320936.44943  23522532.949 3  23522534.119 3
        45.000          26.000
  24708185.126 5 129842377.972 5 101175884.92541  24708182.472 1  24708187.236 1
        35.000          14.000
  22347364.678 7 117436217.196 7  91508758.59745  22347364.814 5  22347366.931 5
        48.000          36.000
  24849489.268 6 130584961.965 6 101754541.79441  24849487.081 1  24849488.096 1
        40.000          18.000
  20711072.744 8 108837443.722 8  84808432.15546  20711072.817 6  20711074.793 6
        50.000          43.000
  24124233.976 6 126773691.773 6  98784705.67642  24124233.053 2  24124237.799 2
        41.000          21.000
  23361498.959 7 122765526.177 7  95661461.51043  23361498.436 3  23361499.592 3
        46.000          25.000
  20424286.894 8 107330390.284 8  83634095.96846  20424285.960 6  20424289.534 6
        52.000          42.000
 12  9 20  0 11 30.0000000  0 11G08G13G02G23G30G05G29G07G04G16G10
  22743848.862 7 119519753.802 7  93132290.61144  22743847.968 4  22743852.003 4
        45.000          32.000
  20958840.405 8 110139510.462 8  85823032.41745  20958840.392 5  20958842.077 5
        52.000          39.000
  22160634.032 7 116454944.644 7  90744125.84444  22160633.678 4  22160634.735 4
        48.000          34.000
  23541230.749 7 123710074.233 7  96397494.03843  23541229.520 3  23541230.242 3
        45.000          26.000
  24724149.224 4 129926278.611 4 101241262.13841  24724147.251 1  24724153.775 1
        34.000          14.000
  22332001.156 7 117355481.168 7  91445847.40045  22332001.116 5  22332003.670 5
        48.000          36.000
  24858082.875 5 130630127.193 5 101789735.62041  24858081.160 1  24858083.556 1
        39.000          18.000
  20704824.314 8 108804607.404 8  84782845.44046  20704824.283 6  20704826.201 6
        51.000          42.000
  24145137.234 6 126883541.843 6  98870303.06942  24145137.071 2  24145141.690 2
        41.000          20.000
  23366737.491 7 122793056.459 7  95682913.74343  23366736.817 3  23366738.581 3
        45.000          26.000
  20430287.119 8 107361920.171 8  83658664.70846  20430285.915 6  20430289.444 6
        52.000          42.000
 12  9 20  0 12  0.0000000  0 11G08G13G02G23G30G05G29G07G04G16G10
  22725260.873 7 119422072.833 7  93056175.61944  22725259.989 4  22725263.538 4
        47.000          32.000
  20970872.077 8 110202735.616 8  85872298.77345  20970872.027 5  20970873.555 5
        52.000          39.000
  22169867.475 7 116503466.683 7  90781935.20044  22169867.120 4  22169868.307 4
        48.000          34.000
  23559954.195 6 123808471.632 6  96474167.26243  23559953.947 3  23559954.859 3
        44.000          25.000
  24740194.927 4 130010607.653 4 101306973.34241  24740193.483 1  24740201.204 1
        33.000          14.000
  22316702.495 7 117275087.634 7  91383203.07345  22316702.991 5  22316705.134 5
        48.000          36.000
  24866766.183 5 130675779.601 5 101825308.80341  24866767.197 1  24866772.206 1
        38.000          19.000
  20698680.616 8 108772322.366 8  84757688.30346  20698680.566 6  20698682.678 6
        52.000          42.000
  24166063.074 6 126993504.193 6  98955987.99242  24166062.870 2  24166068.170 2
        40.000          20.000
  23372093.328 7 122821205.186 7  95704847.82043  23372092.682 3  23372094.373 3
        46.000          25.000
  20436391.004 8 107393997.094 8  83683659.70246  20436389.983 6  20436393.523 6
        51.000          42.000
 12  9 20  0 12 30.0000000  0 11G08G13G02G23G30G05G29G07G04G16G10
  22706724.433 7 119324665.478 7  92980273.82844  22706723.922 4  22706727.883 4
        47.000          32.000
  20982972.356 8 110266326.284 8  85921849.93745  20982972.509 5  20982974.401 5
        50.000          39.000
  22179203.540 7 116552527.187 7  90820164.14344  22179202.861 4  22179203.682 4
        46.000          34.000
  23578707.680 6 123907016.359 6  96550955.30443  23578706.590 3  23578707.566 3
        44.000          26.000
  24756324.287 4 130095362.545 4 101373016.19741  24756323.035 1  24756329.385 1
        34.000          16.000
  22301469.814 7 117195038.920 7  91320827.50245  22301469.990 5  22301472.315 5
        49.000          36.000
  24875549.410 5 130721917.937 5 101861260.60642  24875548.419 1  24875552.546 2
        39.000          20.000
  20692641.550 8 108740589.485 8  84732961.40646  20692641.865 6  20692644.015 6
        51.000          43.000
  24187008.439 5 127103576.262 5  99041758.36742  24187008.578 2  24187013.399 2
        39.000          20.000
  23377567.308 6 122849971.446 6  95727263.11643  23377567.122 3  23377568.861 3
        44.000          25.000
  20442599.677 8 107426620.667 8  83709080.65946  20442598.115 6  20442601.548 6
        52.000          42.000
 12  9 20  0 13  0.0000000  0 11G08G13G02G23G30G05G29G07G04G16G10
  22688241.912 7 119227533.959 7  92904586.97544  22688240.560 4  22688244.210 4
        47.000          32.000
  20995143.094 8 110330281.011 8  85971684.78745  20995142.947 5  20995144.477 5
        51.000          39.000
  22188641.135 7 116602124.285 7  90858811.20044  22188641.195 4  22188641.860 4
        47.000          34.000
  23597488.235 7 124005707.158 7  96627857.16843  23597487.310 3  23597487.872 3
        45.000          26.000
  24772533.098 5 130180540.128 5 101439388.43341  24772532.875 1  24772535.844 1
        36.000          17.000
  22286303.412 7 117115337.026 7  91258722.17045  22286303.699 5  22286305.515 5
        49.000          36.000
  24884421.763 5 130768540.155 5 101897589.56841  24884420.600 1  24884424.134 1
        39.000          18.000
  20686708.613 8 108709409.237 8  84708665.12846  20686708.549 6  20686710.638 6
        52.000          43.000
  24207974.401 5 127213755.229 5  99127612.04942  24207973.851 2  24207979.166 2
        39.000          20.000
  23383158.545 6 122879353.948 6  95750158.61843  23383158.325 3  23383161.892 3
        43.000          25.000
  20448911.166 8 107459789.990 8  83734926.87146  20448910.008 6  20448913.513 6
        52.000          43.000
 12  9 20  0 13 30.0000000  0 11G08G13G02G23G30G05G29G07G04G16G10
  22669811.049 7 119130679.999 7  92829116.39544  22669809.968 4  22669813.384 4
        47.000          32.000
  21007382.011 8 110394598.466 8  86021802.28845  21007382.055 5  21007383.998 5
        51.000          39.000
  22198181.897 7 116652255.930 7  90897874.80244  22198180.772 4  22198181.561 4
        48.000          33.000
  23616295.501 6 124104542.715 6  96704871.81143  23616294.997 3  23616295.423 3
        44.000          26.000
  24788822.511 5 130266136.690 5 101506086.71641  24788823.058 1  24788825.046 1
        36.000          16.000
  22271203.351 7 117035984.269 7  91196888.85745  22271203.196 5  22271205.388 5
        49.000          37.000
  24893382.456 5 130815644.141 5 101934293.91641  24893384.136 1  24893387.045 1
        37.000          17.000
  20680880.456 8 108678782.011 8  84684799.78046  20680880.410 6  20680882.400 6
        50.000          43.000
  24228961.385 6 127324037.909 6  99213546.57742  24228961.169 2  24228965.922 2
        41.000          20.000
  23388867.574 6 122909351.603 6  95773533.40543  23388866.966 3  23388869.446 3
        44.000          25.000
  20455326.939 8 107493504.446 8  83761197.86446  20455325.686 6  20455329.142 6
        51.000          42.000
 12  9 20  0 14  0.0000000  0 11G08G13G02G23G30G05G29G07G04G16G10
  22651433.238 7 119034105.661 7  92753863.68944  22651432.219 4  22651436.207 4
        47.000          32.000
  21019690.637 8 110459277.199 8  86072201.30345  21019690.367 5  21019691.952 5
        52.000          39.000
  22207822.390 7 116702920.242 7  90937353.45444  22207821.959 4  22207822.474 4
        47.000          33.000
  23635129.771 6 124203521.354 6  96781997.95943  23635129.679 3  23635130.121 3
        43.000          25.000
  24805191.185 5 130352152.261 5 101573112.15841  24805190.412 1  24805192.193 1
        37.000          18.000
  22256169.771 7 116956982.786 7  91135329.21045  22256169.605 5  22256171.674 5
        48.000          36.000
  24902439.510 5 130863228.310 5 101971372.54241  24902439.645 1  24902441.363 1
        39.000          16.000
  20675157.723 8 108648708.749 8  84661366.08346  20675157.646 6  20675159.639 6
        52.000          43.000
  24249966.545 6 127434421.548 6  99299559.73142  24249966.464 2  24249971.664 2
        41.000          20.000
  23394692.051 6 122939963.765 6  95797387.05843  23394691.384 3  23394694.450 3
        44.000          25.000
  20461846.313 8 107527763.246 8  83787893.02646  20461845.044 6  20461848.411 6
        53.000          42.000
 12  9 20  0 14 30.0000000  0 11G08G13G02G23G30G05G29G07G04G16G10
  22633109.162 7 118937813.202 7  92678830.64544  22633108.159 4  22633111.923 4
        48.000          32.000
  21032066.306 8 110524315.694 8  86122880.64945  21032066.565 5  21032068.211 5
        51.000          39.000
  22217564.459 7 116754115.323 7  90977245.68744  22217564.098 4  22217564.635 4
        47.000          33.000
  23653991.736 6 124302642.032 6  96859234.80242  23653991.665 2  23653991.623 2
        43.000          24.000
  24821636.979 5 130438581.244 5 101640459.40241  24821636.122 1  24821639.691 1
        35.000          15.000
  22241203.777 7 116878335.196 7  91074045.47445  22241203.509 5  22241205.549 5
        48.000          37.000
  24911585.436 6 130911290.206 6 102008823.29441  24911584.322 1  24911589.015 1
        40.000          18.000
  20669540.225 8 108619189.808 8  84638364.32846  20669540.336 6  20669542.251 6
        50.000          43.000
  24270991.014 6 127544903.604 6  99385649.62442  24270990.943 2  24270994.582 2
        40.000          20.000
  23400634.559 6 122971188.933 6  95821718.30243  23400634.097 3  23400636.190 3
        44.000          25.000
  20468468.664 8 107562565.785 8  83815011.88146  20468467.665 6  20468471.078 6
        51.000          42.000
 12  9 20  0 15  0.0000000  0 11G08G13G02G23G30G05G29G07G04G16G10
  22614839.186 7 118841804.414 7  92604018.62944  22614838.442 4  22614841.928 4
        47.000          32.000
  21044511.852 8 110589712.885 8  86173839.49045  21044511.367 5  21044513.028 5
        52.000          39.000
  22227407.163 7 116805838.975 7  91017549.80444  22227406.599 4  22227407.513 4
        47.000          33.000
  23672881.590 6 124401903.601 6  96936581.44442  23672881.089 2  23672881.658 2
        44.000          24.000
  24838162.995 5 130525421.616 5 101708127.19441  24838161.679 1  24838164.319 1
        36.000          13.000
  22226305.178 7 116800043.209 7  91013038.71045  22226305.257 5  22226307.087 5
        49.000          37.000
  24920819.265 5 130959827.921 5 102046644.91541  24920820.151 1  24920825.034 1
        38.000          17.000
  20664028.407 8 108590225.799 8  84615794.99046  20664028.680 6  20664030.469 6
        51.000          43.000
  24292034.064 6 127655481.102 6  99471813.86141  24292033.132 1  24292037.654 1
        41.000          19.000
  23406692.433 6 123003026.101 6  95846526.48842  23406692.735 2  23406693.083 2
        43.000          24.000
  20475194.851 8 107597911.261 8  83842553.79946  20475193.751 6  20475197.185 6
        52.000          42.000
 12  9 20  0 15 30.0000000  0 12G08G13G02G23G30G05G26G29G07G04G16G10
  22596623.281 7 118746081.265 7  92529429.18044  22596623.032 4  22596626.522 4
        47.000          32.000
  21057024.019 8 110655467.195 8  86225076.60645  21057023.861 5  21057025.326 5
        51.000          39.000
  22237350.477 7 116858089.264 7  91058264.28244  22237349.976 4  22237350.688 4
        47.000          33.000
  23691796.253 6 124501304.845 6  97014036.89442  23691796.247 2  23691796.892 2
        42.000          23.000
  24854764.981 5 130612670.042 5 101776112.47341  24854764.786 1  24854768.655 1
        35.000          11.000
  22211474.829 7 116722108.975 7  90952310.74345  22211474.680 5  22211476.698 5
        49.000          37.000
  24974378.089 5 131241244.654 5
        35.000
  24930146.058 5 131008839.444 5 102084835.71941  24930147.271 1  24930149.736 1
        38.000          17.000
  20658622.798 8 108561816.915 8  84593658.21046  20658622.622 6  20658624.563 6
        52.000          42.000
  24313092.665 6 127766151.127 6  99558050.20442  24313093.249 1  24313097.893 2
        40.000          20.000
  23412867.254 6 123035473.952 6  95871810.48442  23412867.214 2  23412868.872 2
        42.000          24.000
  20482023.869 8 107633798.807 8  83870518.10946  20482022.784 6  20482026.509 6
        52.000          42.000
 12  9 20  0 16  0.0000000  0 12G08G13G02G23G30G05G26G29G07G04G16G10
  22578462.517 7 118650645.921 7  92455064.01744  22578461.807 4  22578466.149 4
        47.000          33.000
  21069604.357 8 110721577.446 8  86276591.08745  21069604.175 5  21069605.800 5
        52.000          39.000
  22247393.335 7 116910864.250 7  91099387.60844  22247392.346 4  22247393.350 4
        46.000          33.000
  23710737.983 6 124600844.402 6  97091600.13942  23710738.011 2  23710738.773 2
        41.000          23.000
  24871446.601 5 130700324.552 5 101844414.57541  24871444.880 1  24871451.645 1
        38.000          12.000
  22196712.466 7 116644534.993 7  90891863.50145  22196712.748 5  22196714.752 5
        49.000          37.000
  24951473.906 5 131120877.786 5
        37.000
  24939565.116 5 131058322.763 5 102123394.04441  24939563.074 1  24939567.313 1
        39.000          16.000
  20653322.157 8 108533963.847 8  84571954.54246  20653322.366 6  20653324.106 6
        51.000          43.000
  24334170.336 5 127876910.917 5  99644356.50741  24334169.912 1  24334173.817 1
        39.000          19.000
  23419157.790 6 123068531.237 6  95897569.25442  23419157.009 2  23419159.397 2
        42.000          24.000
  20488956.239 8 107670227.965 8  83898904.44646  20488955.169 6  20488958.495 6
        51.000          42.000
 12  9 20  0 16 30.0000000  0 12G08G13G02G23G30G05G26G29G07G04G16G10
  22560356.630 7 118555500.291 7  92380924.59744  22560356.211 4  22560360.229 4
        47.000          33.000
  21082251.671 8 110788041.790 8  86328381.49045  21082251.897 5  21082253.445 5
        51.000          38.000
  22257535.374 7 116964161.764 7  91140918.11044  22257534.624 4  22257535.995 4
        48.000          33.000
  23729705.436 6 124700520.970 6  97169270.14842  23729705.319 2  23729706.165 2
        41.000          22.000
  24888203.042 5 130788381.923 5 101913030.44541  24888201.357 1  24888209.172 1
        37.000          13.000
  22182019.770 7 116567323.240 7  90831698.44645  22182019.779 5  22182021.909 5
        49.000          37.000
  24928579.438 5 131000564.522 5 102078375.21941  24928575.970 1  24928581.690 1
        37.000          14.000
  24949067.378 5 131108275.713 5 102162318.28741  24949068.605 1  24949072.913 1
        36.000          16.000
  20648128.045 8 108506667.099 8  84550684.36846  20648127.933 6  20648129.661 6
        52.000          43.000
  24355263.641 6 127987757.640 6  99730730.51541  24355263.696 1  24355267.944 1
        40.000          19.000
  23425564.146 6 123102197.714 6  95923802.89643  23425562.800 3  23425566.011 3
        43.000          25.000
  20495991.045 8 107707197.794 8  83927712.10146  20495990.228 6  20495993.756 6
        51.000          42.000
 12  9 20  0 17  0.0000000  0 12G08G13G02G23G30G05G26G29G07G04G16G10
  22542306.474 7 118460646.137 7  92307012.29744  22542306.078 4  22542310.317 4
        47.000          33.000
  21094967.299 8 110854858.758 8  86380446.65045  21094966.708 5  21094968.160 5
        51.000          39.000
  22267776.675 7 117017979.935 7  91182854.31444  22267775.906 4  22267777.096 4
        47.000          34.000
  23748699.609 6 124800333.122 6  97247045.77842  23748699.689 2  23748700.053 2
        41.000          23.000
  24905035.095 5 130876838.837 5 101981957.47341  24905035.410 1  24905037.819 1
        38.000          11.000
  22167396.520 7 116490476.216 7  90771817.69545  22167396.386 5  22167398.551 5
        48.000          37.000
  24905693.652 5 130880306.353 5 101984667.59941  24905693.725 1  24905698.032 1
        36.000          13.000
  24958663.019 5 131158696.315 5 102201607.01741  24958664.504 1  24958668.893 1
        36.000          15.000
  20643039.749 8 108479927.720 8  84529848.50246  20643039.760 6  20643041.431 6
        51.000          43.000
  24376372.124 5 128098688.467 5  99817170.08541  24376371.693 1  24376377.365 1
        39.000          18.000
  23432086.746 6 123136471.324 6  95950509.54743  23432086.007 3  23432088.720 3
        44.000          26.000
  20503128.987 8 107744707.449 8  83956940.38346  20503128.061 6  20503131.535 6
        52.000          42.000
 12  9 20  0 17 30.0000000  0 12G08G13G02G23G30G05G26G29G07G04G16G10
  22524312.383 7 118366085.674 7  92233328.83644  22524311.998 4  22524315.826 4
        47.000          33.000
  21107748.565 8 110922027.384 8  86432785.85545  21107748.445 5  21107750.209 5
        51.000          39.000
  22278116.306 7 117072316.612 7  91225194.56044  22278115.804 4  22278117.434 4
        46.000          33.000
  23767720.294 6 124900279.989 6  97324926.38542  23767717.810 2  23767719.100 2
        41.000          21.000
  24921945.012 5 130965693.527 5 102051194.88341  24921944.137 1  24921948.086 1
        39.000          15.000
  22152842.892 8 116413996.016 8  90712222.78145  22152842.756 5  22152844.549 5
        50.000          37.000
  24882820.409 5 130760104.702 5 101891004.05341  24882820.262 1  24882824.342 1
        36.000          14.000
  24968349.928 5 131209582.354 5 102241258.57041  24968346.623 1  24968352.601 1
        37.000          13.000
  20638057.638 8 108453745.578 8  84509446.85646  20638057.509 6  20638059.090 6
        51.000          43.000
  24397498.177 6 128209700.736 6  99903673.10241  24397498.086 1  24397501.902 1
        40.000          18.000
  23438723.947 6 123171351.214 6  95977688.64843  23438723.789 3  23438725.995 3
        43.000          27.000
  20510369.509 8 107782756.238 8  83986588.78146  20510368.623 6  20510371.975 6
        52.000          42.000
 12  9 20  0 18  0.0000000  0 12G08G13G02G23G30G05G26G29G07G04G16G10
  22506374.754 7 118271820.723 7  92159875.64944  22506373.580 4  22506377.851 4
        47.000          33.000
  21120596.449 8 110989546.068 8  86485397.80745  21120596.589 5  21120598.655 5
        51.000          39.000
  22288553.939 7 117127169.618 7  91267937.13244  22288554.090 4  22288555.156 4
        47.000          33.000
  23786763.290 6 125000360.040 6  97402910.79742  23786762.648 2  23786764.253 2
        42.000          21.000
  24938928.806 6 131054942.845 6 102120739.91941  24938926.963 1  24938933.224 1
        40.000          16.000
  22138358.779 7 116337884.327 7  90652914.87445  22138359.037 5  22138361.315 5
        48.000          37.000
  24859957.474 5 130639961.042 5 101797385.67441  24859958.327 1  24859961.886 1
        37.000          15.000
  24978120.472 5 131260931.751 5 102281271.14741  24978120.972 1  24978121.172 1
        36.000          11.000
  20633181.485 8 108428121.279 8  84489479.88446  20633181.229 6  20633183.157 6
        52.000          43.000
  24418639.512 6 128320791.649 6  99990237.41841  24418638.330 1  24418641.100 1
        41.000          18.000
  23445476.236 7 123206835.931 7  96005339.12043  23445476.173 3  23445478.835 3
        45.000          27.000
  20517712.431 8 107821343.145 8  84016656.48946  20517711.428 6  20517714.808 6
        52.000          42.000
 12  9 20  0 18 30.0000000  0 12G08G13G02G23G30G05G26G29G07G04G16G10
  22488493.342 7 118177853.441 7  92086654.41144  22488492.654 4  22488496.346 4
        48.000          34.000
  21133511.826 8 111057413.280 8  86538281.35545  21133511.550 5  21133513.388 5
        51.000          38.000
  22299090.747 7 117182536.943 7  91311080.48144  22299090.073 4  22299091.625 4
        48.000          33.000
  23805833.105 6 125100571.977 6  97480997.97342  23805831.830 2  23805832.841 2
        40.000          21.000
  24955986.259 5 131144583.802 5 102190590.28741  24955984.720 1  24955989.588 1
        39.000          15.000
  22123945.698 7 116262144.084 7  90593896.57345  22123945.949 5  22123948.238 5
        49.000          37.000
  24837106.286 5 130519876.813 5 101703813.66241  24837105.853 1  24837110.023 1
        36.000          13.000
  24987975.768 5 131312742.154 5 102321642.78941  24987978.928 1  24987983.010 1
        35.000          11.000
  20628411.418 8 108403054.958 8  84469947.70346  20628411.132 6  20628412.918 6
        52.000          43.000
  24439791.546 5 128431958.181 5 100076860.65941  24439792.815 1  24439795.172 1
        39.000          17.000
  23452343.974 6 123242923.802 6  96033459.50043  23452343.238 3  23452345.487 3
        44.000          26.000
  20525157.843 8 107860467.416 8  84047142.93046  20525156.508 6  20525160.085 6
        51.000          42.000
 12  9 20  0 19  0.0000000  0 12G08G13G02G23G30G05G26G29G07G04G16G10
  22470668.745 7 118084186.037 7  92013666.83944  22470668.402 4  22470672.398 4
        49.000          34.000
  21146492.509 8 111125627.626 8  86591435.39445  21146492.395 5  21146494.362 5
        50.000          39.000
  22309724.021 7 117238416.179 7  91354622.70444  22309723.942 4  22309724.388 4
        46.000          33.000
  23824928.415 6 125200914.679 6  97559187.04142  23824928.681 2  23824928.641 2
        42.000          21.000
  24973117.411 6 131234613.041 6 102260743.23341  24973116.874 1  24973120.324 1
        41.000          14.000
  22109604.027 7 116186777.117 7  90535169.08245  22109604.169 5  22109606.336 5
        49.000          38.000
  24814266.436 5 130399853.436 5 101610288.97141  24814265.260 1  24814269.195 1
        38.000          15.000
  24997924.475 4 131365011.851 4 102362372.34841  24997925.531 1  24997928.264 1
        34.000          11.000
  20623747.327 8 108378546.912 8  84450850.53846  20623747.474 6  20623749.304 6
        52.000          43.000
  24460960.565 6 128543197.698 6 100163540.78541  24460961.428 1  24460964.240 1
        40.000          16.000
  23459326.483 6 123279614.219 6  96062049.52143  23459325.933 3  23459328.166 3
        43.000          26.000
  20532704.594 8 107900128.250 8  84078047.45746  20532703.685 6  20532707.297 6
        51.000          42.000
 12  9 20  0 19 30.0000000  0 12G08G13G02G23G30G05G26G29G07G04G16G10
  22452902.212 7 117990820.221 7  91940914.27544  22452901.367 4  22452905.511 4
        48.000          34.000
  21159538.895 8 111194187.758 8  86644858.86845  21159538.815 5  21159540.837 5
        51.000          39.000
  22320454.898 7 117294805.504 7  91398562.40244  22320454.538 4  22320455.207 4
        46.000          33.000
  23844047.906 6 125301387.099 6  97637477.17642  23844047.273 2  23844048.077 2
        41.000          21.000
  24990321.982 5 131325027.573 5 102331196.18741  24990321.832 1  24990327.532 1
        38.000          15.000
  22095333.786 7 116111785.748 7  90476734.27745  22095334.034 5  22095335.667 5
        49.000          37.000
  24791437.022 5 130279892.416 5 101516812.95741  24791436.796 1  24791441.686 1
        37.000          14.000
  25007961.724 5 131417739.111 5 102403458.50341  25007956.783 1  25007961.451 1
        36.000          12.000
  20619190.143 8 108354598.356 8  84432189.34246  20619190.223 6  20619192.027 6
        52.000          43.000
  24482140.394 5 128654507.565 5 100250275.69341  24482141.554 1  24482145.209 1
        39.000          17.000
  23466422.814 7 123316905.187 7  96091107.28443  23466422.004 3  23466424.239 3
        45.000          26.000
  20540353.875 8 107940324.655 8  84109369.32546  20540352.765 6  20540356.366 6
        51.000          42.000
 12  9 20  0 20  0.0000000  0 12G08G13G02G23G30G05G26G29G07G04G16G10
  22435193.046 7 117897757.810 7  91868398.15744  22435192.179 4  22435196.059 4
        49.000          34.000
  21172651.131 8 111263092.176 8  86698550.62445  21172651.110 5  21172652.690 5
        50.000          39.000
  22331281.612 7 117351702.606 7  91442897.77044  22331281.697 4  22331282.525 4
        46.000          33.000
  23863190.251 6 125401987.500 6  97715867.04642  23863190.189 2  23863190.813 2
        40.000          20.000
  25007600.747 6 131415824.166 6 102401946.70841  25007600.353 1  25007603.773 1
        40.000          16.000
  22081135.232 7 116037171.831 7  90418593.57145  22081135.455 5  22081137.483 5
        49.000          38.000
  24768623.134 5 130159995.296 5 101423386.72141  24768621.851 1  24768626.077 1
        37.000          15.000
  25018079.734 5 131470920.759 5 102444898.69541  25018078.664 1  25018082.916 1
        35.000          10.000
  20614739.305 8 108331208.969 8  84413963.85946  20614739.452 6  20614741.171 6
        50.000          43.000
  24503337.411 6 128765884.636 6 100337062.99641  24503337.113 1  24503340.941 1
        40.000          15.000
  23473632.743 6 123354795.877 6  96120632.46343  23473631.767 3  23473634.283 3
        44.000          26.000
  20548104.941 8 107981055.379 8  84141107.53946  20548103.661 6  20548107.144 6
        52.000          42.000
 12  9 20  0 20 30.0000000  0 12G08G13G02G23G30G05G26G29G07G04G16G10
  22417541.855 7 117805000.965 7  91796120.12544  22417541.020 4  22417545.248 4
        48.000          34.000
  21185828.129 8 111332339.544 8  86752509.62045  21185828.226 5  21185830.088 5
        50.000          38.000
  22342205.178 7 117409105.310 7  91487627.11544  22342204.686 4  22342205.831 4
        47.000          33.000
  23882359.326 6 125502714.800 6  97794355.79942  23882357.883 2  23882357.761 2
        41.000          21.000
  25024950.767 5 131507001.096 5 102472993.96241  25024949.574 1  25024954.328 1
        38.000          16.000
  22067008.814 7 115962937.767 7  90360748.90845  22067009.006 5  22067010.787 5
        49.000          38.000
  24745818.644 5 130040163.402 5 101330011.23241  24745819.270 1  24745824.457 1
        35.000          12.000
  25028282.530 5 131524554.771 5 102486691.35241  25028285.292 1  25028289.839 1
        35.000          11.000
  20610395.156 7 108308379.108 7  84396174.37046  20610394.976 6  20610396.743 6
        49.000          43.000
  24524543.394 5 128877326.537 5 100423900.79141  24524542.806 1  24524546.479 1
        39.000          16.000
  23480956.796 7 123393285.023 7  96150624.11243  23480956.552 3  23480958.473 3
        45.000          26.000
  20555957.430 8 108022320.033 8  84173261.80046  20555955.988 6  20555959.656 6
        51.000          42.000
 12  9 20  0 21  0.0000000  0 12G08G13G02G23G30G05G26G29G07G04G16G10
  22399948.777 7 117712551.515 7  91724081.61444  22399948.309 4  22399952.241 4
        48.000          34.000
  21199070.982 8 111401928.470 8  86806734.74845  21199070.735 5  21199072.337 5
        50.000          38.000
  22353224.574 7 117467011.397 7  91532748.70944  22353223.927 4  22353224.676 4
        47.000          33.000
  23901551.675 6 125603567.833 6  97872942.52942  23901550.890 2  23901550.474 2
        42.000          21.000
  25042372.464 5 131598553.613 5 102544333.30741  25042370.978 1  25042376.369 1
        37.000          13.000
  22052955.175 7 115889085.694 7  90303201.88545  22052955.502 5  22052957.177 5
        49.000          38.000
  24723028.074 5 129920398.391 5 101236687.93741  24723028.738 1  24723030.770 1
        37.000          15.000
  25038578.679 4 131578639.416 4 102528835.24541  25038578.434 1  25038579.391 1
        34.000          11.000
  20606157.129 8 108286109.161 8  84378821.18046  20606157.041 6  20606158.936 6
        51.000          43.000
  24545760.864 5 128988830.236 5 100510786.74541  24545760.882 1  24545765.114 1
        38.000          16.000
  23488394.682 7 123432370.940 7  96181080.80143  23488394.117 3  23488396.915 3
        45.000          27.000
  20563911.036 8 108064117.488 8  84205831.22346  20563909.757 6  20563913.383 6
        52.000          42.000
 12  9 20  0 21 30.0000000  0 12G08G13G02G23G30G05G26G29G07G04G16G10
  22382415.274 7 117620411.513 7  91652284.22944  22382414.616 4  22382418.237 4
        48.000          34.000
  21212378.360 8 111471857.575 8  86861224.96745  21212377.910 5  21212379.577 5
        51.000          38.000
  22364339.371 7 117525418.473 7  91578260.66944  22364338.716 4  22364339.246 4
        48.000          32.000
  23920766.728 6 125704545.348 6  97951626.29442  23920765.044 2  23920766.483 2
        42.000          21.000
  25059867.206 5 131690478.972 5 102615962.84441  25059864.923 1  25059867.750 1
        38.000          12.000
  22038974.300 7 115815617.785 7  90245954.15245  22038974.563 5  22038976.933 5
        49.000          37.000
  24700250.658 5 129800701.552 5 101143417.73441  24700249.783 1  24700255.652 1
        36.000          14.000
  25048957.020 5 131633172.295 5 102571328.36841  25048957.898 1  25048954.756 1
        35.000           9.000
  20602025.973 8 108264399.131 8  84361904.28146  20602025.808 6  20602027.555 6
        51.000          43.000
  24566990.167 5 129100393.039 5 100597718.76341  24566990.745 1  24566995.845 1
        38.000          16.000
  23495945.193 6 123472051.813 6  96212000.96143  23495945.002 3  23495947.466 3
        43.000          26.000
