     2.10           OBSERVATION DATA    G (GPS)             RINEX VERSION / TYPE
teqc  2000Feb29     CORS/NGS/NOAA       20000715 00:45:53UTCPGM / RUN BY / DATE
HP-UX 10.20|PA-RISC|cc A.10.32.03|=+|=|                     COMMENT
BIT 2 OF LLI FLAGS DATA COLLECTED UNDER A/S CONDITION       COMMENT
ppt1                                                        MARKER NAME
xxx                                                         MARKER NUMBER
CORS/NGS/NOAA       U.S. Coast Guard                        OBSERVER / AGENCY
05402               ASHTECH   Z-XII3    RD00                REC # / TYPE / VERS
11092               ASH700829.3                             ANT # / TYPE
 -2725252.3748 -4295978.5284  3833958.9631                  APPROX POSITION XYZ 
        0.0000        0.0000        0.0000                  ANTENNA: DELTA H/E/N
     1     1                                                WAVELENGTH FACT L1/2
     7    C1    L1    L2    P1    P2    D1    D2            # / TYPES OF OBSERV
    30.0000                                                 INTERVAL
 SNR is mapped to RINEX snr flag value [1-9]                COMMENT
  L1: 1 -> 1;  90 -> 5; 210 -> 9                            COMMENT
  L2: 1 -> 1; 150 -> 5; 250 -> 9                            COMMENT
teqc windowed: delta = 86400.000 sec                        COMMENT
  2000     7    14     0     0   30.0000000     GPS         TIME OF FIRST OBS
                                                            END OF HEADER
 00  7 14  0  0 30.0000000  0  7G21G20G11G25G 1G15G29
  23269177.5274  -37106994.38747 -28281474.45645  23269175.4844   23269185.5944
     -1477.1984      -1151.0604
  22999357.4484  -18949666.95148 -14472833.72446  22999354.1914   22999361.5744
      3725.5964       2903.0564
  20931189.0854  -34319332.19749 -26408485.09847  20931186.7454   20931193.0444
       815.8134        635.6994
  20968031.8004  -29194927.44549 -22426656.42647  20968029.7484   20968035.7654
      1471.3064       1146.4724
  24493829.6064   -8807271.33547  -6559867.75945  24493827.6704   24493843.0464
      3656.0804       2848.8814
  22835026.4254  -33689044.69747 -25958512.09945  22835023.8004   22835034.1594
     -2683.1714      -2090.7774
  23347718.7594  -28889098.62148 -22166751.00846  23347716.5564   23347724.0784
     -1637.3194      -1275.8324
 00  7 14  0  1  0.0000000  0  7G21G20G11G25G 1G15G29
  23277678.4864  -37062322.34147 -28246665.20145  23277675.8164   23277685.7874
     -1490.4464      -1161.3784
  22978138.5624  -19061167.64948 -14559717.25646  22978136.2564   22978144.3274
      3718.2284       2897.3154
  20926630.3654  -34343285.70449 -26427150.17347  20926628.3374   20926634.9244
       791.5144        616.7644
  20959726.7434  -29238570.28949 -22460663.81247  20959724.9104   20959730.6204
      1448.6724       1128.8354
  24473016.0044   -8916648.38547  -6645096.27346  24473014.3754   24473028.5284
      3646.2084       2841.1864
  22850407.8884  -33608215.19847 -25895528.20245  22850405.3844   22850415.6254
     -2695.0064      -2100.0054
  23357112.8804  -28839733.62548 -22128284.85046  23357110.2584   23357117.6244
     -1643.1884      -1280.4054
 00  7 14  0  1 30.0000000  0  7G21G20G11G25G 1G15G29
  23286238.2784  -37017350.93847 -28211622.69945  23286235.2634   23286243.3734
     -1503.3754      -1171.4534
  22956944.7004  -19172543.19748 -14646503.26846  22956942.0264   22956950.0394
      3711.1024       2891.7644
  20922192.9304  -34366605.89349 -26445321.75447  20922190.7734   20922197.2414
       767.4704        598.0284
  20951532.9274  -29281630.38349 -22494217.10347  20951530.8334   20951536.5264
      1426.3434       1111.4364
  24452241.2544   -9025825.75847  -6730169.22446  24452238.5464   24452251.9884
      3636.6404       2833.7354
  22865837.8084  -33527127.75647 -25832343.30645  22865835.3014   22865846.2024
     -2706.4984      -2108.9594
  23366521.5544  -28790288.09048 -22089755.92846  23366519.2124   23366526.6774
     -1648.8414      -1284.8074
 00  7 14  0  2  0.0000000  0  7G21G20G11G25G 1G15G29
  23294823.7094  -36972233.75247 -28176466.59145  23294821.1984   23294828.7904
     -1507.5394      -1174.7014
  22935746.2604  -19283945.69548 -14733310.29446  22935743.6554   22935750.8594
      3712.6744       2892.9894
  20917847.0104  -34389446.30949 -26463119.49047  20917844.5404   20917850.7114
       752.1444        586.0874
  20943420.3554  -29324261.41849 -22527436.06447  20943418.5614   20943424.2184
      1412.7024       1100.8064
  24431474.7844   -9134956.47648  -6815205.81446  24431472.2184   24431485.4764
      3635.7274       2833.0244
  22881287.8134  -33445938.19047 -25769078.84145  22881285.2544   22881296.3914
     -2709.2014      -2111.0564
  23375917.0844  -28740916.07148 -22051284.30546  23375914.4864   23375922.1244
     -1645.6964      -1282.3574
 00  7 14  0  2 30.0000000  0  7G21G20G11G25G 1G15G29
  23303469.1344  -36926794.89447 -28141059.81845  23303466.5244   23303475.7504
     -1517.4154      -1182.3954
  22914575.4374  -19395196.91348 -14819999.44146  22914572.6954   22914580.2654
      3708.3884       2889.6474
  20913625.1604  -34411630.30049 -26480405.72547  20913622.9694   20913629.0514
       731.0054        569.6154
  20935423.5214  -29366285.96449 -22560182.43847  20935421.3844   20935427.0444
      1393.2494       1085.6494
  24410750.0584   -9243863.61248  -6900068.19346  24410747.7324   24410760.4094
      3629.0104       2827.7924
  22896789.5234  -33364472.48047 -25705599.21545  22896787.2214   22896799.3124
     -2717.5424      -2117.5604
  23385331.7244  -28691441.78648 -22012733.00146  23385329.7344   23385336.8294
     -1648.3214      -1284.4074
 00  7 14  0  3  0.0000000  0  7G21G20G11G25G 1G15G29
  23312166.4164  -36881092.42647 -28105447.65945  23312164.1104   23312173.2484
     -1527.9044      -1190.5674
  22893422.3614  -19506353.71448 -14906615.01646  22893419.9494   22893427.6044
      3703.5434       2885.8764
  20909517.8994  -34433216.15949 -26497225.87947  20909515.4654   20909521.5534
       709.4594        552.8244
  20927530.5274  -29407761.78349 -22592501.23147  20927528.6034   20927534.4074
      1373.3074       1070.1074
  24390055.8534   -9352605.07948  -6984801.47446  24390053.2714   24390067.5414
      3621.9214       2822.2654
  22912333.0764  -33282791.45147 -25641951.80845  22912330.9814   22912342.7924
     -2726.3264      -2124.4064
  23394755.3864  -28641924.39648 -21974148.10546  23394752.6984   23394760.0504
     -1651.4034      -1286.8044
 00  7 14  0  3 30.0000000  0  7G21G20G11G25G 1G15G29
  23320891.8434  -36835240.75447 -28069719.25445  23320889.6034   23320898.9054
     -1535.5014      -1196.4904
  22872266.6194  -19617528.81848 -14993244.86146  22872264.0104   22872271.4874
      3701.4484       2884.2424
  20905502.1554  -34454318.34849 -26513669.14547  20905499.7464   20905505.8504
       690.5944        538.1254
  20919720.8094  -29448803.12449 -22624481.47347  20919718.7804   20919724.4624
      1356.1454       1056.7354
  24369371.6904   -9461294.55147  -7069494.24146  24369369.7754   24369384.5044
      3617.4044       2818.7464
  22927895.6544  -33201011.88247 -25578227.61745  22927893.1594   22927904.8044
     -2732.2604      -2129.0324
  23404163.7384  -28592478.54048 -21935618.95046  23404161.4324   23404169.6274
     -1651.7264      -1287.0554
 00  7 14  0  4  0.0000000  0  7G21G20G11G25G 1G15G29
  23329687.8714  -36789016.35947 -28033700.39945  23329685.4784   23329696.0304
     -1547.5884      -1205.9074
  22851149.5244  -19728496.52748 -15079713.11246  22851147.3004   22851154.8014
      3694.8594       2879.1064
  20901621.1574  -34474712.72249 -26529560.87047  20901618.7454   20901625.0144
       667.4314        520.0764
  20912036.3754  -29489185.80149 -22655948.46647  20912034.3534   20912039.7454
      1334.5394       1039.9004
  24348742.0504   -9569707.25047  -7153971.37546  24348740.0564   24348753.2684
      3608.5864       2811.8774
  22943518.5614  -33118912.22047 -25514254.01945  22943516.4754   22943529.0354
     -2742.5354      -2137.0324
  23413601.1254  -28542880.76448 -21896971.41446  23413599.8054   23413607.7164
     -1656.3954      -1290.6974
 00  7 14  0  4 30.0000000  0  7G21G20G11G25G 1G15G29
  23338503.9464  -36742684.08647 -27997597.47045  23338501.9224   23338512.5584
     -1547.9684      -1206.1994
  22830023.0724  -19839520.83848 -15166225.45146  22830020.2704   22830027.7074
      3699.9564       2883.0784
  20897824.4324  -34494664.65949 -26545107.84147  20897822.0764   20897828.4344
       655.8654        511.0644
  20904426.2784  -29529174.62349 -22687108.56047  20904424.4764   20904430.3744
      1324.6514       1032.1954
  24328114.4404   -9678108.33247  -7238439.43446  24328111.7514   24328124.9934
      3611.4054       2814.0714
  22959152.2984  -33036760.22247 -25450239.63945  22959150.1664   22959162.0124
     -2741.0404      -2135.8664
  23423018.4014  -28493397.03348 -21858412.73246  23423016.2594   23423023.7354
     -1649.3454      -1285.2004
 00  7 14  0  5  0.0000000  0  7G21G20G11G25G 1G15G29
  23347381.0214  -36696037.33847 -27961249.54745  23347378.8164   23347388.9794
     -1559.4334      -1215.1324
  22808924.8894  -19950393.17248 -15252619.36746  22808921.7634   22808929.2004
      3693.9344       2878.3864
  20894151.4184  -34513967.36049 -26560148.90547  20894148.9414   20894155.4074
       633.3144        493.4924
  20896930.6104  -29568562.56549 -22717800.43647  20896928.6784   20896934.8814
      1303.6654       1015.8424
  24307527.4164   -9786290.20547  -7322736.69546  24307525.5394   24307538.4684
      3603.1744       2807.6594
  22974834.7444  -32954351.24547 -25386025.00945  22974832.0124   22974843.7664
     -2750.4984      -2143.2434
  23432452.8654  -28443821.12448 -21819782.23646  23432450.3904   23432457.9454
     -1653.3544      -1288.3264
 00  7 14  0  5 30.0000000  0  7G21G20G11G25G 1G15G29
  23356291.1454  -36649217.92447 -27924767.04945  23356288.4454   23356298.4764
     -1565.6374      -1219.9754
  22787828.1344  -20061253.58948 -15339004.00846  22787825.6364   22787832.7914
      3693.0314       2877.6854
  20890574.4844  -34532762.50349 -26574794.47347  20890572.1914   20890578.7034
       615.9224        479.9404
  20889522.8514  -29607490.87949 -22748134.15547  20889521.1144   20889526.7024
      1287.8504       1003.5184
  24286956.0554   -9894393.99147  -7406973.11646  24286953.4844   24286966.3354
      3600.0294       2805.2084
  22990538.4074  -32871829.73947 -25321722.69745  22990535.9224   22990546.8404
     -2754.6544      -2146.4784
  23441876.7024  -28394295.21648 -21781190.70046  23441874.9424   23441882.6364
     -1652.1234      -1287.3654
 00  7 14  0  6  0.0000000  0  7G21G20G11G25G 1G15G29
  23365256.3934  -36602106.04747 -27888056.66845  23365253.9924   23365263.3874
     -1575.2654      -1227.4694
  22766756.7174  -20171980.54648 -15425284.65946  22766754.3634   22766761.9964
      3688.6804       2874.2934
  20887116.9184  -34550930.24949 -26588951.16047  20887114.7444   20887121.5354
       595.1354        463.7404
  20882225.9774  -29645839.51649 -22778016.18247  20882223.9314   20882229.3614
      1268.6444        988.5514
  24266421.7094  -10002299.26147  -7491054.84646  24266419.2834   24266432.0794
      3593.5644       2800.1754
  23006286.3634  -32789078.09647 -25257241.05945  23006283.4604   23006294.0924
     -2762.1734      -2152.3364
  23451314.8764  -28344700.10148 -21742545.23646  23451312.5034   23451320.1204
     -1654.3334      -1289.0884
 00  7 14  0  6 30.0000000  0  7G21G20G11G25G 1G15G29
  23374270.6794  -36554734.30347 -27851143.78445  23374268.3404   23374277.8544
     -1587.9444      -1237.3514
  22745706.0474  -20282604.86748 -15511485.34246  22745703.4894   22745710.9474
      3681.2324       2868.4894
  20883773.4944  -34568503.15049 -26602644.33747  20883771.2424   20883777.4864
       571.3364        445.1974
  20875032.2324  -29683640.53749 -22807471.49247  20875030.3124   20875036.1334
      1246.4004        971.2204
  24245918.8564  -10110037.95447  -7575006.76545  24245916.8494   24245930.0734
      3583.9534       2792.6824
  23022070.5314  -32706131.12747 -25192607.20645  23022067.1364   23022078.2774
     -2772.6444      -2160.4984
  23460758.8584  -28295068.62348 -21703871.44846  23460757.2204   23460765.1064
     -1659.5154      -1293.1254
 00  7 14  0  7  0.0000000  0  7G21G20G11G25G 1G15G29
  23383340.2814  -36507078.70347 -27814009.72245  23383337.8564   23383346.8004
     -1594.3064      -1242.3094
  22724679.5554  -20393100.73648 -15597585.92746  22724676.6194   22724684.1184
      3679.9724       2867.5074
  20880547.2574  -34585457.41849 -26615855.46247  20880544.8604   20880551.2394
       553.7254        431.4744
  20867948.3834  -29720869.54949 -22836481.08647  20867946.2114   20867951.5424
      1230.3884        958.7424
  24225454.5674  -10217585.39447  -7658809.69446  24225452.3204   24225463.9954
      3580.6644       2790.1194
  23037895.6734  -32622967.49047 -25127804.53045  23037892.8094   23037903.2234
     -2776.7534      -2163.6984
  23470214.8714  -28245377.24248 -21665150.98946  23470212.9944   23470220.7854
     -1658.4164      -1292.2694
 00  7 14  0  7 30.0000000  0  7G21G20G11G25G 1G15G29
  23392452.1364  -36459193.78447 -27776696.97545  23392449.9384   23392460.2974
     -1599.9724      -1246.7254
  22703666.8634  -20503521.06948 -15683627.65146  22703664.1144   22703671.6794
      3679.4354       2867.0894
  20877427.9394  -34601847.48649 -26628626.95347  20877425.8354   20877432.1694
       536.9394        418.3944
  20860962.3954  -29757580.88249 -22865087.29247  20860960.4584   20860965.6434
      1215.1364        946.8594
  24205015.1004  -10324995.24048  -7742505.41046  24205012.6274   24205024.5794
      3578.0714       2788.0984
  23053751.0494  -32539643.89747 -25062877.21345  23053749.3644   23053760.4084
     -2780.0304      -2166.2514
  23479672.2424  -28195680.78948 -21626426.57546  23479669.6834   23479678.2934
     -1656.5864      -1290.8424
 00  7 14  0  8  0.0000000  0  7G21G20G11G25G 1G15G29
  23401607.1844  -36411080.21047 -27739206.06845  23401604.6324   23401615.6884
     -1606.1464      -1251.5374
  22682669.5334  -20613865.17148 -15769609.98446  22682666.9594   22682673.6724
      3678.2614       2866.1754
  20874416.3944  -34617674.50849 -26640959.70747  20874414.0744   20874420.3194
       519.5534        404.8474
  20854074.5804  -29793775.29549 -22893290.69847  20854072.5334   20854077.9704
      1199.2834        934.5054
  24184601.1104  -10432268.22648  -7826094.49646  24184598.4954   24184610.8204
      3574.8944       2785.6204
  23069637.1594  -32456163.89347 -24997828.01845  23069634.8504   23069645.9034
     -2783.8504      -2169.2294
  23489129.5974  -28145980.80448 -21587699.40946  23489127.9314   23489136.0904
     -1655.3314      -1289.8654
 00  7 14  0  8 30.0000000  0  7G21G20G11G25G 1G15G29
  23410808.7104  -36362730.54447 -27701531.18845  23410806.5464   23410816.1354
     -1618.0064      -1260.7874
  22661688.1144  -20724123.09748 -15855525.16546  22661685.5944   22661692.6164
      3671.3434       2860.7844
  20871513.2984  -34632930.80449 -26652847.74547  20871510.9154   20871517.0564
       496.5504        386.9234
  20847286.3744  -29829444.72849 -22921085.03247  20847284.5314   20847290.0724
      1177.8014        917.7654
  24164215.6084  -10539395.72548  -7909570.19146  24164213.0444   24164224.6734
      3566.0494       2778.7324
  23085553.4524  -32372521.82847 -24932652.54345  23085551.7414   23085562.8514
     -2793.1924      -2176.5044
  23498589.7084  -28096269.71848 -21548963.58546  23498587.6844   23498595.5474
     -1659.6704      -1293.2474
 00  7 14  0  9  0.0000000  0  7G21G20G11G25G 1G15G29
  23420061.2714  -36314105.45147 -27663641.71045  23420059.2244   23420068.9414
     -1620.8654      -1263.0034
  22640731.0154  -20834254.11148 -15941341.45346  22640728.3654   22640735.3384
      3673.4314       2862.4124
  20868725.8374  -34647577.34149 -26664260.64047  20868723.5544   20868729.6184
       482.5774        376.0344
  20840606.7494  -29864549.76149 -22948439.58147  20840604.5414   20840609.9154
      1165.3324        908.0504
  24143864.4134  -10646338.13448  -7992901.67446  24143862.4834   24143874.1744
      3566.1644       2778.8184
  23101509.2684  -32288681.17947 -24867322.33645  23101506.9754   23101517.5394
     -2793.4794      -2176.7294
  23508058.7084  -28046508.94648 -21510189.04946  23508056.6554   23508064.5014
     -1654.9984      -1289.6054
 00  7 14  0  9 30.0000000  0  7G21G20G11G25G 1G15G29
  23429359.1774  -36265248.96047 -27625571.89545  23429356.8144   23429366.9544
     -1632.0454      -1271.7224
  22619789.1074  -20944300.27848 -16027091.62146  22619786.6104   22619794.1274
      3667.1394       2857.5104
  20866046.0014  -34661657.89249 -26675232.50347  20866043.9334   20866050.4444
       460.2514        358.6384
  20834024.8794  -29899134.54849 -22975388.74447  20834022.9464   20834028.8254
      1144.5364        891.8464
  24123540.5084  -10753138.62648  -8076122.56346  24123537.8504   24123550.7644
      3558.0094       2772.4654
  23117493.5844  -32204687.95247 -24801873.23745  23117490.1394   23117500.9694
     -2801.9204      -2183.3084
  23517529.6724  -27996742.73548 -21471410.27146  23517527.3094   23517534.6474
     -1658.6294      -1292.4334
 00  7 14  0 10  0.0000000  0  7G21G20G11G25G 1G15G29
  23438696.5064  -36216174.32147 -27587332.06945  23438694.6034   23438706.3114
     -1638.2194      -1276.5304
  22598862.4814  -21054273.10548 -16112784.63846  22598859.6204   22598867.2224
      3665.7694       2856.4384
  20863471.8864  -34675186.04949 -26685773.93447  20863469.7564   20863476.3694
       442.9584        345.1624
  20827540.6794  -29933211.33849 -23001942.06747  20827538.7814   20827544.3574
      1128.6664        879.4794
  24103242.1264  -10859809.92448  -8159242.75846  24103239.4994   24103251.7374
      3554.7954       2769.9594
  23133501.7354  -32120557.59447 -24736317.28645  23133499.4854   23133510.5344
     -2805.3254      -2185.9634
  23526998.4434  -27946984.40648 -21432637.63646  23526996.0884   23527003.6164
     -1657.2504      -1291.3624
 00  7 14  0 10 30.0000000  0  7G21G20G11G25G 1G15G29
  23448099.0024  -36166772.20747 -27548837.11245  23448095.7674   23448106.7974
     -1649.6624      -1285.4484
  22577970.3294  -21164061.29248 -16198333.77846  22577967.3634   22577975.5494
      3659.0624       2851.2134
  20861023.8984  -34688052.92749 -26695800.08947  20861021.4564   20861027.6384
       420.4214        327.6014
  20821174.0964  -29966670.53249 -23028014.14547  20821171.9484   20821177.3154
      1107.6194        863.0804
  24082988.0274  -10966242.08848  -8242176.62846  24082985.3664   24082997.8954
      3546.3244       2763.3594
  23149557.9514  -32036183.12147 -24670571.12745  23149555.3504   23149566.1004
     -2813.9244      -2192.6674
  23536486.1684  -27897125.43548 -21393786.58246  23536483.6744   23536491.6744
     -1661.0834      -1294.3474
 00  7 14  0 11  0.0000000  0  7G21G20G11G25G 1G15G29
  23457526.5714  -36117225.96547 -27510229.85145  23457524.9804   23457534.9134
     -1658.9474      -1292.6834
  22557078.5894  -21273845.95248 -16283880.17046  22557076.2654   22557084.1754
      3654.3584       2847.5484
  20858666.0764  -34700441.54649 -26705453.57447  20858663.8634   20858670.1474
       399.9054        311.6154
  20814889.3194  -29999695.42349 -23053747.80947  20814887.2654   20814892.7554
      1088.5454        848.2164
  24062744.9834  -11072617.62448  -8325066.39646  24062742.4214   24062755.2944
      3539.8774       2758.3394
  23165625.7704  -31951749.94447 -24604779.21345  23165623.3624   23165633.1534
     -2820.4334      -2197.7314
  23545958.1264  -27847348.89648 -21354999.76046  23545955.6844   23545963.9314
     -1662.8984      -1295.7624
 00  7 14  0 11 30.0000000  0  7G21G20G11G25G 1G15G29
  23467000.0544  -36067448.01947 -27471442.04345  23466997.5054   23467007.6904
     -1664.1314      -1296.7244
  22536204.2234  -21383537.90148 -16369354.33946  22536202.1204   22536210.1054
      3653.8144       2847.1254
  20856416.8574  -34712264.26449 -26714666.09747  20856414.3194   20856420.7144
       383.6144        298.9214
  20808704.0014  -30032198.43149 -23079074.81047  20808702.1084   20808707.4684
      1073.7184        836.6634
  24042530.2444  -11178848.20248  -8407843.20246  24042527.6314   24042540.3134
      3537.5744       2756.5434
  23181720.4834  -31867172.94947 -24538875.22245  23181717.9324   23181728.2524
     -2822.6094      -2199.4264
  23555431.2664  -27797567.42848 -21316209.09546  23555429.0754   23555437.2444
     -1660.5074      -1293.8964
 00  7 14  0 12  0.0000000  0  7G21G20G11G25G 1G15G29
  23476537.0894  -36017330.61947 -27432389.71545  23476534.5594   23476545.3584
     -1671.7164      -1302.6244
  22515370.5914  -21493027.89848 -16454671.11746  22515367.5064   22515374.8264
      3650.7954       2844.7704
  20854294.2124  -34723414.40449 -26723354.53247  20854292.1444   20854298.9524
       364.9514        284.3774
  20802638.4204  -30064071.88449 -23103911.24347  20802636.7044   20802642.1834
      1056.4784        823.2284
  24022362.8864  -11284826.00348  -8490423.02046  24022360.3314   24022373.4994
      3532.9074       2752.9024
  23197861.5174  -31782347.06447 -24472777.28745  23197859.1244   23197870.1634
     -2827.1514      -2202.9724
  23564925.5644  -27747674.33648 -21277331.45546  23564923.5904   23564931.9154
     -1660.4934      -1293.8894
 00  7 14  0 12 30.0000000  0  7G21G20G11G25G 1G15G29
  23486116.9074  -35966988.87847 -27393162.59345  23486115.1504   23486124.7874
     -1682.8284      -1311.2904
  22494552.3324  -21602428.66948 -16539918.37346  22494549.4844   22494555.7454
      3644.0874       2839.5454
  20852279.2914  -34734006.63849 -26731608.24047  20852277.0664   20852283.0044
       342.6664        267.0134
  20796671.7414  -30095430.19349 -23128346.26847  20796669.5924   20796675.0084
      1035.5964        806.9574
  24002223.0534  -11390664.89248  -8572894.59046  24002220.4044   24002232.6944
      3524.5334       2746.3824
  23214028.6774  -31697389.30047 -24406576.59345  23214026.2374   23214037.4714
     -2835.1654      -2209.2104
  23574419.3914  -27697784.24648 -21238456.15846  23574417.1314   23574425.5814
     -1664.0624      -1296.6704
 00  7 14  0 13  0.0000000  0  7G21G20G11G25G 1G15G29
  23495725.6304  -35916499.62047 -27353820.50845  23495722.7424   23495732.1054
     -1687.3874      -1314.8394
  22473736.1874  -21711814.24148 -16625153.79146  22473733.2974   22473739.7774
      3643.9074       2839.4064
  20850355.1704  -34744117.47249 -26739486.82947  20850352.9434   20850358.7214
       326.9904        254.7984
  20790787.8234  -30126349.42949 -23152439.15847  20790785.8574   20790791.2114
      1021.3664        795.8704
  23982093.7694  -11496440.36448  -8655316.77146  23982091.3184   23982103.3264
      3522.8294       2745.0544
  23230205.6074  -31612378.14547 -24340334.29845  23230203.2744   23230214.4884
     -2836.5144      -2210.2634
  23583897.3454  -27647973.72048 -21199642.84746  23583895.6254   23583904.6024
     -1660.9584      -1294.2554
 00  7 14  0 13 30.0000000  0  7G21G20G11G25G 1G15G29
  23505388.4634  -35865717.51747 -27314250.21945  23505386.3284   23505396.0204
     -1703.6044      -1327.4814
  22452951.3364  -21821038.57848 -16710263.57446  22452948.7594   22452955.0384
      3632.1564       2830.2504
  20848550.3794  -34753602.65649 -26746877.90147  20848548.0244   20848553.8264
       299.7594        233.5804
  20785015.1974  -30156685.09649 -23176077.32047  20785013.3284   20785018.6224
       995.5114        775.7224
  23962004.4114  -11602007.48648  -8737576.58946  23962002.3754   23962014.8524
      3509.4714       2734.6444
  23246418.5824  -31527171.38047 -24273939.58745  23246416.8864   23246429.1244
     -2849.4194      -2220.3214
  23593389.3134  -27598098.57548 -21160779.17646  23593386.9974   23593395.1814
     -1669.5494      -1300.9534
 00  7 14  0 14  0.0000000  0  7G21G20G11G25G 1G15G29
  23515103.9654  -35814659.29847 -27274464.74345  23515102.1884   23515112.1984
     -1703.4134      -1327.3314
  22432194.2154  -21930116.17948 -16795259.00946  22432191.6394   22432198.6804
      3636.5684       2833.6844
  20846861.0304  -34762479.51449 -26753794.95247  20846858.7274   20846864.3884
       288.8304        225.0634
  20779350.6424  -30186453.71949 -23199273.62547  20779348.3664   20779353.8584
       985.9464        768.2694
  23941951.4994  -11707382.41448  -8819686.65346  23941949.2444   23941961.5384
      3512.3904       2736.9184
  23262666.8484  -31441788.07147 -24207407.32545  23262664.8174   23262677.2964
     -2845.9184      -2217.5894
  23602889.3094  -27548175.81248 -21121878.39846  23602887.4084   23602895.6284
     -1661.8164      -1294.9184
 00  7 14  0 14 30.0000000  0  7G21G20G11G25G 1G15G29
  23524859.7924  -35763393.71647 -27234517.69845  23524858.7594   23524868.6474
     -1711.0114      -1333.2604
  22411452.6424  -22039113.74148 -16880192.07846  22411450.2884   22411457.1924
      3633.1894       2831.0564
  20845274.4604  -34770816.46249 -26760291.29347  20845272.2284   20845278.2244
       270.1554        210.5104
  20773780.4984  -30215723.73549 -23222081.40647  20773778.4014   20773783.8514
       968.6494        754.7914
  23921923.4244  -11812632.73448  -8901699.62146  23921921.1734   23921932.9314
      3507.5524       2733.1494
  23278935.0464  -31356298.75747 -24140792.45145  23278932.6064   23278945.2534
     -2850.0854      -2220.8394
  23612385.2604  -27498273.98048 -21082993.92346  23612383.3784   23612391.5514
     -1661.7554      -1294.8734
 00  7 14  0 15  0.0000000  0  7G21G20G11G25G 1G15G29
  23534650.7704  -35711948.23547 -27194430.49845  23534648.0704   23534658.3974
     -1718.8674      -1339.3684
  22390720.5994  -22148057.01948 -16965082.86146  22390718.3884   22390725.6164
      3629.4144       2828.1124
  20843785.6664  -34778641.80949 -26766388.99147  20843783.2584   20843789.1894
       251.2264        195.7614
  20768300.4754  -30244522.58949 -23244522.05147  20768298.1094   20768303.5704
       951.0304        741.0624
  23901913.2904  -11917785.59548  -8983636.66146  23901911.1484   23901922.5834
      3502.3904       2729.1254
  23295218.2554  -31270733.53847 -24074118.44845  23295215.6424   23295227.5324
     -2854.4884      -2224.2744
  23621873.3774  -27448421.08747 -21044147.58746  23621870.6644   23621878.2114
     -1662.0424      -1295.0984
 00  7 14  0 15 30.0000000  0  7G21G20G11G25G 1G15G29
  23544479.0384  -35660302.18547 -27154187.00745  23544476.7874   23544486.3384
     -1725.5934      -1344.6144
  22370004.9934  -22256922.26448 -17049912.82846  22370001.9824   22370009.2654
      3626.8144       2826.0854
  20842397.9244  -34785934.35849 -26772071.51747  20842395.5954   20842401.4274
       233.5094        181.9554
  20762913.2674  -30272828.73049 -23266578.75847  20762911.4964   20762917.1954
       934.6484        728.2974
  23881926.1714  -12022818.92748  -9065480.55446  23881923.9064   23881935.3584
      3498.4584       2726.0624
  23311519.0974  -31185073.28047 -24007370.38645  23311516.8074   23311528.5954
     -2857.6314      -2226.7194
  23631353.7654  -27398595.84447 -21005322.80846  23631351.3904   23631359.7234
     -1661.0914      -1294.3504
 00  7 14  0 16  0.0000000  0  7G21G20G11G25G 1G15G29
  23554372.4344  -35608308.83147 -27113672.87145  23554370.5224   23554380.8644
     -1737.6844      -1354.0424
  22349331.1694  -22365561.15048 -17134566.42346  22349328.8174   22349336.0734
      3618.6974       2819.7614
  20841139.1734  -34792547.88249 -26777224.93447  20841136.9674   20841142.9964
       210.3174        163.8844
  20757648.9454  -30300495.65249 -23288137.37547  20757647.0104   20757652.3864
       912.8054        711.2764
  23861989.1844  -12127585.61748  -9147116.69746  23861987.0024   23861998.0774
      3488.9804       2718.6754
  23327866.0834  -31099173.65347 -23940435.79945  23327863.8404   23327874.9314
     -2866.0814      -2233.3044
  23640858.0264  -27348651.81748 -20966405.46446  23640855.7454   23640864.1524
     -1665.5824      -1297.8504
 00  7 14  0 16 30.0000000  0  7G21G20G11G25G 1G15G29
  23564313.2184  -35556066.94047 -27072965.06345  23564311.9044   23564321.7864
     -1744.8964      -1359.6594
  22328682.7004  -22474070.64848 -17219119.19546  22328680.0464   22328687.0104
      3615.4384       2817.2224
  20839991.2944  -34798581.79749 -26781926.71347  20839989.0114   20839994.8864
       192.0934        149.6844
  20752486.7014  -30327622.78849 -23309275.37847  20752484.6774   20752490.0564
       895.8694        698.0794
  23842085.2224  -12232184.02648  -9228621.69746  23842082.4804   23842093.6084
      3484.4564       2715.1524
  23344239.6754  -31013135.99247 -23873393.63745  23344237.0934   23344247.2044
     -2869.5554      -2236.0074
  23650365.9554  -27298688.15947 -20927472.81946  23650363.5084   23650371.4394
     -1665.1324      -1297.5044
 00  7 14  0 17  0.0000000  0  7G21G20G11G25G 1G15G29
  23574289.6464  -35503652.25647 -27032122.61345  23574287.0204   23574297.2244
     -1748.0624      -1362.1194
  22308044.8164  -22582524.26348 -17303628.41646  22308042.1394   22308049.3794
      3616.0954       2817.7354
  20838939.0484  -34804112.04249 -26786236.02647  20838936.8284   20838942.3574
       177.8394        138.5764
  20747413.0984  -30354285.17649 -23330051.24447  20747410.8064   20747416.3284
       882.9394        688.0054
  23822197.9374  -12336689.22748  -9310054.08146  23822195.5124   23822206.6224
      3483.8794       2714.7004
  23360624.2944  -30927037.95147 -23806304.43745  23360620.7704   23360631.6264
     -2868.9754      -2235.5594
  23659863.3234  -27248780.83548 -20888584.06646  23659860.8084   23659869.2094
     -1660.6914      -1294.0454
 00  7 14  0 17 29.9990000  0  7G21G20G11G25G 1G15G29
  23584301.8284  -35451026.01047 -26991115.31445  23584300.9524   23584311.6104
     -1760.7674      -1372.0174
  22287426.3254  -22690875.65648 -17388057.99946  22287423.5414   22287430.3154
      3607.2084       2810.8094
  20837989.5174  -34809098.33049 -26790121.46647  20837987.4554   20837993.5454
       154.1624        120.1284
  20742435.4744  -30380441.11749 -23350432.47947  20742433.5074   20742438.9714
       860.5354        670.5464
  23802337.5524  -12441056.22448  -9391378.76746  23802334.8574   23802346.1514
      3473.8254       2706.8674
  23377025.8014  -30840843.76747 -23739140.32245  23377022.4934   23377033.7564
     -2877.8024      -2242.4344
  23669357.0424  -27198890.84748 -20849708.81646  23669354.7474   23669362.4674
     -1665.7404      -1297.9764
 00  7 14  0 17 59.9990000  0  7G21G20G11G25G 1G15G29
  23594382.9374  -35398057.03047 -26949840.94745  23594379.5604   23594391.2554
     -1770.4234      -1379.5524
  22266850.7834  -22799001.86048 -17472312.11446  22266847.9524   22266854.2994
      3601.2184       2806.1424
  20837169.3564  -34813413.02949 -26793483.59747  20837166.9734   20837172.6064
       133.4544        103.9924
  20737578.6454  -30405964.58049 -23370320.87447  20737576.7174   20737582.1364
       841.0544        655.3664
  23782525.9684  -12545163.28948  -9472500.93346  23782523.4664   23782535.5204
      3466.6754       2701.3034
  23393471.3614  -30754422.13747 -23671798.99045  23393468.6924   23393479.9354
     -2883.5644      -2246.9214
  23678871.8424  -27148886.85248 -20810744.73746  23678869.8264   23678877.9604
     -1667.7984      -1299.5794
 00  7 14  0 18 29.9990000  0  7G21G20G11G25G 1G15G29
  23604484.0124  -35344977.19447 -26908480.20445  23604481.9674   23604491.9564
     -1768.4804      -1378.0394
  22246274.9834  -22907127.81548 -17556566.03046  22246272.2784   22246278.5404
      3606.8484       2810.5294
  20836432.0314  -34817287.39249 -26796502.60847  20836429.6364   20836435.3404
       124.4824         97.0004
  20732798.4484  -30431085.17849 -23389895.34447  20732796.3984   20732801.7654
       833.3564        649.3694
  23762721.0424  -12649236.83448  -9553596.96846  23762718.8794   23762731.3014
      3471.2624       2704.8724
  23409916.1134  -30668008.83847 -23604464.14145  23409912.8404   23409924.4544
     -2877.5904      -2242.2734
  23688365.0664  -27099001.24848 -20771872.91446  23688362.7204   23688370.8164
     -1658.2364      -1292.1274
 00  7 14  0 18 59.9990000  0  7G21G20G11G25G 1G15G29
  23614634.7894  -35291639.79147 -26866918.72945  23614632.1074   23614642.5104
     -1784.0174      -1390.1384
  22225727.6044  -23015104.96548 -17640703.98946  22225724.6064   22225730.9744
      3594.9484       2801.2574
  20835806.2064  -34820575.25149 -26799064.59947  20835803.8784   20835809.6344
        97.9944         76.3594
  20728122.6254  -30455656.41049 -23409041.74047  20728120.4414   20728125.9824
       808.1084        629.6944
  23742951.2374  -12753129.34648  -9634551.95746  23742948.8834   23742961.2604
      3458.2454       2694.7304
  23426385.1764  -30581459.27147 -23537023.12645  23426381.9974   23426394.8554
     -2889.0734      -2251.2174
  23697863.2834  -27049087.55548 -20732979.21946  23697860.9884   23697869.1114
     -1666.0684      -1298.2324
 00  7 14  0 19 29.9990000  0  7G21G20G11G25G 1G15G29
  23624837.1474  -35238015.38347 -26825133.64945  23624834.8464   23624846.2004
     -1789.1444      -1394.1344
  22205214.3674  -23122901.64848 -17724701.33846  22205211.5384   22205217.6764
      3593.2464       2799.9294
  20835297.7284  -34823247.40849 -26801146.82747  20835295.3644   20835301.4224
        81.8724         63.7974
  20723557.1644  -30479648.71449 -23427737.02447  20723555.1924   20723560.3814
       793.1744        618.0574
  23723221.5734  -12856810.99248  -9715342.65846  23723219.0734   23723230.1394
      3455.6314       2692.6984
  23442886.6044  -30494746.11147 -23469454.63045  23442884.0304   23442895.1894
     -2890.0284      -2251.9634
  23707372.4224  -26999116.39348 -20694040.74846  23707370.4034   23707378.6704
     -1663.6064      -1296.3134
 00  7 14  0 19 59.9990000  0  7G21G20G11G25G 1G15G29
  23635069.9114  -35184250.74147 -26783239.29545  23635066.7434   23635077.4724
     -1796.0574      -1399.5314
  22184707.7664  -23230661.57648 -17808670.04646  22184705.1364   22184711.9234
      3589.7814       2797.2314
  20834878.4584  -34825450.63249 -26802863.64847  20834876.1504   20834882.2844
        64.0584         49.9164
  20719073.8574  -30503208.29349 -23446095.11847  20719071.7124   20719076.8454
       776.5444        605.0984
  23703503.6774  -12960427.13448  -9796082.31246  23703501.1434   23703512.7884
      3451.2244       2689.2594
  23459390.3384  -30408017.61847 -23401874.19045  23459388.2444   23459399.8924
     -2892.7354      -2254.0694
  23716864.5524  -26949233.76948 -20655171.27746  23716863.0794   23716871.1174
     -1662.8354      -1295.7154
 00  7 14  0 20 29.9990000  0  7G21G20G11G25G 1G15G29
  23645355.3144  -35130198.53647 -26741120.85645  23645352.6054   23645364.0844
     -1807.6474      -1408.5544
  22164237.0744  -23338235.29748 -17892493.65746  22164234.5164   22164241.2404
      3581.5664       2790.8304
  20834576.2774  -34827037.88049 -26804100.49047  20834574.0414   20834580.0184
        41.5124         32.3484
  20714701.0674  -30526187.43449 -23464000.92747  20714698.9564   20714704.2724
       755.2134        588.4784
  23683826.9234  -13063829.62448  -9876655.46746  23683824.3194   23683835.1984
      3442.1014       2682.1524
  23475924.9554  -30321128.44747 -23334168.55745  23475922.5074   23475934.3174
     -2900.0744      -2259.7914
  23726367.8864  -26899292.25247 -20616255.90045  23726366.3324   23726374.7364
     -1666.8174      -1298.8234
 00  7 14  0 20 59.9990000  0  7G21G20G11G25G 1G15G29
  23655700.3334  -35075834.50247 -26698759.42545  23655698.2044   23655708.9814
     -1815.0534      -1414.3144
  22143807.3314  -23445597.32948 -17976152.31246  22143804.4414   22143811.1734
      3577.4504       2787.6204
  20834396.1334  -34827986.09449 -26804839.38047  20834393.6744   20834399.8414
        23.2044         18.0824
  20710443.3644  -30548563.49049 -23481436.79747  20710441.2334   20710446.6754
       738.0584        575.1104
  23664194.4704  -13166994.48248  -9957043.47346  23664192.5124   23664203.9054
      3437.1474       2678.2904
  23492492.7344  -30234057.38447 -23266321.18345  23492490.7994   23492504.3344
     -2903.0824      -2262.1374
  23735889.1864  -26849268.51247 -20577276.45145  23735885.7764   23735894.1064
     -1666.5804      -1298.6314
 00  7 14  0 21 29.9990000  0  7G21G20G11G25G 1G15G29
  23666082.7264  -35021272.83047 -26656244.01445  23666080.0784   23666091.9824
     -1825.5794      -1422.5304
  22123396.0974  -23552858.97748 -18059732.74846  22123393.1434   22123400.0054
      3570.0514       2781.8554
  20834315.1864  -34828409.62249 -26805169.42647  20834312.8634   20834319.2914
         1.7304          1.3494
  20706277.7554  -30570450.16749 -23498491.33547  20706275.8024   20706281.3034
       717.8034        559.3274
  23644587.0104  -13270034.80448 -10037334.43246  23644584.5564   23644595.4514
      3428.9614       2671.9104
  23509075.3474  -30146920.58847 -23198422.60845  23509072.7484   23509086.1214
     -2909.2724      -2266.9604
  23745401.1824  -26799276.37647 -20538321.64245  23745398.8694   23745407.1174
     -1669.4974      -1300.9024
 00  7 14  0 21 59.9990000  0  7G21G20G11G25G 1G15G29
  23676504.5754  -34966507.72047 -26613570.04545  23676503.2054   23676513.9614
     -1831.5294      -1427.1604
  22103004.7214  -23660012.43148 -18143228.86846  22103002.0864   22103009.1574
      3567.2984       2779.7094
  20834335.6444  -34828303.44149 -26805086.71647  20834333.2484   20834339.4284
       -15.0414        -11.7204
  20702207.3574  -30591841.08249 -23515159.55947  20702205.4034   20702210.7964
       702.1244        547.1104
  23625003.9444  -13372943.87548 -10117523.11746  23625001.4274   23625011.9834
      3425.4514       2669.1764
  23525670.9464  -30059714.19047 -23130469.77645  23525668.1974   23525681.1604
     -2910.6564      -2268.0414
  23754909.9364  -26749310.01347 -20499386.90645  23754907.4514   23754916.1574
     -1667.7774      -1299.5654
 00  7 14  0 22 29.9990000  0  7G21G20G11G25G 1G15G29
  23686978.2984  -34911477.50247 -26570689.50145  23686975.4384   23686985.6654
     -1836.3294      -1430.9094
  22082647.1604  -23766993.26748 -18226590.48846  22082644.6024   22082651.4174
      3565.5194       2778.3264
  20834468.3974  -34827606.04949 -26804543.32247  20834466.0104   20834472.1454
       -30.7324        -23.9464
  20698242.8904  -30612674.72249 -23531393.54847  20698240.9344   20698246.4744
       687.5624        535.7634
  23605457.6204  -13475658.86248 -10197560.58646  23605454.9104   23605466.1774
      3422.9844       2667.2534
  23542290.9834  -29972378.15147 -23062415.93345  23542287.6484   23542300.2024
     -2910.8924      -2268.2254
  23764425.4664  -26699307.09247 -20460423.67845  23764422.8284   23764431.1734
     -1664.9934      -1297.3944
 00  7 14  0 22 59.9990000  0  7G21G20G11G25G 1G15G29
  23697485.1164  -34856258.38747 -26527661.74445  23697482.7524   23697493.9214
     -1842.6744      -1435.8454
  22062308.0374  -23873875.62348 -18309875.37546  22062305.4984   22062312.0704
      3562.1984       2775.7384
  20834699.2424  -34826394.07949 -26803598.96047  20834696.7774   20834703.2534
       -47.8514        -37.2864
  20694370.0894  -30633027.36149 -23547252.73447  20694368.0894   20694373.6234
       671.5914        523.3174
  23585933.6714  -13578255.37948 -10277505.73246  23585931.2784   23585942.6864
      3419.0324       2664.1744
  23558919.9094  -29884990.69247 -22994322.03045  23558917.0244   23558930.0854
     -2912.6084      -2269.5624
  23773933.0564  -26649344.00747 -20421491.51745  23773930.5924   23773938.9904
     -1663.6414      -1296.3404
 00  7 14  0 23 29.9990000  0  7G21G20G11G25G 1G15G29
  23708028.0554  -34800852.28547 -26484488.31945  23708025.7964   23708036.4674
     -1852.8474      -1443.7704
  22041988.1624  -23980659.06448 -18393083.19446  22041985.5144   22041991.5044
      3554.8644       2770.0204
  20835027.1194  -34824670.10049 -26802255.62947  20835024.7844   20835031.3974
       -68.9044        -53.6914
  20690588.2594  -30652901.39549 -23562738.97647  20690586.0824   20690591.7374
       651.5874        507.7294
  23566433.2704  -13680734.96948 -10357359.75946  23566430.4944   23566441.6754
      3411.1124       2658.0034
  23575558.6734  -29797556.09047 -22926191.39345  23575555.5624   23575567.8994
     -2918.1954      -2273.9114
  23783432.2504  -26599422.69847 -20382591.91145  23783430.1184   23783439.5224
     -1666.2554      -1298.3774
 00  7 14  0 23 59.9990000  0  7G21G20G11G25G 1G15G29
  23718618.4014  -34745196.53047 -26441120.32845  23718615.3314   23718627.5764
     -1861.5784      -1450.5684
  22021699.0264  -24087278.51848 -18476163.22746  22021696.3354   22021702.7404
      3548.9244       2765.3924
  20835464.2034  -34822372.05849 -26800464.97747  20835461.9044   20835468.3904
       -88.4904        -68.9524
  20686909.0334  -30672233.82749 -23577803.19547  20686907.0414   20686912.5114
       633.1034        493.3264
  23546966.3994  -13783033.95648 -10437073.04846  23546963.6764   23546973.8744
      3404.6884       2652.9964
  23592216.8574  -29710013.49147 -22857976.60045  23592214.4414   23592226.8204
     -2922.1374      -2276.9734
  23792936.0174  -26549480.08647 -20343675.69845  23792933.8774   23792943.0414
     -1667.4044      -1299.2774
 00  7 14  0 24 29.9990000  0  7G21G20G11G25G 1G15G29
  23729253.6544  -34689305.27447 -26397568.83645  23729252.5934   23729265.0184
     -1863.4494      -1452.0434
  22001438.9954  -24193745.79348 -18559124.67546  22001436.3124   22001442.2374
      3549.7814       2766.0604
  20836007.8864  -34819514.46149 -26798238.30347  20836005.5804   20836012.3354
      -101.1574        -78.8214
  20683330.9774  -30691038.45849 -23592456.13947  20683328.8694   20683333.9774
       621.4874        484.2764
  23527530.2954  -13885165.57048 -10516655.92246  23527528.0854   23527538.2794
      3405.0424       2653.2714
  23608893.6324  -29622379.27147 -22789690.42445  23608890.9544   23608902.6944
     -2919.2154      -2274.7074
  23802440.3464  -26499530.23847 -20304753.86145  23802439.1274   23802447.9094
     -1661.6754      -1294.8104
 00  7 14  0 24 59.9990000  0  7G21G20G11G25G 1G15G29
  23739937.4804  -34633165.26047 -26353823.42745  23739935.2074   23739947.7484
     -1874.6204      -1460.7374
  21981210.9324  -24300045.43948 -18641955.50246  21981208.0484   21981214.3014
      3541.3944       2759.5254
  20836660.9624  -34816084.89749 -26795565.94847  20836658.6854   20836665.4424
      -122.9474        -95.8024
  20679855.2794  -30709302.84049 -23606688.10747  20679853.2914   20679858.5744
       600.7154        468.0894
  23508129.7544  -13987116.08248 -10596097.70746  23508127.6884   23508137.2794
      3396.2204       2646.4004
  23625589.9944  -29534642.39047 -22721324.25545  23625587.2894   23625599.2534
     -2925.3634      -2279.4974
  23811949.9674  -26449560.02347 -20265816.12545  23811947.9444   23811957.0174
     -1665.1064      -1297.4854
 00  7 14  0 25 29.9990000  0  7G21G20G11G25G 1G15G29
  23750647.1204  -34576897.07547 -26309978.18445  23750644.2034   23750654.7914
     -1879.9414      -1464.8854
  21960992.2464  -24406295.26048 -18724747.49746  21960989.3864   21960995.7024
      3538.5304       2757.2954
  20837399.5724  -34812204.14549 -26792542.02147  20837397.0884   20837403.8664
      -139.1894       -108.4584
  20676459.6474  -30727146.98849 -23620592.62147  20676457.5234   20676463.0564
       585.5344        456.2604
  23488740.9964  -14089004.89748 -10675491.41446  23488738.2864   23488749.4744
      3392.9994       2643.8914
  23642281.5304  -29446924.95147 -22652973.22045  23642279.1924   23642291.1224
     -2925.8044      -2279.8454
  23821440.4724  -26399689.34447 -20226955.96345  23821438.9414   23821446.7314
     -1663.0074      -1295.8444
 00  7 14  0 25 59.9990000  0  7G21G20G11G25G 1G15G29
  23761409.6334  -34520339.14847 -26265907.16845  23761407.4084   23761417.7154
     -1891.6784      -1474.0394
  21940813.6914  -24512331.98048 -18807373.44746  21940811.1704   21940817.3784
      3529.3294       2750.1244
  20838254.0274  -34807711.76749 -26789041.50647  20838251.8064   20838258.4594
      -161.6014       -125.9214
  20673174.0054  -30744410.00249 -23634044.30747  20673172.2724   20673177.7814
       564.1204        439.5734
  23469394.5684  -14190670.31848 -10754711.02446  23469392.1144   23469403.3234
      3383.4764       2636.4694
  23659000.6554  -29359068.14747 -22584513.59945  23658998.0274   23659010.4184
     -2932.5084      -2285.0664
  23830942.1594  -26349757.14247 -20188047.87745  23830940.3794   23830948.7524
     -1667.1024      -1299.0364
 00  7 14  0 26 29.9990000  0  7G21G20G11G25G 1G15G29
  23772207.5794  -34463591.15047 -26221688.03745  23772205.4904   23772215.7814
     -1897.1224      -1478.2674
  21920657.9064  -24618252.59348 -18889908.92146  21920655.0864   21920661.8094
      3526.3994       2747.8414
  20839205.9684  -34802708.03849 -26785142.52347  20839203.7674   20839210.6234
      -177.6684       -138.4404
  20669980.6264  -30761191.62949 -23647120.88947  20669978.7174   20669984.2724
       549.0394        427.8254
  23450071.2404  -14292211.06848 -10833833.50446  23450068.7954   23450080.4904
      3380.2664       2633.9674
  23675726.5794  -29271173.19547 -22516024.25145  23675723.4294   23675735.9514
     -2932.7434      -2285.2494
  23840437.1954  -26299862.61947 -20149169.15645  23840435.2354   23840443.2884
     -1664.8334      -1297.2684
 00  7 14  0 26 59.9990000  0  7G21G20G11G25G 1G15G29
  23783044.7884  -34406641.18847 -26177311.57845  23783041.9364   23783053.8404
     -1903.0174      -1482.8614
  21900526.5664  -24724042.94848 -18972342.88646  21900523.4874   21900530.8004
      3522.8264       2745.0564
  20840257.7004  -34797181.65749 -26780836.28347  20840255.5364   20840262.2224
      -194.2824       -151.3884
  20666881.8404  -30777480.35649 -23659813.39147  20666879.5994   20666884.9494
       533.4214        415.6514
  23430775.0824  -14393614.51448 -10912849.00846  23430772.3944   23430783.5624
      3376.4904       2631.0254
  23692461.8254  -29183230.17347 -22447497.45145  23692458.7054   23692471.5994
     -2933.4864      -2285.8264
  23849927.3294  -26249993.68147 -20110310.37045  23849925.3274   23849933.7614
     -1663.2144      -1296.0074
 00  7 14  0 27 29.9990000  0  7G21G20G11G25G 1G15G29
  23793952.0174  -34349329.91947 -26132653.55345  23793948.6574   23793958.8634
     -1912.4434      -1490.2234
  21880450.3294  -24829540.88148 -19054549.00346  21880447.7854   21880454.6784
      3515.6164       2739.4394
  20841439.0314  -34790973.88549 -26775999.09647  20841436.8614   20841443.5544
      -214.3744       -167.0444
  20663906.2834  -30793116.84249 -23671997.65247  20663904.1134   20663909.4654
       514.2654        400.7274
  23411536.1754  -14494720.35348 -10991632.62346  23411533.4744   23411543.6744
      3369.1864       2625.3354
  23709235.1704  -29095081.66047 -22378810.55045  23709232.2294   23709246.0404
     -2937.7924      -2289.1904
  23859443.3534  -26199990.59547 -20071347.04945  23859440.5284   23859448.6794
     -1665.1084      -1297.4844
 00  7 14  0 27 59.9990000  0  7G21G20G11G25G 1G15G29
  23804873.7324  -34291923.87647 -26087921.69245  23804871.0864   23804884.1534
     -1920.2164      -1496.2624
  21860380.1874  -24935010.29548 -19136732.89146  21860377.5114   21860384.4744
      3510.0294       2735.0874
  20842699.4744  -34784351.55449 -26770838.87647  20842697.2124   20842703.4254
      -232.8104       -181.4094
  20661004.0684  -30808366.91049 -23683880.81047  20661001.9794   20661007.3894
       496.7674        387.0904
  23392301.4604  -14595793.96348 -11070391.10546  23392299.1344   23392309.9144
      3363.4754       2620.8854
  23725996.9754  -29006995.64347 -22310172.35045  23725994.0604   23726007.6634
     -2940.2464      -2291.0934
  23868932.9604  -26150119.22347 -20032486.34545  23868930.6344   23868939.6564
     -1665.2614      -1297.6034
 00  7 14  0 28 29.9990000  0  7G21G20G11G25G 1G15G29
  23815841.0214  -34234294.93747 -26043016.15545  23815838.2454   23815851.0374
     -1924.8484      -1499.8654
  21840340.8754  -25040320.71148 -19218792.88546  21840338.1294   21840344.3494
      3507.6524       2733.2344
  20844062.9874  -34777187.43349 -26765256.48347  20844060.7694   20844066.9464
      -247.8744       -193.1484
  20658199.3004  -30823103.31849 -23695363.71547  20658197.7364   20658203.0104
       482.6274        376.0744
  23373097.5184  -14696706.73048 -11149024.24446  23373095.2584   23373106.3554
      3361.0544       2618.9974
  23742772.3474  -28918846.36247 -22241484.83545  23742770.2774   23742782.1524
     -2939.3384      -2290.3874
  23878422.9244  -26100251.56947 -19993628.53045  23878420.8784   23878428.9234
     -1662.2514      -1295.2564
 00  7 14  0 28 59.9990000  0  7G21G20G11G25G 1G15G29
  23826846.1004  -34176467.68947 -25997956.12745  23826845.1194   23826855.6734
     -1932.5864      -1505.9074
  21820326.7714  -25145494.59648 -19300746.49846  21820323.8984   21820330.0704
      3501.8174       2728.6864
  20845524.6964  -34769507.06449 -26759271.81647  20845522.3674   20845528.5504
      -266.3104       -207.5134
  20655488.4584  -30837351.26049 -23706465.99447  20655486.2714   20655491.7814
       465.1234        362.4344
  23353921.3204  -14797482.55148 -11227550.68446  23353918.6084   23353929.5474
      3355.2024       2614.4364
  23759553.4704  -28830660.67547 -22172768.94745  23759550.6434   23759563.9624
     -2941.8544      -2292.3424
  23887906.4144  -26050412.17047 -19954792.74945  23887904.2734   23887913.0694
     -1662.5344      -1295.4794
 00  7 14  0 29 29.9990000  0  7G21G20G11G25G 1G15G29
  23837899.8064  -34118383.02747 -25952695.51345  23837897.1484   23837907.8594
     -1940.2294      -1511.8694
  21800350.1814  -25250469.74248 -19382545.24646  21800347.6974   21800354.0094
      3496.0554       2724.1964
  20847095.7384  -34761251.36749 -26752838.84647  20847093.3914   20847099.8694
      -284.5544       -221.7304
  20652881.3494  -30851051.17449 -23717141.23947  20652879.4224   20652884.7474
       447.7654        348.9084
  23334781.9314  -14898061.19748 -11305923.49246  23334779.4644   23334789.6804
      3349.5584       2610.0374
  23776351.2144  -28742380.69447 -22103979.59045  23776350.0494   23776364.3054
     -2944.0554      -2294.0634
  23897396.2974  -26000540.90447 -19915932.13045  23897394.7434   23897403.8444
     -1662.6304      -1295.5554
 00  7 14  0 29 59.9990000  0  7G21G20G11G25G 1G15G29
  23848996.9404  -34060070.21847 -25907257.13545  23848993.1194   23849005.3564
     -1942.7394      -1513.8204
  21780406.8754  -25355273.51848 -19464210.44946  21780404.3704   21780410.3274
      3495.4854       2723.7524
  20848770.2604  -34752451.26349 -26745981.65947  20848767.9414   20848774.5054
      -297.5534       -231.8584
  20650372.9054  -30864232.81449 -23727412.63747  20650370.9634   20650376.4334
       435.6694        339.4814
  23315672.8534  -14998471.72848 -11384165.30346  23315670.8114   23315682.0264
      3349.1124       2609.6914
  23793162.9094  -28654038.26747 -22035141.57445  23793161.1474   23793175.6494
     -2940.8524      -2291.5664
  23906887.0124  -25950667.36847 -19877069.73845  23906885.3664   23906894.0394
     -1657.5804      -1291.6114
 00  7 14  0 30 29.9990000  0  8G21G20G11G25G 1G15G16G29
  23860123.6994  -34001587.27947 -25861686.16545  23860122.1754   23860135.2004
     -1955.6344      -1523.8734
  21760485.5394  -25459961.09248 -19545785.11646  21760482.6294   21760488.7314
      3484.2474       2714.9944
  20850537.3504  -34743164.77149 -26738745.45947  20850535.0184   20850541.4944
      -321.0494       -250.1664
  20647952.3024  -30876953.86749 -23737325.13447  20647950.2444   20647955.5514
       412.9854        321.8064
  23296587.4904  -15098770.63548 -11462320.12646  23296585.1284   23296595.6974
      3338.0614       2601.0794
  23809975.5914  -28565692.74047 -21966301.14745  23809972.7234   23809986.3144
     -2948.3084      -2297.3744
  24421081.0634   -6353768.16057  -4649376.15745  24421078.2114   24421090.2024
      4072.2074       3173.1434
  23916366.2464  -25900848.99947 -19838250.33045  23916365.3474   23916374.2134
     -1663.0114      -1295.8444
 00  7 14  0 30 59.9990000  0  8G21G20G11G25G 1G15G16G29
  23871305.7964  -33942836.04247 -25815906.13845  23871302.0784   23871313.7894
     -1961.4414      -1528.3964
  21740604.8604  -25564431.90448 -19627190.86946  21740602.4484   21740608.1644
      3480.1484       2711.8024
  20852415.4124  -34733294.82849 -26731054.62947  20852413.0724   20852419.7534
      -337.3104       -262.8384
  20645638.0484  -30889116.79549 -23746802.73147  20645635.8734   20645641.1004
       397.5954        309.8154
  23277540.6124  -15198859.25448 -11540311.10046  23277538.3214   23277548.7974
      3334.2184       2598.0894
  23826805.4074  -28477248.19447 -21897383.57745  23826802.6284   23826818.1064
     -2948.2444      -2297.3214
  24397827.0774   -6475973.32447  -4744600.80145  24397823.5594   24397835.1624
      4074.4464       3174.8804
  23925855.7584  -25850987.55847 -19799397.35045  23925853.9794   23925861.9514
     -1661.3224      -1294.5294
 00  7 14  0 31 29.9990000  0  8G21G20G11G25G 1G15G16G29
  23882528.7784  -33883854.29247 -25769946.47845  23882527.0654   23882537.7754
     -1970.5904      -1535.5154
  21720759.7124  -25668720.76148 -19708454.84146  21720756.7844   21720762.9684
      3472.5274       2705.8634
  20854397.6574  -34722879.72449 -26722939.00147  20854395.3394   20854401.7004
      -356.9864       -278.1694
  20643422.4724  -30900759.11749 -23755874.65847  20643420.3654   20643425.8414
       378.7084        295.0974
  23258527.7384  -15298774.28948 -11618166.81646  23258525.3364   23258535.5754
      3326.8774       2592.3644
  23843646.5944  -28388743.96947 -21828419.47845  23843644.7134   23843660.0184
     -2951.7834      -2300.0744
  24374569.4894   -6598185.22347  -4839830.71145  24374566.6694   24374577.9514
      4073.1274       3173.8584
  23935344.8924  -25801120.16347 -19760539.71745  23935343.0374   23935352.2984
     -1663.0804      -1295.9034
 00  7 14  0 31 59.9990000  0  8G21G20G11G25G 1G15G16G29
  23893786.4764  -33824692.43147 -25723846.48145  23893783.7734   23893796.7754
     -1976.3844      -1540.0334
  21700939.5184  -25772875.68748 -19789614.45947  21700936.8704   21700943.1144
      3468.2284       2702.5134
  20856474.0224  -34711970.66749 -26714438.47347  20856471.4884   20856477.5444
      -373.2344       -290.8294
  20641296.4044  -30911932.07049 -23764580.84547  20641294.2244   20641299.5864
       363.2644        283.0624
  23239538.2654  -15398565.54248 -11695926.06346  23239535.3324   23239546.0024
      3322.9584       2589.3104
  23860489.8484  -28300232.75447 -21759449.97545  23860488.6314   23860503.0834
     -2951.8174      -2300.1094
  24351301.7504   -6720452.47847  -4935103.74945  24351299.0174   24351311.5844
      4075.1484       3175.4334
  23944826.9724  -25751296.75747 -19721716.36945  23944824.8854   23944833.8564
     -1661.3194      -1294.5274
 00  7 14  0 32 29.9990000  0  8G21G20G11G25G 1G15G16G29
  23905090.3744  -33765294.49647 -25677562.54045  23905088.1774   23905098.1584
     -1979.2294      -1542.2484
  21681155.6364  -25876838.66648 -19870624.49947  21681153.1424   21681160.0124
      3466.8424       2701.4304
  20858653.8394  -34700513.04049 -26705510.48547  20858651.5824   20858657.8094
      -386.4444       -301.1244
  20639270.1704  -30922580.20149 -23772878.07747  20639267.9424   20639273.1474
       350.8564        273.3944
  23220582.6754  -15498176.70148 -11773544.97846  23220580.2754   23220589.9294
      3322.0014       2588.5674
  23877345.6824  -28211660.62947 -21690432.99145  23877343.7674   23877357.7424
     -2948.7114      -2297.6904
  24328035.7944   -6842717.65647  -5030375.17745  24328033.0344   24328045.1264
      4080.0934       3179.2874
  23954310.0314  -25701461.55447 -19682883.85745  23954308.1734   23954317.4044
     -1656.7334      -1290.9574
 00  7 14  0 32 59.9990000  0  8G21G20G11G25G 1G15G16G29
  23916423.5574  -33705738.49847 -25631155.41045  23916420.9834   23916434.2584
     -1993.4374      -1553.3254
  21661394.6484  -25980684.61648 -19951543.35447  21661391.7774   21661399.0224
      3454.0094       2691.4344
  20860923.6154  -34688585.46849 -26696216.30247  20860921.2784   20860927.7124
      -410.9814       -320.2444
  20637328.4934  -30932781.27749 -23780826.95247  20637326.4774   20637332.1044
       327.0754        254.8644
  23201647.4404  -15597684.35348 -11851083.25246  23201645.0524   23201654.7284
      3309.6204       2578.9194
  23894197.6174  -28123106.87647 -21621430.32045  23894195.7674   23894208.1934
     -2956.9764      -2304.1294
  24304755.2704   -6965056.48647  -5125703.97545  24304753.1354   24304765.4534
      4073.6544       3174.2664
  23963781.4574  -25651691.71647 -19644102.28845  23963779.1944   23963788.1624
     -1663.4584      -1296.1944
 00  7 14  0 33 29.9990000  0  8G21G20G11G25G 1G15G16G29
  23927807.9164  -33645916.87847 -25584541.33945  23927804.3854   23927815.6504
     -1997.8884      -1556.7974
  21641676.0294  -26084303.33648 -20032285.15747  21641673.7534   21641680.9314
      3450.7034       2688.8574
  20863303.7364  -34676080.89549 -26686472.50447  20863301.2864   20863307.4474
      -425.8934       -331.8644
  20635492.5784  -30942428.22249 -23788344.04047  20635490.4644   20635496.3054
       312.9174        243.8304
  23182751.6294  -15696980.10648 -11928456.40146  23182748.8844   23182759.2104
      3306.8684       2576.7744
  23911064.4474  -28034465.84047 -21552359.64345  23911062.7984   23911076.7824
     -2955.5604      -2303.0194
  24281481.6374   -7087359.59347  -5221004.92345  24281479.3294   24281491.1514
      4076.7204       3176.6534
  23973259.2854  -25601879.27047 -19605287.49945  23973258.3814   23973266.4024
     -1660.5944      -1293.9704
 00  7 14  0 33 59.9990000  0  8G21G20G11G25G 1G15G16G29
  23939229.2964  -33585892.57846 -25537769.32445  23939227.8024   23939238.8994
     -2003.5254      -1561.1974
  21621989.9084  -26187755.48048 -20112897.14747  21621987.4124   21621994.6574
      3446.1924       2685.3424
  20865780.3174  -34663063.31449 -26676328.96947  20865777.9734   20865784.4734
      -441.9074       -344.3434
  20633750.5064  -30951584.56149 -23795478.84047  20633748.5764   20633753.7904
       297.6234        231.9134
  23163884.4224  -15796126.34648 -12005713.04546  23163881.9154   23163892.5704
      3302.9764       2573.7404
  23927937.8574  -27945803.00947 -21483271.97245  23927936.7044   23927947.9344
     -2955.2184      -2302.7594
  24258202.9204   -7209688.31547  -5316325.85745  24258200.1804   24258212.3304
      4078.6154       3178.1424
  23982735.0394  -25552087.21547 -19566488.61545  23982733.4744   23982742.1674
     -1658.8274      -1292.5834
 00  7 14  0 34 29.9990000  0  8G21G20G11G25G 1G15G16G29
  23950687.0264  -33525678.44846 -25490849.40944  23950685.7524   23950698.2344
     -2009.1024      -1565.5304
  21602334.3324  -26291050.64148 -20193386.82847  21602331.3924   21602338.0704
      3441.7624       2681.8904
  20868352.8094  -34649545.97249 -26665796.01447  20868350.3684   20868356.4904
      -457.7214       -356.6644
  20632099.1204  -30960262.41149 -23802240.78547  20632097.0344   20632102.3894
       282.5454        220.1654
  23145043.4824  -15895134.42748 -12082862.05246  23145041.2494   23145051.6164
