     2.11           OBSERVATION DATA    G (GPS)             RINEX VERSION / TYPE
teqc  2011Oct11     IG&GA WUT           20120921 00:05:01UTCPGM / RUN BY / DATE
Linux 2.4.21-27.ELsmp|Opteron|gcc -static|Linux x86_64|=+   COMMENT
BIT 2 OF LLI FLAGS DATA COLLECTED UNDER A/S CONDITION       COMMENT
JOZE                                                        MARKER NAME
12204M001                                                   MARKER NUMBER
Automatic           IG&GA WUT                               OBSERVER / AGENCY
4002A27500          TRIMBLE 4000SSI     7.29                REC # / TYPE / VERS
23525               TRM14532.00     NONE                    ANT # / TYPE
  3664938.4340  1409153.9645  5009572.3074                  APPROX POSITION XYZ
        0.1980        0.0000        0.0000                  ANTENNA: DELTA H/E/N
     1     1                                                WAVELENGTH FACT L1/2
     4    L1    L2    C1    P2                              # / TYPES OF OBSERV
    16                                                      LEAP SECONDS
 SNR is mapped to RINEX snr flag value [1-9]                COMMENT
  L1: 3 -> 1; 8 -> 5; 40 -> 9                               COMMENT
  L2: 1 -> 1; 5 -> 5; 60 -> 9                               COMMENT
  2012     9    20     0     0    0.0000000     GPS         TIME OF FIRST OBS
                                                            END OF HEADER
 12  9 20  0  0  0.0000000  0  9G13G04G10G05G08G07G02G16G23
  -6360173.12447  -4806717.70046  20681838.8924   20681841.8434
  11007730.35845   9632062.36545  23745595.9174   23745602.1064
  -7778956.44547  -5936934.20346  20533219.7694   20533225.4904
  -3767573.45445  -2795358.54745  23610393.1944   23610396.7624
  -9762761.76846  -6708896.21946  23068293.2144   23068298.5574
 -12663820.26346  -9715298.86546  20780625.6634   20780629.2714
  -2368707.61246  -1760299.85746  22609093.1634   22609095.8864
  -2509109.39346  -1869190.64046  23393538.4214   23393541.6084
   6676544.24446   5588320.82046  22829677.8674   22829680.3414
 12  9 20  0  0 30.0000000  0  9G13G04G10G05G08G07G02G16G23
  -6287282.73147  -4749919.99446  20695709.5014   20695712.9684
  11136277.55645   9732228.98845  23770057.7924   23770061.8064
  -7747218.96147  -5912203.69246  20539259.1874   20539264.5524
  -3832477.09645  -2845932.80745  23598042.4384   23598046.4004
  -9829470.94546  -6760877.36546  23055598.8424   23055604.3354
 -12671076.23547  -9720952.84746  20779244.8774   20779248.1574
  -2312520.12646  -1716517.43246  22619785.3104   22619787.9884
  -2449409.35846  -1822671.13446  23404899.0064   23404901.2854
   6791815.45346   5678142.51646  22851613.2284   22851615.6044
 12  9 20  0  1  0.0000000  0  9G13G04G10G05G08G07G02G16G23
  -6214016.69147  -4692829.57146  20709651.5774   20709654.8934
  11265036.96945   9832561.00345  23794559.9324   23794563.6594
  -7714907.68646  -5887026.08346  20545407.7924   20545413.7624
  -3897139.20445  -2896318.85845  23585737.6574   23585742.4964
  -9895922.83646  -6812658.04946  23042953.4524   23042959.4714
 -12677812.33647  -9726201.73246  20777963.0324   20777966.6514
  -2255751.14946  -1672281.91946  22630588.1434   22630589.4024
  -2389088.26546  -1775667.67445  23416377.7974   23416380.0914
   6907290.78246   5768123.26846  22873587.4374   22873589.7414
 12  9 20  0  1 30.0000000  0  9G13G04G10G05G08G07G02G16G23
  -6140379.55147  -4635449.98646  20723664.2264   20723668.1374
  11394001.44645   9933052.75345  23819101.0754   23819108.6444
  -7682026.49547  -5861404.38546  20551664.8624   20551670.2524
  -3961562.05545  -2946518.46645  23573478.3704   23573483.6894
  -9962120.09046  -6864240.29845  23030356.4964   23030360.5474
 -12684032.47047  -9731048.53846  20776779.3404   20776782.7084
  -2198405.95146  -1627597.37846  22641500.5984   22641502.9064
  -2328151.30246  -1728184.32145  23427973.7064   23427976.6944
   7022964.96046   5858258.94346  22895599.5144   22895601.5384
 12  9 20  0  2  0.0000000  0  9G13G04G10G05G08G07G02G16G23
  -6066374.16947  -4577783.46146  20737746.9744   20737750.0164
  11523165.66445  10033700.18845  23843680.2174   23843685.5414
  -7648577.11247  -5835339.94546  20558030.0864   20558035.1614
  -4025745.35445  -2996531.42045  23561264.6734   23561269.6324
 -10028063.17146  -6915624.49846  23017807.9374   23017813.5454
 -12689738.37646  -9735494.67846  20775693.4834   20775697.0964
  -2140487.90046  -1582466.46146  22652522.0504   22652524.8884
  -2266601.73745  -1680223.62345  23439686.1634   23439688.9634
   7138834.66147   5948546.98146  22917648.9094   22917650.6184
 12  9 20  0  2 30.0000000  0  9G13G04G10G05G08G07G02G16G23
  -5992004.86747  -4519833.36546  20751898.9424   20751902.2864
  11652523.45345  10134498.44845  23868296.1894   23868300.5214
  -7614562.33747  -5808834.92946  20564502.8984   20564508.0234
  -4089689.81945  -3046358.26845  23549096.4934   23549101.2794
 -10093753.32246  -6966811.59546  23005307.5584   23005313.8524
 -12694932.24446  -9739541.83546  20774705.0804   20774708.5774
  -2082001.78846  -1536892.89046  22663651.5524   22663653.6514
  -2204443.77046  -1631788.85445  23451514.4634   23451517.1524
   7254895.67546   6038984.09946  22939734.7234   22939736.6464
 12  9 20  0  3  0.0000000  0  9G13G04G10G05G08G07G02G16G23
  -5917273.04247  -4461600.78346  20766119.9184   20766123.4864
  11782071.44845  10235444.94445  23892948.3564   23892952.4814
  -7579982.55447  -5781889.65546  20571083.2324   20571088.6224
  -4153393.81445  -3095997.76145  23536974.0424   23536977.5424
 -10159189.38446  -7017800.69346  22992855.4294   22992861.1314
 -12699614.42347  -9743190.25846  20773814.0924   20773817.5604
  -2022949.24746  -1490877.94046  22674888.8694   22674891.4854
  -2141679.29246  -1582881.49446  23463458.1824   23463461.0854
   7371146.49046   6129569.09346  22961856.4174   22961859.2444
 12  9 20  0  3 30.0000000  0  9G13G04G10G05G08G07G02G16G23
  -5842182.31247  -4403088.53046  20780409.1674   20780413.1674
  11911803.86045  10336535.10645  23917635.6784   23917640.7904
  -7544840.30247  -5754506.07746  20577770.5914   20577776.0054
  -4216857.77645  -3145450.20345  23524897.3124   23524902.1614
 -10224372.34346  -7068592.59946  22980451.4904   22980457.4654
 -12703787.71947  -9746442.16946  20773019.9504   20773022.7924
  -1963334.49146  -1444424.91346  22686233.2244   22686235.1234
  -2078312.22446  -1533504.56946  23475516.5914   23475518.3744
   7487583.73846   6220299.38546  22984013.6464   22984016.7044
 12  9 20  0  4  0.0000000  0  9G13G04G10G05G08G07G02G16G23
  -5766723.95547  -4344289.81646  20794768.4124   20794771.7194
  12041727.25045  10437774.08045  23942359.3724   23942363.2374
  -7509125.74847  -5726676.56846  20584566.8484   20584572.3064
  -4280069.61945  -3194706.16545  23512868.5474   23512872.8814
 -10289290.72746  -7119178.32546  22968097.9274   22968103.2794
 -12707440.86047  -9749288.74546  20772324.8154   20772327.7434
  -1903149.00346  -1397527.15046  22697686.1814   22697688.8364
  -2014333.69246  -1483651.15646  23487691.3444   23487694.2384
   7604215.94947   6311181.59246  23006208.0834   23006210.1704
 12  9 20  0  4 30.0000000  0  9G13G04G10G05G08G07G02G16G23
  -5690905.50347  -4285210.51546  20809196.2294   20809199.4394
  12171831.63345  10539154.06145  23967117.4054   23967122.1784
  -7472845.79447  -5698406.48246  20591470.6814   20591475.8784
  -4343034.27045  -3243769.53545  23500886.7964   23500890.9864
 -10353949.87146  -7169562.04346  22955793.6534   22955800.2444
 -12710580.85747  -9751735.48446  20771727.2964   20771730.6624
  -1842401.46246  -1350191.41346  22709246.0604   22709247.9184
  -1949752.15046  -1433327.88145  23499980.7664   23499983.3624
   7721035.07146   6402209.42446  23028438.0784   23028439.7814
 12  9 20  0  5  0.0000000  0  9G13G04G10G05G08G07G02G16G23
  -5614725.11447  -4225849.17246  20823692.8874   20823696.3754
  12302116.85245  10640674.99845  23991909.7704   23991912.7294
  -7435996.53347  -5669692.77646  20598482.8964   20598488.3534
  -4405746.47945  -3292636.19545  23488953.1044   23488957.7904
 -10418344.89746  -7219739.98846  22943539.6624   22943544.4144
 -12713204.29647  -9753779.71146  20771228.0734   20771231.2834
  -1781090.38846  -1302416.57446  22720913.1594   22720915.3774
  -1884565.37845  -1382532.99745  23512385.3874   23512388.3804
   7838043.51446   6493384.79246  23050704.1034   23050705.8184
 12  9 20  0  5 30.0000000  0  9G13G04G10G05G08G07G02G16G23
  -5538185.75847  -4166208.12146  20838257.8274   20838261.1524
  12432577.97945  10742333.02545  24016735.6424   24016741.4404
  -7398580.37147  -5640537.33046  20605602.9784   20605608.6104
  -4468205.50445  -3341305.52645  23477067.4934   23477071.4124
 -10482476.54646  -7269712.66346  22931335.8514   22931341.0634
 -12715313.24047  -9755423.02246  20770826.7604   20770829.6854
  -1719219.07346  -1254205.19346  22732686.8484   22732689.3174
  -1818777.09345  -1331269.39545  23524904.4504   23524905.5084
   7955237.57846   6584704.79246  23073005.4554   23073007.2374
 12  9 20  0  6  0.0000000  0  9G13G04G10G05G08G07G02G16G23
  -5461289.04547  -4106288.60246  20852890.7624   20852894.4654
  12563211.12645  10844125.07245  24041594.2864   24041600.7394
  -7360597.90147  -5610940.61046  20612830.8204   20612835.7324
  -4530410.51145  -3389776.94545  23465230.1964   23465234.7044
 -10546343.95746  -7319479.45446  22919182.2514   22919187.2334
 -12716908.04947  -9756665.70746  20770523.2854   20770526.0864
  -1656790.18746  -1205559.31446  22744566.6784   22744570.3514
  -1752389.19345  -1279538.54945  23537537.5524   23537540.2964
   8072615.83546   6676168.33246  23095341.7844   23095343.3164
 12  9 20  0  6 30.0000000  0  9G13G04G10G05G08G07G02G16G23
  -5384034.82547  -4046090.51946  20867591.7064   20867595.7864
  12694014.26045  10946049.55445  24066485.3394   24066490.8594
  -7322047.65747  -5580901.47046  20620166.6794   20620172.1804
  -4592357.51645  -3438047.31745  23453442.0304   23453445.6114
 -10609944.11846  -7369038.00046  22907079.5094   22907085.5964
 -12717986.83947  -9757506.30046  20770317.9814   20770320.6794
  -1593803.96446  -1156479.18946  22756552.5804   22756554.6674
  -1685402.26646  -1227340.94345  23550284.7444   23550287.7424
   8190178.44046   6767775.52246  23117713.1634   23117714.9394
 12  9 20  0  7  0.0000000  0  9G13G04G10G05G08G07G02G16G23
  -5306423.31647  -3985614.02546  20882360.6854   20882364.0214
  12824985.23845  11048104.83445  24091408.3254   24091413.5044
  -7282929.27747  -5550419.62346  20627610.6444   20627615.8994
  -4654043.51345  -3486114.31645  23441703.5524   23441707.0904
 -10673274.81646  -7418386.57046  22895028.0454   22895034.4194
 -12718548.52647  -9757943.96446  20770211.0474   20770214.3794
  -1530261.24346  -1106965.41446  22768644.3744   22768646.8654
  -1617816.61945  -1174676.81045  23563145.8634   23563149.1324
   8307924.83046   6859525.90646  23140119.6404   23140120.9384
 12  9 20  0  7 30.0000000  0  9G13G04G10G05G08G07G02G16G23
  -5228454.41547  -3924859.04746  20897197.6734   20897201.1974
  12956121.49644  11150288.91445  24116362.6254   24116370.7364
  -7243242.01747  -5519494.49546  20635162.8704   20635168.1924
  -4715466.17045  -3533976.11345  23430015.2384   23430018.8284
 -10736333.56346  -7467523.22046  22883028.3374   22883034.2334
 -12718592.21847  -9757978.01646  20770202.6834   20770205.8424
  -1466162.85646  -1057018.65646  22780841.8994   22780844.7654
  -1549632.84345  -1121546.59345  23576120.7914   23576124.8284
   8425854.91846   6951419.42046  23162561.0944   23162562.2374
 12  9 20  0  8  0.0000000  0  9G13G04G10G05G08G07G02G16G23
  -5150133.15847  -3863829.50446  20912101.7134   20912105.5894
  13087416.31645  11252596.56345  24141347.1604   24141351.4414
  -7202989.56047  -5488128.94746  20642822.6644   20642827.6674
  -4776626.63945  -3581633.61645  23418376.7974   23418379.8544
 -10799122.59746  -7516449.73645  22871079.9584   22871085.9434
 -12718121.72947  -9757611.37146  20770292.1854   20770295.5914
  -1401514.19146  -1006643.11946  22793144.1734   22793146.9714
  -1480856.01845  -1067954.24945  23589208.5304   23589212.7184
   8543963.95546   7043452.38646  23185036.5434   23185039.6834
 12  9 20  0  8 30.0000000  0  9G13G04G10G05G08G07G02G16G23
  -5071456.64147  -3802523.13946  20927073.3494   20927076.6914
  13218870.50745  11355028.37145  24166362.0324   24166368.0304
  -7162167.86847  -5456319.85446  20650590.8134   20650595.8414
  -4837518.68645  -3629081.96545  23406789.4644   23406792.1174
 -10861636.66346  -7565161.95946  22859183.8904   22859189.6234
 -12717132.60247  -9756840.60546  20770480.3964   20770483.5524
  -1336313.18746   -955837.21446  22805551.5944   22805553.8154
  -1411483.96945  -1013898.10245  23602409.5034   23602414.2264
   8662254.65846   7135626.90446  23207546.5514   23207549.0884
 12  9 20  0  9  0.0000000  0  9G13G04G10G05G08G07G02G16G23
  -4992428.07947  -3740942.44646  20942111.9924   20942115.7254
  13350478.21245  11457579.83345  24191406.1634   24191412.5334
  -7120779.54547  -5424069.23046  20658466.7434   20658472.0464
  -4898142.88145  -3676321.60245  23395253.0734   23395256.0004
 -10923876.44846  -7613660.49446  22847340.0924   22847345.2754
 -12715627.24947  -9755667.58046  20770766.8404   20770769.8614
  -1270564.30446   -904604.34746  22818063.2414   22818065.5984
  -1341520.83145   -959381.37845  23615722.9664   23615727.5684
   8780723.25846   7227940.05946  23230090.4214   23230093.3514
 12  9 20  0  9 30.0000000  0  9G13G04G10G05G08G07G02G16G23
  -6488469.68747  -4906689.15946  20657424.7584   20657428.3114
  11906817.53745  10332649.37745  23916686.7784   23916690.4964
  -8654246.70847  -6618978.72446  20366657.6564   20366662.4384
  -6533922.10745  -4950954.74545  23083974.6214   23083979.1904
 -12561265.94346  -8889548.39246  22535755.2854   22535759.5454
 -14289028.99947 -10981694.90746  20471358.4464   20471361.6554
  -2779689.89246  -2080546.40646  22530886.2014   22530889.5994
  -2846389.06945  -2132005.98045  23329356.0384   23329360.1724
   7323949.30046   6092791.48146  22952875.5524   22952877.0734
 12  9 20  0 10  0.0000000  0  9G13G04G10G05G08G07G02G16G23
  -6408746.19747  -4844566.96946  20672595.6804   20672598.6904
  12038717.70144  10435428.72445  23941786.5554   23941789.4714
  -8611730.86647  -6585849.51146  20374748.1944   20374753.0884
  -6594009.01845  -4997775.70445  23072540.4504   23072544.3224
 -12622958.33446  -8937620.34546  22524015.6214   22524020.9704
 -14286496.52747 -10979721.54246  20471840.3304   20471843.7124
  -2712855.32746  -2028467.57145  22543604.4504   22543606.6444
  -2775253.60345  -2076575.76945  23342892.7554   23342895.3704
   7442764.97546   6185375.07146  22975485.4484   22975487.2084
 12  9 20  0 10 30.0000000  0  9G13G04G10G05G08G07G02G16G23
  -6328671.92547  -4782171.44446  20687833.3384   20687836.3964
  12170763.93044  10538321.90245  23966913.9894   23966920.2604
  -8568646.74247  -6552277.47446  20382946.8394   20382952.1454
  -6653819.34145  -5044381.14245  23061158.9114   23061161.5204
 -12684370.12746  -8985473.66146  22512329.3214   22512333.5474
 -14283445.49147 -10977344.09446  20472420.9164   20472424.2914
  -2645476.47446  -1975964.61845  22556426.2954   22556429.9864
  -2703529.91345  -2020687.14445  23356541.2994   23356545.7444
   7561757.38846   6278096.38746  22998128.9284   22998131.5214
 12  9 20  0 11  0.0000000  0  9G13G04G10G05G08G07G02G16G23
  -6248247.43247  -4719503.01546  20703137.6084   20703141.3854
  12302954.21845  10641327.27345  23992068.9074   23992075.6024
  -8524993.82547  -6518262.22046  20391253.6794   20391258.9004
  -6713349.98945  -5090768.65045  23049830.5984   23049834.4404
 -12745498.67746  -9033106.27246  22500696.8734   22500702.5694
 -14279874.99847 -10974561.86246  20473100.3164   20473103.4954
  -2577553.84946  -1923037.92745  22569351.6854   22569354.1524
  -2631218.30245  -1964340.42745  23370301.8034   23370304.6054
   7680926.47346   6370955.38146  23020806.0634   23020808.4704
 12  9 20  0 11 30.0000000  0  9G13G04G10G05G08G07G02G16G23
  -6167473.44647  -4656562.25446  20718508.3994   20718512.0804
  12435284.74645  10744441.92145  24017250.5184   24017260.7894
  -8480772.63847  -6483804.16946  20399668.6674   20399674.0924
  -6772599.04645  -5136936.72545  23038555.8464   23038560.5314
 -12806342.92446  -9080517.34346  22489118.4824   22489124.6044
 -14275785.48347 -10971375.21746  20473878.4874   20473881.8394
  -2509089.64946  -1869689.29145  22582380.0564   22582382.3664
  -2558321.06645  -1907537.39745  23384173.7254   23384176.9404
   7800270.44246   6463950.62646  23043516.5364   23043519.0634
 12  9 20  0 12  0.0000000  0  9G13G04G10G05G08G07G02G16G23
  -6086359.65247  -4593356.71146  20733943.8284   20733947.1824
  12567744.26144  10847657.09145  24042456.6844   24042464.8884
  -8435991.61047  -6448909.87546  20408190.2174   20408195.5304
  -6831572.68745  -5182890.23045  23027333.5444   23027338.1904
 -12866909.61546  -9127712.17346  22477593.0914   22477599.0304
 -14271185.05147 -10967790.42746  20474753.8864   20474756.9294
  -2440094.20846  -1815926.61445  22595509.4184   22595512.1374
  -2484847.89845  -1850285.56945  23398155.2404   23398158.3324
   7919779.90446   6557074.82146  23066258.5104   23066260.8904
 12  9 20  0 12 30.0000000  0  9G13G04G10G05G08G07G02G16G23
  -6004904.06247  -4529884.82946  20749444.2764   20749448.1884
  12700332.72144  10950972.76845  24067687.4354   24067691.8924
  -8390647.78547  -6413577.04046  20416818.8974   20416824.2274
  -6890265.74845  -5228625.08345  23016164.5834   23016167.6744
 -12927194.45746  -9174687.33746  22466121.3004   22466125.9954
 -14266070.44747 -10963805.00546  20475727.1524   20475730.5214
  -2370566.38446  -1761749.13745  22608740.1304   22608743.4774
  -2410797.62845  -1792584.07945  23412246.5354   23412248.3534
   8039456.93446   6650329.61046  23089032.4074   23089034.8324
 12  9 20  0 13  0.0000000  0  9G13G04G10G05G08G07G02G16G23
  -5923110.37647  -4466149.49246  20765009.0654   20765012.8794
  12833044.50943  11054384.54745  24092941.5304   24092947.5154
  -8344744.17647  -6377808.01546  20425554.1004   20425559.1454
  -6948678.65445  -5274141.63345  23005048.9524   23005051.8124
 -12987198.28446  -9221443.51946  22454702.9604   22454707.7804
 -14260444.39247 -10959421.05346  20476797.7624   20476800.7844
  -2300510.56746  -1707160.21045  22622071.3764   22622074.0934
  -2336174.70445  -1734436.29845  23426446.8164   23426450.8464
   8159297.80646   6743712.05846  23111837.4424   23111840.1024
 12  9 20  0 13 30.0000000  0  9G13G04G10G05G08G07G02G16G23
  -5840967.38547  -4402141.98446  20780640.3564   20780643.6244
  12965888.30843  11157899.15145  24118220.7584   24118227.8854
  -8298268.79347  -6341593.44446  20434398.0724   20434403.4034
  -7006796.94846  -5319428.59745  22993989.3904   22993991.7354
 -13046907.76346  -9267970.37846  22443340.5824   22443346.3744
 -14254294.87047 -10954629.20546  20477967.9584   20477971.2494
  -2229916.71146  -1652152.06545  22635505.0464   22635506.8424
  -2260968.69645  -1675834.22245  23440758.0364   23440761.4154
   8279313.63446   6837230.84746  23134675.6964   23134678.9374
 12  9 20  0 14  0.0000000  0  9G13G04G10G05G08G07G02G16G23
  -5758483.56747  -4337868.88546  20796336.5184   20796340.1694
  13098853.62944  11261508.54845  24143523.2514   24143528.6444
  -8251229.45847  -6304939.43046  20443349.3694   20443354.6464
  -7064625.77846  -5364490.04445  22982984.9734   22982987.3164
 -13106328.72346  -9314272.40846  22432033.0524   22432039.2534
 -14247628.93447 -10949434.95646  20479236.4464   20479239.5194
  -2158794.17646  -1596731.96045  22649039.2634   22649041.1524
  -2185188.40545  -1616784.63845  23455178.5544   23455181.7494
   8399495.44146   6930878.96946  23157545.5844   23157548.2844
 12  9 20  0 14 30.0000000  0  9G13G04G10G05G08G07G02G16G23
  -5675664.44947  -4273334.50546  20812096.5004   20812099.9154
  13231933.27444  11365206.93445  24168847.5274   24168854.6514
  -8203630.74547  -6267849.54646  20452407.1334   20452412.5214
  -7122167.31346  -5409327.58146  22972035.1804   22972038.4014
 -13165463.93146  -9360351.75546  22420779.9324   22420786.3954
 -14240451.19247 -10943841.88946  20480602.3324   20480605.1744
  -2087149.29646  -1540904.86345  22662672.7854   22662675.3714
  -2108840.23345  -1557292.52945  23469707.0874   23469709.6574
   8519838.14946   7024652.47346  23180446.1304   23180447.7784
 12  9 20  0 15  0.0000000  0  9G13G04G10G05G08G07G02G16G23
  -5592512.35047  -4208540.66746  20827919.8314   20827923.3354
  13365122.38243  11468990.65945  24194192.6044   24194196.3944
  -8155474.51647  -6230325.23446  20461571.0064   20461575.9764
  -7179420.85346  -5453940.74246  22961140.2144   22961144.3494
 -13224313.63646  -9406208.66846  22409581.1894   22409586.5484
 -14232763.25147 -10937851.27146  20482065.3224   20482068.0224
  -2014985.72546  -1484673.54245  22676404.9914   22676407.1594
  -2031927.71545  -1497360.69745  23484343.0154   23484345.9084
   8640339.03046   7118549.22246  23203376.7584   23203379.1654
 12  9 20  0 15 30.0000000  0  9G13G04G10G05G08G07G02G16G23
  -5509019.20947  -4143481.07946  20843808.0774   20843810.8384
  13498427.12443  11572864.32145  24219559.5504   24219560.4204
  -8106751.97547  -6192359.62646  20470842.6164   20470847.9574
  -7236375.27846  -5498320.79646  22950302.1584   22950305.9944
 -13282867.20146  -9451834.78546  22398438.8254   22398444.4174
 -14224556.11347 -10931456.09246  20483627.1154   20483629.8034
  -1942296.18046  -1428032.37045  22690237.3444   22690240.1614
  -1954443.36445  -1436983.27345  23499087.7724   23499091.0114
   8761006.39546   7212575.69846  23226339.0374   23226341.7364
 12  9 20  0 16  0.0000000  0  9G13G04G10G05G08G07G02G16G23
  -5425186.04847  -4078156.55646  20859761.0094   20859764.7914
  13631844.08743  11676825.66245  24244947.9354   24244956.3074
  -8057463.40747  -6153952.96446  20480221.9004   20480227.2594
  -7293028.25046  -5542465.94446  22939521.4294   22939525.1634
 -13341123.27046  -9497229.09946  22387353.0514   22387358.3554
 -14215829.85547 -10924656.39046  20485287.6594   20485291.1364
  -1869082.90946  -1370983.12645  22704169.4444   22704173.2514
  -1876389.09545  -1376161.77945  23513941.0204   23513944.9524
   8881838.79146   7306730.78246  23249332.7084   23249334.4824
 12  9 20  0 16 30.0000000  0  9G13G04G10G05G08G07G02G16G23
  -5341012.96247  -4012567.14146  20875778.6304   20875782.0334
  13765371.67943  11780873.06244  24270357.3544   24270363.6244
  -8007607.98447  -6115104.59846  20489709.0744   20489714.3594
  -7349376.11346  -5586373.38146  22928798.7524   22928803.0394
 -13399079.04946  -9542389.42046  22376324.3604   22376329.4484
 -14206583.23647 -10917451.22146  20487047.2384   20487050.6054
  -1795346.69245  -1313526.41545  22718201.0344   22718203.1614
  -1797765.09345  -1314896.31645  23528902.6694   23528905.3214
   9002836.63346   7401014.77346  23272357.8184   23272361.1424
 12  9 20  0 17  0.0000000  0  9G13G04G10G05G08G07G02G16G23
  -5256499.87347  -3946712.79546  20891860.9384   20891864.6784
  13899007.85043  11885005.18145  24295787.4074   24295798.5234
  -7957184.87847  -6075813.88746  20499304.2954   20499309.3954
  -7405415.63546  -5630040.53346  22918134.7324   22918138.0274
 -13456732.14346  -9587313.89746  22365353.3224   22365358.6394
 -14196814.60247 -10909839.28146  20488906.1504   20488909.1834
  -1721088.34546  -1255662.78845  22732331.9204   22732334.1924
  -1718572.25845  -1253187.60645  23543972.5584   23543974.6744
   9123999.77846   7495427.57946  23295414.4044   23295417.3844
 12  9 20  0 17 30.0000000  0  9G13G04G10G05G08G07G02G16G23
  -5171648.29347  -3880594.68246  20908007.6524   20908010.7064
  14032748.86843  11989219.02545  24321237.4834   24321247.2864
  -7906195.34547  -6036081.79546  20509007.2894   20509012.5684
  -7461145.27146  -5673466.20446  22907529.6954   22907532.1374
 -13514081.76846  -9632001.87446  22354440.0334   22354445.7894
 -14186525.47747 -10901821.76846  20490864.1014   20490867.5194
  -1646310.69646  -1197394.56645  22746561.6654   22746564.0884
  -1638813.23545  -1191037.71245  23559150.1794   23559151.9354
   9245326.52946   7589967.86246  23318502.1414   23318504.9004
 12  9 20  0 18  0.0000000  0  9G13G04G10G05G08G07G02G16G23
  -5086456.67447  -3814211.61046  20924219.0924   20924222.4504
  14166594.21343  12093513.96944  24346707.3964   24346710.1134
  -7854637.22947  -5995906.65946  20518818.4784   20518823.7454
  -7516560.39046  -5716646.82046  22896984.5734   22896987.7824
 -13571123.97346  -9676450.30146  22343585.2284   22343590.8254
 -14175713.12647 -10893396.53846  20492921.5864   20492924.9614
  -1571013.38446  -1138721.36645  22760890.3774   22760893.4514
  -1558487.59445  -1128446.30045  23574435.6284   23574438.8504
   9366818.38346   7684636.82246  23341621.2414   23341624.5984
 12  9 20  0 18 30.0000000  0  9G13G04G10G05G08G07G02G16G23
  -5000920.15247  -3747559.78546  20940496.1854   20940499.5674
  14300546.83042  12197892.55744  24372197.7384   24372201.4814
  -7802504.74947  -5955283.95646  20528738.9654   20528744.0164
  -7571652.45746  -5759575.71546  22886500.9074   22886505.1554
 -13627851.05346  -9720653.20446  22332790.3924   22332796.1404
 -14164371.84447 -10884559.16446  20495079.7214   20495082.9644
  -1495192.32446  -1079640.09445  22775318.7854   22775322.1324
  -1477591.10045  -1065410.04945  23589829.6974   23589833.3714
   9488480.29846   7779438.27245  23364772.6884   23364775.1244
 12  9 20  0 19  0.0000000  0  9G13G04G10G05G08G07G02G16G23
  -4915047.48047  -3680646.03046  20956837.2474   20956840.5594
  14434595.91743                  24397706.4584
  -7749806.08947  -5914220.07946  20538767.2034   20538772.3524
  -7626426.91646  -5802257.10146  22876077.6814   22876081.1004
 -13684269.14946  -9764615.33546  22322054.3324   22322059.5914
 -14152509.62747 -10875315.86746  20497337.0044   20497340.6594
  -1418857.66446  -1020158.58845  22789844.8814   22789846.1804
  -1396133.29145  -1001936.41145  23605330.5854   23605334.2804
   9610303.54646   7874365.47145  23387954.8994   23387957.2794
 12  9 20  0 19 30.0000000  0  9G13G04G10G05G08G07G02G16G23
  -4828838.31247  -3613470.05646  20973242.3444   20973245.8514
  14568739.85943                  24423233.1634
  -7696540.55047  -5872714.48346  20548903.3194   20548908.5614
  -7680880.19246  -5844688.23046  22865715.5344   22865719.3064
 -13740375.76246  -9808334.73546  22311377.5584   22311383.6764
 -14140124.54547 -10865665.13746  20499693.7974   20499696.7394
  -1342010.03645   -960277.33845  22804468.4574   22804469.6524
  -1314114.75645   -938025.86445  23620938.2204   23620941.1634
   9732288.54146   7969418.67545  23411167.8654   23411170.5944
 12  9 20  0 20  0.0000000  0  9G13G04G10G05G08G07G02G16G23
  -4742293.38647  -3546032.44446  20989711.3534   20989714.2184
  14702975.73743  -1203191.41445  24448777.4634   24448786.6914
  -7642708.59947  -5830767.51746  20559147.2094   20559152.2554
  -7735010.00746  -5886867.29746  22855415.0014   22855419.0864
 -13796169.30646  -9851810.21146  22300760.3964   22300765.9984
 -14127217.02947 -10855607.31346  20502150.0134   20502153.3994
  -1264651.31845   -899997.88345  22819189.2454   22819191.2154
  -1231537.32745   -873679.83345  23636652.1584   23636654.9614
   9854434.12746   8064597.02445  23434411.4964   23434413.9274
 12  9 20  0 20 30.0000000  0  9G13G04G10G05G08G07G02G16G23
  -4655416.78647  -3478336.40446  21006243.4424   21006247.0824
  14837297.74343  -1098524.91345  24474338.1784   24474346.6354
  -7588313.25647  -5788381.55846  20569498.3024   20569503.1224
  -7788817.06346  -5928794.86146  22845175.8784   22845179.2454
 -13851651.18746  -9895042.80946  22290202.5254   22290207.9554
 -14113790.37047 -10845144.96846  20504705.0064   20504707.5904
  -1186786.78745   -839324.30345  22834006.3364   22834009.3624
  -1148405.77845   -808901.97345  23652471.5494   23652474.6234
   9976736.32846   8159897.42546  23457684.8764   23457688.1954
 12  9 20  0 21  0.0000000  0  9G13G04G10G05G08G07G02G16G23
  -4568207.41647  -3410381.06346  21022838.8744   21022841.6834
  14971704.60944   -993792.39545  24499915.1374   24499920.5854
  -7533353.16547  -5745555.51946  20579956.8724   20579962.1664
  -7842296.93346  -5970467.49546  22834999.0174   22835003.0894
 -13906817.96146  -9938029.85746  22279704.5864   22279710.5124
 -14099842.59147 -10834276.55346  20507359.1334   20507362.1124
  -1108416.59645   -778256.66245  22848919.7434   22848922.5374
  -1064720.20245   -743692.40545  23668396.3714   23668400.5524
  10099196.24346   8255320.68646  23480988.2974   23480991.1434
 12  9 20  0 21 30.0000000  0  9G13G04G10G05G08G07G02G16G23
  -4480667.45547  -3342168.10346  21039497.1554   21039500.6324
  15106192.20843   -888996.82745  24525507.4014   24525516.1954
  -7477829.96647  -5702290.70346  20590522.5994   20590527.8124
  -7895448.52746  -6011884.30246  22824884.6354   22824888.7794
 -13961669.45746  -9980771.27446  22269266.6724   22269272.3474
 -14085375.42847 -10823003.42146  20510112.1084   20510114.8444
  -1029544.38045   -716797.80445  22863928.6364   22863931.1474
   -980483.95045   -678053.78345  23684426.0004   23684429.4724
  10221811.57746   8350865.08046  23504321.3464   23504323.4914
 12  9 20  0 22  0.0000000  0  9G13G04G10G05G08G07G02G16G23
  -4392803.18347  -3273702.44546  21056217.1574   21056220.3824
  15240752.37443   -784144.80145  24551113.5474   24551120.0914
  -7421749.47347  -5658591.63746  20601194.3544   20601199.7824
  -7948274.51946  -6053047.40246  22814832.2084   22814835.6184
 -14016209.33046 -10023269.82946  22258888.0224   22258893.7624
 -14070393.59447 -10811329.25446  20512963.0384   20512966.2474
   -950177.11345   -654953.22045  22879031.7304   22879034.2944
   -895703.93745   -611991.42645  23700559.0844   23700563.4464
  10344576.07046   8446525.70845  23527682.7444   23527683.9834
 12  9 20  0 22 30.0000000  0  9G13G04G10G05G08G07G02G16G23
  -4304612.10747  -3204982.13146  21072999.3124   21073002.9784
  15375385.53143   -679235.84943  24576733.3344   24576740.0104
  -7365108.42147  -5614455.76746  20611972.7934   20611977.9054
  -8000769.83846  -6093952.85146  22804842.6844   22804846.6704
 -14070432.83446 -10065521.87246  22248569.6674   22248574.4674
 -14054893.98347 -10799251.62046  20515912.5294   20515916.1944
   -870313.61146   -592721.94845  22894229.2924   22894230.7954
   -810378.84745   -545504.34445  23716795.9234   23716798.5214
  10467492.34346   8542304.55145  23551072.8714   23551075.8034
 12  9 20  0 23  0.0000000  0  9G13G04G10G05G08G07G02G16G23
  -4216094.65047  -3136007.48546  21089843.5914   21089846.9794
  15510089.26842   -574272.02344  24602366.5254   24602372.8604
  -7307907.04647  -5569883.28146  20622857.8524   20622863.6084
  -8052931.28046  -6134598.10346  22794916.6984   22794919.9864
 -14124337.99246 -10107525.85646  22238311.8884   22238317.9014
 -14038876.55647 -10786770.48246  20518960.5544   20518963.7274
   -789955.92346   -530105.62545  22909520.9544   22909523.5334
   -724510.13545   -478593.67645  23733136.2464   23733139.9794
  10590559.83046   8638201.25845  23574491.8334   23574494.1974
 12  9 20  0 23 30.0000000  0  9G13G04G10G05G08G07G02G16G23
  -4127247.97847  -3066776.32946  21106750.5234   21106754.0704
  15644864.45543   -469252.38644  24628013.4634   24628017.3384
  -7250142.24447  -5524871.76346  20633850.1384   20633855.4464
  -8104752.61946  -6174978.36046  22785055.4304   22785059.0624
 -14177919.58446 -10149277.72346  22228115.6264   22228121.2254
 -14022337.68847 -10773883.04246  20522107.7784   20522110.8784
   -709102.19146   -467102.76145  22924906.9544   22924909.6564
   -638096.00345   -411258.00845  23749580.3304   23749583.6944
  10713781.15846   8734217.84045  23597940.1024   23597939.9314
 12  9 20  0 24  0.0000000  0  9G13G04G10G05G08G07G02G16G23
  -4038080.78647  -2997295.39446  21123718.4724   21123722.1684
  15779700.74542   -364185.06744  24653672.0214   24653677.9114
  -7191821.74747  -5479427.23946  20644948.1754   20644953.1934
  -8156238.89246  -6215097.52546  22775257.9254   22775261.3924
 -14231183.63146 -10190782.14646  22217979.8144   22217984.3494
 -14005284.68147 -10760594.96346  20525352.8354   20525356.1114
   -627762.02846   -403720.83345  22940385.4614   22940388.3954
   -551145.88745   -343504.64745  23766126.3844   23766129.8664
  10837148.27946   8830348.03145  23621416.0854   23621417.7544
 12  9 20  0 24 30.0000000  0  9G13G04G10G05G08G07G02G16G23
  -3948590.70647  -2927562.87246  21140747.8884   21140751.4164
  15914597.94442                  24679342.2024
  -7132943.29847  -5433547.93146  20656152.4154   20656157.2974
  -8207384.92346  -6254951.57246  22765525.1694   22765528.5714
 -14284125.67646 -10232035.63646  22207905.2364   22207911.0304
 -13987715.28947 -10746904.51446  20528696.1814   20528699.1294
   -545935.09945   -339959.60345  22955956.5864   22955959.4704
   -463658.93245   -275333.02445  23782774.5764   23782778.1504
  10960662.89146   8926593.15145  23644920.0634   23644923.5594
 12  9 20  0 25  0.0000000  0  9G13G04G10G05G08G07G02G16G23
  -3858776.29647  -2857577.61946  21157839.0344   21157842.6444
  16049555.92142                  24705023.9994
  -7073504.91347  -5387232.32746  20667463.1824   20667468.0584
  -8258185.73146  -6294536.63946  22755858.1144   22755862.1284
 -14336741.80146 -10273035.19546  22197892.7104   22197898.3694
 -13969626.87347 -10732809.62446  20532138.2924   20532141.3564
   -463621.17945   -275818.92745  22971620.3904   22971624.5194
   -375634.85445   -206742.86845  23799524.9924   23799527.7044
  11084326.59446   9022954.45745  23668452.4804   23668454.6484
 12  9 20  0 25 30.0000000  0  9G13G04G10G05G08G07G02G16G23
  -3768636.60547  -2787338.90346  21174992.0694   21174995.0174
  16184573.51341                  24730716.8274
  -7013505.63047  -5340479.64946  20678880.6774   20678886.1884
  -8308637.47646  -6333849.66446  22746257.5064   22746261.5524
 -14389028.64346 -10313778.17846  22187942.8744   22187948.1094
 -13951017.86347 -10718309.08446  20535679.4474   20535682.2654
   -380820.31046   -211298.82945  22987376.9474   22987380.1094
   -287073.52645   -137734.05645  23816377.6524   23816381.2274
  11208140.39446   9119432.66645  23692013.5444   23692015.1494
 12  9 20  0 26  0.0000000  0  9G13G04G10G05G08G07G02G16G23
  -3678175.89247  -2716850.05546  21192206.1884   21192209.6214
  16319644.93541                  24756419.9524
  -6952948.91047  -5293292.60946  20690404.2334   20690409.7654
  -8358740.87046  -6372891.27546  22736723.1524   22736727.9174
 -14440988.09446 -10354266.02446  22178055.3114   22178060.4054
 -13931891.68247 -10703405.55046  20539319.0324   20539322.5614
   -297537.95646   -146403.49145  23003225.0704   23003228.2084
   -197980.13345    -68310.64045  23833331.5754   23833334.7324
  11332100.00346   9216024.52545  23715602.3844   23715603.9314
 12  9 20  0 26 30.0000000  0  9G13G04G10G05G08G07G02G16G23
  -3587392.48347  -2646109.72846  21209481.7374   21209484.9184
  16454769.47741                  24782133.2664
  -6891833.05347  -5245669.87246  20702034.2114   20702039.2074
  -8408491.07246  -6411657.63946  22727255.9694   22727260.1644
 -14492615.98046 -10394495.50746  22168230.8414   22168236.3304
 -13912246.12147 -10688097.30146  20543057.4204   20543060.6444
   -213773.91646    -81132.86945  23019164.8374   23019168.1414
   -108354.76245      1527.32145  23850386.7684   23850389.9584
  11456207.18846   9312731.40145  23739219.2064   23739222.0094
 12  9 20  0 27  0.0000000  0  9G13G04G10G05G08G07G02G16G23
  -3496289.72047  -2575120.57846  21226818.0484   21226821.1484
  16589941.91142                  24807855.9904
  -6830160.93047  -5197613.69446  20713770.0574   20713775.0094
  -8457888.03946  -6450148.77746  22717855.9924   22717859.7734
 -14543913.35546 -10434467.45746  22158469.2094   22158474.8424
 -13892084.00047 -10672386.54046  20546894.1294   20546896.9524
   -129533.05846    -15490.65145  23035195.3824   23035199.1474
    -18201.57745     71776.55445  23867542.3914   23867546.1654
  11580458.78146   9409550.77045  23762863.5804   23762867.1354
 12  9 20  0 27 30.0000000  0  9G13G04G10G05G08G07G02G16G23
  -3404866.93147  -2503882.04546  21244215.2294   21244218.7144
  16725161.06441  -1132773.01544  24833587.5034   24833599.8344
  -6767931.36447  -5149123.13446  20725611.9654   20725616.7614
  -8506927.74846  -6488361.52646  22708523.9994   22708527.7094
 -14594877.12046 -10474179.45346  22148771.0694   22148776.7404
 -13871403.75747 -10656272.05646  20550829.4284   20550833.3214
    -44816.35146     50522.32745  23051316.4574   23051319.7224
     72478.89545    142436.65245  23884798.3124   23884800.6504
  11704855.32446   9506483.12445  23786535.5684   23786537.8594
 12  9 20  0 28  0.0000000  0  9G13G04G10G05G08G07G02G16G23
  -3313126.06447  -2432395.66246  21261672.9564   21261675.8034
  16860423.14642                  24859327.0934
  -6705146.34647  -5100199.76146  20737559.5874   20737564.8254
  -8555608.79946  -6526294.79546  22699260.2694   22699264.0814
 -14645507.18346 -10513631.40446  22139136.4584   22139140.8324
 -13850207.05147 -10639755.13146  20554862.9934   20554866.3174
     40373.23146    116903.78945  23067527.5494   23067529.9874
    163683.47345    213505.15745  23902153.9384   23902156.8344
  11829394.63446   9603526.66245  23810234.5994   23810237.4474
 12  9 20  0 28 30.0000000  0  9G13G04G10G05G08G07G02G16G23
  -3221068.09747  -2360662.18146  21279191.0354   21279194.1194
  16995725.05342                  24885074.3914
  -6641806.44047  -5050844.00546  20749612.7954   20749618.0454
  -8603928.94646  -6563946.84746  22690065.2464   22690068.5754
 -14695801.80246 -10552821.99946  22129565.7144   22129570.3584
 -13828494.03247 -10622835.86946  20558994.8264   20558997.5474
    126033.11145    183651.71945  23083828.0404   23083831.6534
    255410.06345    284980.37145  23919608.8844   23919611.4404
  11954075.63946   9700680.66545  23833960.5984   23833962.0874
 12  9 20  0 29  0.0000000  0  9G13G04G10G05G08G07G02G16G23
  -3128694.20047  -2288682.53446  21296769.2324   21296772.7094
  17131063.67342                  24910828.4674
  -6577912.97147  -5001056.90146  20761771.3394   20761776.7234
  -8651886.09546  -6601316.04446  22680939.2874   22680942.5434
 -14745760.09146 -10591750.50446  22120059.0034   22120064.0534
 -13806265.01247 -10605514.54146  20563224.8634   20563227.8294
    212160.78146    250764.18145  23100217.5754   23100220.7074
    347656.11245    356860.38845  23937162.6814   23937166.0594
  12078897.53546   9797944.48345  23857713.4844   23857713.9934
 12  9 20  0 29 30.0000000  0  9G13G04G10G05G08G07G02G16G23
  -3036006.00647  -2216457.96946  21314407.2044   21314410.2834
  17266435.71343                  24936588.9614
  -6513466.97647  -4950839.25046  20774034.9954   20774040.1194
  -8699478.50146  -6638401.01746  22671882.7124   22671886.3794
 -14795381.13746 -10630416.21946  22110616.4184   22110621.2954
 -13783521.41147 -10587792.24846  20567552.8204   20567556.4614
    298752.95546    318238.56545  23116695.5114   23116698.6424
    440418.89145    429143.13045  23954814.8794   23954816.8704
  12203858.52046   9895316.61745  23881492.8484   23881494.5354
 12  9 20  0 30  0.0000000  0  9G13G04G10G05G08G07G02G16G23
  -2943002.05547  -2143987.36546  21332105.2484   21332108.2804
  17401840.78543                  24962355.6804
  -6448466.82747  -4900189.79946  20786404.1034   20786409.1054
  -8746701.61646  -6675198.25146  22662896.3984   22662899.7304
 -14844661.00646 -10668816.09046  22101238.7374   22101244.5624
 -13760260.99747 -10569667.23146  20571979.1684   20571981.8654
    385810.20746    386075.32346  23133262.0504   23133264.9674
    533698.55345    501828.54345  23972565.4334   23972567.0204
  12328960.28246   9992798.48545  23905298.9474   23905300.8514
 12  9 20  0 30 30.0000000  0  9G13G04G10G05G08G07G02G16G23
  -2849682.77047  -2071271.04946  21349863.2904   21349866.4464
  17537276.33343  -1146692.23745  24988128.2584   24988133.3554
  -6382913.04447  -4849108.94846  20798878.5714   20798884.1074
  -8793552.41446  -6711705.35146  22653980.9384   22653983.1974
 -14893598.17146 -10706948.93246  22091926.3014   22091931.3344
 -13736483.52647 -10551139.31746  20576503.8694   20576506.9704
    473330.34446    454272.79246  23149916.6944   23149919.9224
    627493.59845    574915.60445  23990414.0724   23990417.4094
  12454202.02046  10090389.40045  23929131.6494   23929134.0364
 12  9 20  0 31  0.0000000  0  9G13G04G10G05G08G07G02G16G23
  -2756048.56247  -1998309.32346  21367681.2664   21367684.5654
  17672740.04343  -1041136.05845  25013906.2984   25013914.6424
  -6316805.21847  -4797596.37246  20811458.4834   20811463.5044
  -8840027.98546  -6747920.08446  22645136.9404   22645140.6204
 -14942190.28846 -10744812.90446  22082679.5564   22082684.3404
 -13712189.06147 -10532208.55446  20581126.9364   20581130.5334
    561311.18846    522829.28046  23166658.9174   23166662.2644
    721802.22945    648402.83345  24008360.4494   24008364.7744
  12579583.67046  10188089.35345  23952990.9254   23952992.5974
 12  9 20  0 31 30.0000000  0  9G13G04G10G05G08G07G02G16G23
  -2662103.59447  -1925105.45846  21385558.3454   21385561.6534
  17808226.23042   -935562.46145  25039688.5084   25039695.0344
  -6250147.73347  -4745655.48646  20824142.9874   20824148.3024
  -8886129.30646  -6783843.17346  22636364.1704   22636367.4604
 -14990439.32246 -10782409.51246  22073498.0354   22073503.0854
 -13687380.87647 -10512877.48846  20585847.7694   20585850.7394
    649747.37046    591740.54046  23183487.8344   23183491.1824
    816619.16445    722286.16545  24026403.5464   24026407.0464
  12705101.14446  10285895.14445  23976876.0714   23976877.9214
 12  9 20  0 32  0.0000000  0  9G13G04G10G05G08G07G02G16G23
  -2567846.13447  -1851658.09346  21403494.9334   21403498.0014
  17943734.84441   -829971.36443  25065474.8794   25065476.9444
  -6182938.58947  -4693284.73146  20836932.4684   20836937.1474
  -8931851.20846  -6819470.62746  22627663.6274   22627667.4684
 -15038341.22446 -10819735.63046  22064382.5664   22064387.9724
 -13662056.77447 -10493144.40246  20590666.7364   20590669.7814
    738639.27046    661006.92046  23200403.4634   23200406.6494
    911944.59645    796565.70645  24044543.3674   24044546.0514
  12830756.33846  10383808.26945  24000787.4534   24000789.3724
 12  9 20  0 32 30.0000000  0  8G13G10G05G08G07G02G16G23
  -2473278.92947  -1777969.36746  21421490.4844   21421493.5004
  -6115180.58047  -4640486.30246  20849826.4174   20849831.3144
  -8977193.37646  -6854802.14846  22619035.3174   22619039.0224
 -15085896.71146 -10856791.83046  22055332.9974   22055338.3214
 -13636219.39047 -10473011.36746  20595583.4364   20595586.3874
    827982.14446    730624.74545  23217404.8914   23217409.2824
   1007774.14845    871238.04945  24062779.0454   24062783.4464
  12956545.87346  10481826.07845  24024724.4034   24024726.6524
 12  9 20  0 33  0.0000000  0  8G13G10G05G08G07G02G16G23
  -2378401.26647  -1704038.73146  21439545.1084   21439548.7924
  -6046873.35847  -4587259.91446  20862824.8714   20862829.7294
  -9022152.00346  -6889834.84546  22610480.0204   22610483.5044
 -15133102.84746 -10893575.78346  22046349.9604   22046355.0304
 -13609867.68447 -10452477.54146  20600598.0204   20600600.9074
    917775.08446    800593.24545  23234491.9164   23234494.3884
   1104107.30445    946302.83045  24081110.5924   24081112.7194
  13082470.55946  10579949.16845  24048687.1534   24048689.3414
 12  9 20  0 33 30.0000000  0  8G13G10G05G08G07G02G16G23
  -2283216.19447  -1629868.55446  21457658.2414   21457661.5394
  -5978019.80247  -4533607.80646  20875927.2904   20875932.2384
  -9066726.55446  -6924568.23946  22601997.7934   22602001.4904
 -15179960.19046 -10930087.98346  22037433.3004   22037438.2144
 -13583004.14147 -10431544.90946  20605709.9584   20605713.2394
   1008013.72746    870909.02845  23251663.7754   23251665.8054
   1200939.99445   1021756.86445  24099537.3044   24099540.7334
  13208527.50846  10678175.30345  24072675.0454   24072676.0664
 12  9 20  0 34  0.0000000  0  8G13G10G05G08G07G02G16G23
  -2187722.61347  -1555457.97446  21475830.0664   21475833.1514
  -5908618.20547  -4479528.64646  20889133.9414   20889139.6334
  -9110912.72946  -6958999.00746  22593589.4934   22593592.6674
 -15226465.24646 -10966325.65146  22028583.6524   22028588.7624
 -13555626.23547 -10410211.45146  20610919.7834   20610922.6964
   1098697.72646    941571.86345  23268920.4584   23268924.1334
   1298272.09745   1097600.03645  24118058.9844   24118062.2274
  13334718.01345  10776505.55845  24096688.2774   24096691.4994
 12  9 20  0 34 30.0000000  0  8G13G10G05G08G07G02G16G23
  -2091923.66147  -1480809.45746  21494060.0374   21494062.9134
  -5838671.70547  -4425024.89046  20902444.2964   20902449.1684
  -9154710.42446  -6993127.07946  22585255.0714   22585258.0634
 -15272619.00646 -11002289.59246  22019800.8524   22019806.4624
 -13527737.34847 -10388479.83346  20616226.8214   20616229.5064
   1189822.33246   1012578.00746  23286261.0184   23286263.0554
   1396098.96545   1173828.77545  24136674.7454   24136679.6064
  13461039.08346  10874937.52245  24120726.4044   24120730.3024
 12  9 20  0 35  0.0000000  0  8G13G10G05G08G07G02G16G23
  -1995820.04047  -1405923.53346  21512347.9404   21512351.6194
  -5768180.97247  -4370097.06746  20915858.2774   20915862.9964
  -9198116.95546  -7026950.33246  22576994.9984   22576998.2374
 -15318419.71947 -11037978.41746  22011085.2374   22011089.8304
 -13499337.72347 -10366350.25446  20621631.0704   20621634.2104
   1281385.25246   1083925.70645  23303684.9554   23303688.0144
   1494418.22144   1250441.20645  24155384.2484   24155387.5734
  13587489.70946  10973470.47745  24144789.3414   24144790.5384
 12  9 20  0 35 30.0000000  0  8G13G10G05G08G07G02G16G23
  -3474832.31647  -2558400.63546  21230901.2584   21230904.3914
  -7272567.02847  -5542345.95546  20629583.1934   20629588.0134
 -10816553.95346  -8288070.04646  22269016.5794   22269020.4354
 -16939290.17846 -12300994.33146  21702643.8254   21702648.5154
 -15045849.52747 -11571424.36246  20327339.6654   20327342.5654
   -202035.41446    -71986.51645  23021399.4154   23021402.2374
     17808.67543     99836.33545  23874394.7554   23874396.1634
  12138651.16446   9844505.36145  23869084.6274   23869084.8894
 12  9 20  0 36  0.0000000  0  8G13G10G05G08G07G02G16G23
  -3378125.54147  -2483044.71446  21249303.9374   21249306.8804
  -7200994.16947  -5486574.91046  20643203.0414   20643208.3224
 -10859174.59046  -8321280.93646  22260906.0934   22260909.9494
 -16984384.50747 -12336132.75146  21694062.6374   21694067.8224
 -15016433.23347 -11548502.56146  20332937.3884   20332940.3744
   -109606.95046        35.61545  23038987.9804   23038991.1954
    117102.97443    177208.48245  23893289.7204   23893292.6534
  12265355.57045   9943236.07245  23893195.6294   23893197.8234
 12  9 20  0 36 30.0000000  0  8G13G10G05G08G07G02G16G23
  -3281109.79847  -2407448.04946  21267765.4104   21267769.3064
  -7128873.30447  -5430376.84546  20656927.1314   20656932.4064
 -10901390.11746  -8354176.13546  22252872.7564   22252875.9954
 -17029114.98347 -12370987.66246  21685550.6584   21685555.1694
 -14986500.79347 -11525178.56846  20338633.3064   20338636.4674
    -16740.86246     72398.78845  23056659.8584   23056662.7314
    216889.83143    254964.45345  23912278.5254   23912283.7634
  12392193.93245  10042071.07145  23917332.0374   23917335.6494
 12  9 20  0 37  0.0000000  0  8G13G10G05G08G07G02G16G23
  -3183798.06147  -2331620.73446  21286283.2344   21286286.8694
  -7056216.98147  -5373761.53946  20670753.1414   20670758.6214
 -10943210.23246  -8386763.23346  22244914.6634   22244918.1404
 -17073492.06346 -12405567.17546  21677105.9384   21677111.3194
 -14956064.37847 -11501461.86946  20344425.1464   20344428.7254
     76548.39246    145091.68045  23074412.2764   23074414.7914
    317155.10243    333093.22545  23931358.3474   23931363.4024
  12519153.50945  10141000.64445  23941491.5684   23941494.2264
 12  9 20  0 37 30.0000000  0  8G13G10G05G08G07G02G16G23
  -3086191.29847  -2255563.51546  21304857.1674   21304860.5434
  -6983026.08247  -5316729.69046  20684680.8964   20684685.6334
 -10984632.15746  -8419040.04546  22237032.3304   22237035.8554
 -17117514.43746 -12439870.31146  21668728.7174   21668733.9854
 -14925124.51347 -11477352.86346  20350312.8044   20350315.8964
    170258.53446    218112.53945  23092244.7304   23092246.9234
    417896.54244    411592.99445  23950528.8254   23950533.8384
  12646233.46845  10240023.99145  23965674.0954   23965674.8914
 12  9 20  0 38  0.0000000  0  8G13G10G05G08G07G02G16G23
  -2988281.03647  -2179269.82446  21323488.8634   21323492.6434
  -6909292.66447  -5259275.09446  20698711.9284   20698717.3204
 -11025645.13246  -8450998.20046  22229227.7864   22229232.0904
 -17161172.22047 -12473889.35546  21660420.9234   21660426.1874
 -14893672.83947 -11452845.06546  20356297.8564   20356300.9874
    264395.65246    291466.14345  23110158.4054   23110161.2534
    519120.52945    490468.85345  23969791.1364   23969794.7124
  12773441.94545  10339147.46245  23989881.0534   23989881.7714
 12  9 20  0 38 30.0000000  0  8G13G10G05G08G07G02G16G23
  -2890061.17247  -2102734.87446  21342179.4824   21342182.6764
  -6835010.31046  -5201392.75246  20712847.3844   20712852.8674
 -11066239.32346  -8482630.01446  22221502.9104   22221506.8814
 -17204456.56046 -12507617.38846  21652184.1674   21652190.2564
 -14861702.67247 -11427933.23046  20362381.5724   20362385.0274
    358964.04246    365155.77645  23128154.1534   23128155.7884
    620832.01445    569724.57645  23989146.2474   23989150.4594
  12900785.41945  10438376.08745  24014113.7354   24014117.5034
 12  9 20  0 39  0.0000000  0  8G13G10G05G08G07G02G16G23
  -2791542.77747  -2025967.31046  21360926.8944   21360930.3144
  -6760190.35747  -5143091.50046  20727085.1504   20727090.0164
 -11106422.40846  -8513941.48846  22213856.3174   22213859.2614
 -17247376.01446 -12541061.09646  21644016.8314   21644022.8174
 -14829224.92647 -11402625.89246  20368561.8684   20368564.8004
    453951.88046    439172.24445  23146229.7864   23146232.7604
    723018.92845    649350.72345  24008591.8464   24008596.2574
  13028252.91945  10537701.37245  24038370.0164   24038372.4434
 12  9 20  0 39 30.0000000  0  8G13G10G05G08G07G02G16G23
  -2692728.62147  -1948969.27446  21379730.6084   21379733.9794
  -6684835.70947  -5084373.61346  20741424.6844   20741430.1204
 -11146193.97446  -8544932.30646  22206288.0184   22206291.1104
 -17289931.67746 -12574221.30546  21635918.7144   21635924.7974
 -14796241.88347 -11376924.82446  20374838.3274   20374840.8004
    549353.99746    513511.51245  23164384.2674   23164386.4474
    825676.25544    729343.40845  24028126.9244   24028131.0264
  13155841.25245  10637120.79545  24062649.3314   24062651.4794
 12  9 20  0 40  0.0000000  0  8G13G10G05G08G07G02G16G23
  -2593621.45847  -1871742.93046  21398590.0974   21398593.1984
  -6608949.61047  -5025241.60846  20755865.3564   20755870.1954
 -11185553.80646  -8575602.29846  22198798.0904   22198801.3714
 -17332124.05147 -12607098.45446  21627889.7664   21627894.2594
 -14762756.13647 -11350832.02046  20381210.4454   20381213.6124
    645165.83045    588170.08145  23182616.6054   23182619.0754
    928799.96345    809699.58945  24047750.6844   24047754.3274
  13283547.92745  10736632.49845  24086951.0704   24086954.8824
 12  9 20  0 40 30.0000000  0  8G13G10G05G08G07G02G16G23
  -2494216.45747  -1794284.50746  21417506.3034   21417509.0694
  -6532527.01047  -4965691.54446  20770408.1194   20770413.0194
 -11224493.80046  -8605945.14446  22191388.0724   22191391.9324
 -17373946.14046 -12639687.05046  21619931.2424   21619935.6554
 -14728762.47647 -11324343.43946  20387679.2024   20387682.7094
    741390.69945    663150.46945  23200927.4904   23200930.8534
   1032393.21945    890421.53545  24067463.8384   24067467.2454
  13411377.76046  10836240.16545  24111276.3524   24111279.6974
 12  9 20  0 41  0.0000000  0  8G13G10G05G08G07G02G16G23
  -2394515.15147  -1716595.19746  21436478.9284   21436481.4494
  -6455569.41647  -4905724.60246  20785052.6694   20785058.1044
 -11263011.90346  -8635959.23046  22184058.3194   22184062.3204
 -17415396.81746 -12671986.23446  21612043.4014   21612049.5234
 -14694261.83747 -11297459.81746  20394244.4394   20394247.6584
    838025.81745    738450.55245  23219316.5284   23219319.4594
   1136453.46645    971507.43245  24087265.8994   24087269.6244
  13539329.62345  10935942.87445  24135624.8704   24135625.8384
 12  9 20  0 41 30.0000000  0  8G13G10G05G08G07G02G16G23
  -2294522.99847  -1638679.24046  21455506.8254   21455510.2504
  -6378082.37747  -4845345.10346  20799797.9424   20799803.6624
 -11301110.11146  -8665646.12046  22176808.4564   22176812.1634
 -17456479.28647 -12703998.49846  21604225.6504   21604230.3574
 -14659259.10647 -11270184.95146  20400905.1904   20400908.1214
    935063.81445    814064.51845  23237782.3604   23237784.2454
   1240973.74745   1052951.76545  24107155.4984   24107159.6234
  13667398.17045  11035736.50845  24159995.6384   24159999.3454
 12  9 20  0 42  0.0000000  0  8G13G10G05G08G07G02G16G23
  -2194239.97247  -1560536.64746  21474590.0604   21474593.3484
  -6300066.79047  -4784553.75046  20814643.8234   20814649.3524
 -11338786.08546  -8695004.02346  22169638.9604   22169642.3564
 -17497192.07647 -12735722.72846  21596478.2994   21596483.3804
 -14623754.80947 -11242519.26946  20407661.4274   20407664.8364
   1032502.13645    889990.49345  23256324.3334   23256326.4894
   1345952.18245   1134753.08745  24127132.2644   24127134.9684
  13795582.82345  11135620.62645  24184388.4134   24184388.9604
 12  9 20  0 42 30.0000000  0  8G13G10G05G08G07G02G16G23
  -2093668.51547  -1482169.29946  21493728.1804   21493731.3714
  -6221525.43447  -4723352.71446  20829589.7784   20829594.8924
 -11376039.07846  -8724032.31546  22162549.9824   22162552.7904
 -17537535.37447 -12767159.02346  21588801.2644   21588806.3604
 -14587751.31447 -11214464.57046  20414512.6814   20414515.7244
   1130336.83944    966225.32945  23274941.5294   23274943.4594
   1451384.58345   1216908.19945  24147195.3924   24147198.3944
  13923881.28445  11235593.40745  24208802.6664   24208801.8434
 12  9 20  0 43  0.0000000  0  8G13G10G05G08G07G02G16G23
  -1992806.75047  -1403575.72846  21512921.5514   21512925.1514
  -6142455.76647  -4661739.99546  20844636.2614   20844640.8734
 -11412863.28246  -8752726.50646  22155542.5774   22155545.5574
 -17577504.92547 -12798304.06746  21581195.3024   21581200.0064
 -14551245.75647 -11186018.67346  20421459.4274   20421462.6214
   1228568.69045   1042769.58645  23293634.3474   23293635.3274
   1557271.64045   1299417.52545  24167345.0924   24167348.7314
  14052295.96845  11335656.77845  24233239.1724   24233241.6164
 12  9 20  0 43 30.0000000  0  8G13G10G05G08G07G02G16G23
  -1891652.38447  -1324754.16746  21532170.6014   21532174.0624
  -6062856.22447  -4599714.39746  20859783.5534   20859788.8544
 -11449253.49546  -8781082.50746  22148617.7204   22148621.0904
 -17617096.23747 -12829154.42746  21573661.2794   21573666.3304
 -14514235.96647 -11157179.86446  20428502.1474   20428505.4684
   1327197.79145   1119623.40645  23312402.8804   23312404.6034
   1663614.06544   1382281.70245  24187581.4844   24187585.8674
  14180828.81345  11435812.18645  24257698.2094   24257701.4164
 12  9 20  0 44  0.0000000  0  8G13G10G05G08G07G02G16G23
  -1790220.26047  -1245716.17046  21551472.5454   21551475.3844
  -5982741.78647  -4537287.57546  20875028.8254   20875033.6334
 -11485221.43746  -8809109.46446  22141773.2274   22141776.4724
 -17656321.96747 -12859719.89146  21566196.8574   21566201.5614
 -14476736.43747 -11127959.42246  20435638.0654   20435641.6074
   1426207.35845   1196773.68145  23331243.7504   23331247.5394
   1770395.51744   1465488.01845  24207901.4374   24207904.6444
  14309465.33045  11536048.40545  24282176.9334   24282179.4714
 12  9 20  0 44 30.0000000  0  8G13G10G05G08G07G02G16G23
  -1688499.80147  -1166453.49946  21570829.2894   21570832.3584
  -5902102.36747  -4474451.68946  20890374.0224   20890379.2334
 -11520753.45546  -8836796.73246  22135011.6914   22135014.9374
 -17695169.70447 -12889990.83146  21558804.3624   21558809.1734
 -14438736.52647 -11098349.09946  20442869.1994   20442872.4514
   1525606.23345   1274227.33845  23350158.7954   23350161.9234
   1877624.75343   1549043.17545  24228306.5694   24228309.5874
  14438215.91045  11636373.48945  24306677.2864   24306678.2004
 12  9 20  0 45  0.0000000  0  8G13G10G05G08G07G02G16G23
  -1586485.59847  -1086961.93046  21590241.8774   21590245.2394
  -5820933.02347  -4411202.86646  20905820.0484   20905825.3244
 -11555841.29546  -8864137.90846  22128334.6544   22128338.4634
 -17733631.94947 -12919961.41946  21551485.2244   21551489.9014
 -14400230.85047 -11068344.66146  20450196.6014   20450200.0884
   1625397.94845   1351987.11145  23369148.5284   23369151.4114
   1985305.27643   1632950.02645  24248797.4764   24248799.6584
  14567085.66845  11736791.51145  24331200.4624   24331199.2534
 12  9 20  0 45 30.0000000  0  8G13G10G05G08G07G02G16G23
  -1484196.47047  -1007256.13046  21609706.8134   21609710.0524
  -5739252.31647  -4347555.57946  20921363.3734   20921368.2894
 -11590499.93746  -8891144.63246  22121739.2984   22121743.2494
 -17771725.30547 -12949644.53746  21544236.2714   21544241.5364
 -14361237.66947 -11037960.35546  20457616.7654   20457620.4094
   1725562.11845   1430037.03745  23388209.1774   23388212.2734
   2093417.40843   1717193.17045  24269370.5854   24269370.6344
  14696056.29945  11837288.07545  24355742.8574   24355741.5954
 12  9 20  0 46  0.0000000  0  8G13G10G05G08G07G02G16G23
  -1381624.47047   -927329.92746  21629225.6034   21629228.6774
  -5657053.22246  -4283504.35146  20937005.3144   20937010.8234
 -11624718.59146  -8917808.52146  22115227.6914   22115231.4344
 -17809439.87447 -12979032.47346  21537059.4004   21537064.8434
 -14321749.05547 -11007189.99946  20465131.2024   20465134.4874
   1826104.43345   1508381.65645  23407341.8314   23407347.1034
   2201966.82343   1801777.10645  24290026.9204   24290029.3284
  14825135.74145  11937869.39945  24380305.9154   24380309.0814
 12  9 20  0 46 30.0000000  0  8G13G10G05G08G07G02G16G23
  -1278761.02247   -847176.61746  21648799.8934   21648803.2244
  -5574326.97747  -4219042.36946  20952747.6094   20952752.2634
 -11658485.16746  -8944120.11846  22108802.1174   22108804.7894
 -17846764.76347 -13008116.78046  21529956.6734   21529962.1084
 -14281756.18247 -10976026.71446  20472741.6334   20472744.5124
   1927032.23745   1587026.67545  23426547.8054   23426550.5604
   2310960.92143   1886707.53745  24310767.8944   24310773.6434
  14954332.80845  12038542.41045  24404891.3034   24404892.8714
 12  9 20  0 47  0.0000000  0  8G13G10G05G08G07G02G16G23
  -1175610.94747   -766799.94346  21668428.7284   21668431.9234
  -5491079.18047  -4154173.97446  20968589.1544   20968594.5034
 -11691801.85146  -8970081.17346  22102462.1764   22102465.3534
 -17883702.86747 -13036899.70646  21522927.5834   21522932.5064
 -14241263.70747 -10944474.12446  20480447.1084   20480449.6994
   2028338.47745   1665966.52345  23445825.7174   23445826.9704
   2420393.12744   1971979.36545  24331592.1834   24331597.5754
  15083642.60645  12139303.22445  24429498.1294   24429501.8884
 12  9 20  0 47 30.0000000  0  8G13G10G05G08G07G02G16G23
  -1072182.38947   -686206.29846  21688110.5734   21688113.9434
  -5407317.91547  -4088905.47246  20984528.4314   20984533.4914
 -11724673.08146  -8995695.11946  22096207.0044   22096210.0144
 -17920260.01847 -13065385.76446  21515970.9634   21515975.8344
