     2.11           OBSERVATION DATA    M (MIXED)           RINEX VERSION / TYPE
teqc  2011Oct11     Kristine Larson     20131008 16:30:25UTCPGM / RUN BY / DATE
Linux 2.4.21-27.ELsmp|Opteron|gcc|Linux x86_64|=+           COMMENT
teqc  2012Jun6                          20120921 03:09:39UTCCOMMENT
Solaris x86 5.10|AMD64|cc SC5.8 -xarch=amd64|=+|=+          COMMENT
BIT 2 OF LLI FLAGS DATA COLLECTED UNDER A/S CONDITION       COMMENT
DARW                                                        MARKER NAME
50134M001                                                   MARKER NUMBER
geodesy@ga.gov.au   GEOSCIENCE AUSTRALIA                    OBSERVER / AGENCY
355803              LEICA GRX1200GGPRO  8.20/3.019          REC # / TYPE / VERS
CR13354             ASH700936D_M    NONE                    ANT # / TYPE
 -4091358.7440  4684606.8440 -1408580.6420                  APPROX POSITION XYZ
        0.0025        0.0000        0.0000                  ANTENNA: DELTA H/E/N
     1     1                                                WAVELENGTH FACT L1/2
     6    L1    L2    C1    P2    S1    S2                  # / TYPES OF OBSERV
    30.0000                                                 INTERVAL
Forced Modulo Decimation to 30 seconds                      COMMENT
Default                                                     COMMENT
Project creator:                                            COMMENT
Geoscience Australia                                        COMMENT
 SNR is mapped to RINEX snr flag value [0-9]                COMMENT
  L1 & L2: min(max(int(snr_dBHz/6), 0), 9)                  COMMENT
    16                                                      LEAP SECONDS
teqc edited: all GLONASS satellites excluded                COMMENT
  2012     9    20     0     0   30.0000000     GPS         TIME OF FIRST OBS
                                                            END OF HEADER
 12  9 20  0  0 30.0000000  0 12G22G19G32G30G11G14G16G23G31G06G03G01
 123676370.254 7  96371144.94946  23534846.760    23534847.500          42.250
        36.500
 109449390.995 8  85285233.74447  20827530.400    20827528.180          49.000
        47.500
 122208363.166 7  95227317.67846  23255482.600    23255483.660          44.000
        38.000
 130533198.872 5 101714190.80243  24839641.980    24839644.280          30.750
        21.750
 122262733.463 7  95269694.82946  23265827.520    23265827.140          44.500
        36.500
 116884862.181 7  91079092.61946  22242460.940    22242462.040          45.000
        39.750
 130198662.237 6 101453477.34545  24776002.040    24776005.460          39.500
        34.500
 127663855.906 6  99478330.34045  24293621.640    24293623.060          39.000
        30.750
 116611823.999 7  90866336.78347  22190500.780    22190501.220          47.250
        43.250
 113336290.986 7  88313977.84747  21567188.380    21567189.400          47.500
        43.250
 110868940.282 8  86391367.88247  21097664.960    21097665.460          48.750
        43.500
 127788868.315 6  99575759.25546  24317412.740    24317417.800          39.000
        36.750
 12  9 20  0  1  0.0000000  0 13G22G19G32G30G11G14G21G16G23G31G06G03
                                G01
 123720343.771 7  96405409.90646  23543214.660    23543215.660          42.500
        37.000
 109439343.010 8  85277404.11847  20825618.280    20825616.120          49.000
        47.500
 122186371.641 7  95210181.42746  23251297.860    23251298.900          44.250
        38.500
 130537825.547 5 101717804.90943  24840521.620    24840530.060          32.500
        19.500
 122170408.173 7  95197753.09846  23248258.480    23248258.180          44.750
        36.500
 116976998.453 7  91150887.01646  22259993.960    22259995.180          45.250
        38.500
 138506955.801 5                  26356997.620                          31.500

 130230445.270 6 101478243.22145  24782050.140    24782054.060          39.250
        30.750
 127564807.503 6  99401149.81145  24274773.320    24274774.420          41.250
        33.750
 116560591.854 7  90826415.63447  22180751.560    22180752.220          47.250
        43.500
 113415361.497 7  88375591.15947  21582234.980    21582236.120          47.250
        42.750
 110911857.870 8  86424810.11147  21105831.940    21105832.440          48.750
        43.500
 127698775.086 6  99505556.72645  24300268.980    24300273.100          39.250
        33.750
