     2.10           OBSERVATION DATA    G (GPS)             RINEX VERSION / TYPE
teqc  2000Feb29     CORS/NGS/NOAA       20000716 00:48:29UTCPGM / RUN BY / DATE
HP-UX 10.20|PA-RISC|cc A.10.32.03|=+|=|                     COMMENT
BIT 2 OF LLI FLAGS DATA COLLECTED UNDER A/S CONDITION       COMMENT
van1                                                        MARKER NAME
xxx                                                         MARKER NUMBER
CORS/NGS/NOAA       U.S. Coast Guard                        OBSERVER / AGENCY
05399               ASHTECH   Z-XII3    RD00                REC # / TYPE / VERS
10913               ASH700829.3                             ANT # / TYPE
 -2665274.3948 -4513294.0773  3622149.8540                  APPROX POSITION XYZ
        0.0000        0.0000        0.0000                  ANTENNA: DELTA H/E/N
     1     1                                                WAVELENGTH FACT L1/2
     7    C1    L1    L2    P1    P2    D1    D2            # / TYPES OF OBSERV
    30.0000                                                 INTERVAL
 SNR is mapped to RINEX snr flag value [1-9]                COMMENT
  L1: 1 -> 1;  90 -> 5; 210 -> 9                            COMMENT
  L2: 1 -> 1; 150 -> 5; 250 -> 9                            COMMENT
teqc windowed: delta = 86400.000 sec                        COMMENT
  2000     7    15     0     4    0.0000000     GPS         TIME OF FIRST OBS
                                                            END OF HEADER
 00  7 15  0  4  0.0000000  0  6G15G25G11G21G29G 1
  22777081.4094   -5656358.00147  -4393634.47345  22777079.0564   22777088.8734
     -3917.5784      -3052.6514
  20712994.2944  -21629956.47449 -15812561.86147  20712992.7964   20712997.9624
      -190.1494       -148.1684
  20873944.8964  -18846887.31249 -14440285.19247  20873943.3324   20873948.4064
      -495.7914       -386.3304
  23125686.1254   -5856153.16247  -3913397.39846  23125684.2524   23125693.2354
     -2675.5014      -2084.8024
  23433704.3854    -799578.74048   -377853.49746  23433702.7884   23433710.2734
     -2752.3844      -2144.7124
  24217528.9634   -7091831.86747  -5328387.19346  24217526.8174   24217537.0894
      2222.8624       1732.0984
 00  7 15  0  4 30.0000000  0  7G20G15G25G11G21G29G 1
  22864893.0124  -11642733.98848  -8700872.36946  22864891.1534   22864897.0944
      2520.2784       1963.8544
  22799454.7334   -5538787.86847  -4302021.51745  22799452.7784   22799461.6004
     -3921.9614      -3056.0694
  20714119.9574  -21624039.93749 -15807951.54547  20714118.6874   20714123.6834
      -205.8134       -160.3754
  20876820.7784  -18831776.29749 -14428510.38047  20876819.0284   20876823.9334
      -513.1484       -399.8544
  23140976.0724   -5775805.95847  -3850789.30446  23140974.2664   23140982.7894
     -2682.4994      -2090.2544
  23449408.1024    -717056.55748   -313550.57546  23449406.5794   23449413.2864
     -2750.6554      -2143.3654
  24204841.8654   -7158495.27348  -5380332.44246  24204839.8994   24204851.3974
      2219.7804       1729.6914
 00  7 15  0  5  0.0000000  0  7G20G15G25G11G21G29G 1
  22850519.0994  -11718269.30148  -8759730.98746  22850517.3964   22850523.6534
      2514.6224       1959.4464
  22821869.2864   -5420995.73247  -4210235.58645  22821867.1834   22821876.9084
     -3931.6204      -3063.5904
  20715353.1174  -21617562.03349 -15802903.80047  20715351.5794   20715356.4824
      -226.8444       -176.7614
  20879812.6714  -18816052.55149 -14416258.12147  20879810.9704   20879816.1314
      -535.9224       -417.6024
  23156322.5124   -5695157.76247  -3787946.66345  23156320.5874   23156329.7024
     -2694.7924      -2099.8314
  23465118.7824    -634495.66048   -249217.46246  23465117.1014   23465124.8894
     -2754.2034      -2146.1294
  24192190.4784   -7224975.20747  -5432134.72146  24192188.4824   24192200.5734
      2211.4434       1723.1904
 00  7 15  0  5 30.0000000  0  7G20G15G25G11G21G29G 1
  22836170.7304  -11793674.16248  -8818487.95546  22836168.1784   22836174.7064
      2514.6964       1959.5024
  22844332.2854   -5302955.71547  -4118256.50645  22844330.5844   22844339.5264
     -3935.3494      -3066.5024
  20716697.9224  -21610494.63749 -15797396.70747  20716696.3534   20716701.3434
      -242.0024       -188.5744
  20882926.9604  -18799687.68849 -14403506.28347  20882925.2194   20882930.2614
      -552.8164       -430.7664
  23171732.3094   -5614180.53947  -3724847.64546  23171729.9584   23171739.8734
     -2701.3384      -2104.9344
  23480842.5524    -551868.02148   -184832.36646  23480841.2474   23480848.0014
     -2751.9514      -2144.3764
  24179579.2664   -7291242.77747  -5483771.49345  24179578.0974   24179589.9724
      2208.8164       1721.1474
 00  7 15  0  6  0.0000000  0  7G20G15G25G11G21G29G 1
  22821827.2424  -11869046.92648  -8877219.90746  22821825.1454   22821831.4364
      2509.0634       1955.1094
  22866821.8294   -5184770.15947  -4026164.00245  22866819.8774   22866829.5604
     -3944.7384      -3073.8144
  20718135.3834  -21602937.50549 -15791508.00547  20718134.2464   20718139.3934
      -262.8634       -204.8304
  20886143.7944  -18782781.95149 -14390332.99247  20886142.0664   20886147.3374
      -575.3964       -448.3624
  23187185.1434   -5532974.64647  -3661570.42446  23187183.3974   23187193.1484
     -2713.5014      -2114.4134
  23496559.6634    -469274.00648   -120473.43946  23496558.2204   23496565.4454
     -2755.4144      -2147.0764
  24166990.8044   -7357397.84147  -5535320.66145  24166989.5834   24167000.5144
      2200.4504       1714.6314
 00  7 15  0  6 30.0000000  0  7G20G15G25G11G21G29G 1
  22807514.8184  -11944258.61848  -8935826.34646  22807512.4874   22807519.4824
      2506.5034       1953.1164
  22889363.5234   -5066314.62447  -3933861.14045  22889361.5504   22889371.3354
     -3950.8454      -3078.5774
  20719690.9784  -21594763.76849 -15785138.83747  20719689.6424   20719694.9074
      -280.6004       -218.6514
  20889488.0294  -18765208.19349 -14376639.16347  20889486.4544   20889491.5564
      -594.8344       -463.5074
  23202705.5564   -5451412.64547  -3598015.74545  23202703.9754   23202713.8304
     -2722.5124      -2121.4314
  23512294.0984    -386586.83448    -56041.93846  23512292.9044   23512300.0874
     -2755.6474      -2147.2554
  24154448.0614   -7423312.88947  -5586682.82145  24154446.3904   24154456.3814
      2195.3184       1710.6354
 00  7 15  0  7  0.0000000  0  7G20G15G25G11G21G29G 1
  22793218.5714  -12019388.56948  -8994369.09346  22793216.2394   22793222.5554
      2502.9784       1950.3694
  22911940.3954   -4947672.57247  -3841412.94645  22911939.2114   22911948.0594
     -3957.7904      -3083.9854
  20721348.4994  -21586054.67349 -15778352.50547  20721346.9644   20721352.1614
      -299.2054       -233.1474
  20892944.0224  -18747047.87849 -14362488.27447  20892942.2824   20892947.5074
      -615.1594       -479.3444
  23218278.8654   -5369575.42247  -3534246.60445  23218277.0934   23218286.7104
     -2732.4544      -2129.1784
  23528031.5824    -303887.75848      8398.83946  23528030.1964   23528038.3604
     -2756.8374      -2148.1794
  24141935.4774   -7489068.54547  -5637920.81545  24141933.9954   24141942.9694
      2189.2354       1705.8934
 00  7 15  0  7 30.0000000  0  7G20G15G25G11G21G29G 1
  22778923.3464  -12094506.35448  -9052902.36246  22778921.4484   22778927.8374
      2505.1024       1952.0244
  22934538.8114   -4828917.70847  -3748876.84545  22934536.8424   22934546.3974
     -3958.9514      -3084.8964
  20723094.0954  -21576881.48049 -15771204.53947  20723092.5964   20723097.7244
      -312.0994       -243.1944
  20896497.4374  -18728372.13349 -14347935.75447  20896495.9604   20896501.4864
      -629.7364       -490.7024
  23233890.6974   -5287534.61147  -3470318.81345  23233888.9964   23233899.0014
     -2736.7114      -2132.4974
  23543757.5864    -221248.21548     72793.19946  23543756.2674   23543763.4364
     -2752.2994      -2144.6484
  24129438.5094   -7554735.55047  -5689089.69745  24129436.5944   24129447.4624
      2188.8164       1705.5664
 00  7 15  0  8  0.0000000  0  7G20G15G25G11G21G29G 1
  22764630.3164  -12169618.77048  -9111431.43846  22764628.1274   22764634.5234
      2499.9974       1948.0464
  22957157.0554   -4710061.07147  -3656261.43945  22957154.6074   22957164.5544
     -3967.1974      -3091.3194
  20724926.3144  -21567252.91649 -15763701.73647  20724924.9314   20724929.9524
      -332.1514       -258.8194
  20900147.8054  -18709189.82849 -14332988.51347  20900146.2274   20900151.7144
      -651.5194       -507.6764
  23249540.5344   -5205298.54847  -3406238.87245  23249538.2174   23249548.1354
     -2748.1054      -2141.3794
  23559470.1884    -138677.29748    137134.12446  23559468.6344   23559476.6174
     -2754.8404      -2146.6264
  24116956.8894   -7620322.32947  -5740196.01045  24116954.9944   24116966.6244
      2181.2534       1699.6674
 00  7 15  0  8 30.0000000  0  7G20G15G25G11G21G29G 1
  22750373.2334  -12244537.73048  -9169809.79146  22750371.3084   22750377.3384
      2495.9974       1944.9294
  22979829.2034   -4590918.95747  -3563423.58945  22979827.3994   22979836.6804
     -3974.1714      -3096.7554
  20726880.6404  -21556983.07349 -15755699.24347  20726879.1474   20726884.1324
      -351.0354       -273.5344
  20903930.2374  -18689314.87749 -14317501.55247  20903928.4144   20903933.6304
      -672.0934       -523.7094
  23265262.2214   -5122681.02847  -3341861.70345  23265259.9124   23265269.0704
     -2758.3144      -2149.3344
  23575205.1724     -55988.85348    201566.62246  23575203.7684   23575210.7274
     -2756.3134      -2147.7754
  24104527.6244   -7685642.35847  -5791094.48546  24104526.0864   24104536.9574
      2174.8214       1694.6584
 00  7 15  0  9  0.0000000  0  7G20G15G25G11G21G29G 1
  22736133.1004  -12319371.93948  -9228122.10346  22736130.8424   22736136.8154
      2492.5284       1942.2284
  23002533.0214   -4471604.49147  -3470451.43645  23002531.7964   23002541.4624
     -3980.5174      -3101.6944
  20728935.7354  -21546183.09249 -15747283.65647  20728934.3034   20728939.1094
      -369.3594       -287.8134
  20907822.8854  -18668858.24149 -14301561.32647  20907821.1234   20907826.2644
      -692.1414       -539.3304
  23281034.8334   -5039792.61247  -3277273.43645  23281032.8284   23281042.8184
     -2767.9874      -2156.8674
  23590941.1224      26706.15748    266004.23946  23590939.7614   23590947.1914
     -2757.1834      -2148.4564
  24092127.5494   -7750805.70248  -5841870.87746  24092125.7334   24092136.4884
      2168.9894       1690.1104
 00  7 15  0  9 30.0000000  0  7G20G15G25G11G21G29G 1
  22721914.0584  -12394092.69048  -9286345.99046  22721912.3234   22721917.9884
      2490.4164       1940.5794
  23025276.1334   -4352093.24047  -3377325.93945  23025274.5294   23025283.7884
     -3985.3704      -3105.4754
  20731096.8404  -21534825.76149 -15738433.77447  20731095.5444   20731100.4794
      -386.2404       -300.9674
  20911831.2104  -18647793.11549 -14285146.95647  20911829.6234   20911834.8724
      -710.6744       -553.7724
  23296864.0604   -4956606.89747  -3212453.53145  23296862.8054   23296872.6674
     -2776.1964      -2163.2674
  23606684.2884     109434.73748    330467.99546  23606683.4754   23606690.8064
     -2756.5844      -2147.9834
  24079762.4894   -7815785.17948  -5892504.01546  24079760.6634   24079770.4604
      2164.5314       1686.6454
 00  7 15  0 10  0.0000000  0  7G20G15G25G11G21G29G 1
  22707702.6614  -12468774.85748  -9344539.82846  22707700.9704   22707706.5364
      2488.3584       1938.9784
  23048040.0464   -4232464.19747  -3284108.67245  23048038.5374   23048049.0244
     -3989.9934      -3109.0754
  20733349.4084  -21522987.98749 -15729209.52147  20733348.0354   20733353.0574
      -402.9724       -314.0054
  20915941.2954  -18626196.29849 -14268318.28047  20915939.6174   20915944.6304
      -729.1274       -568.1514
  23312737.0014   -4873200.43747  -3147461.61045  23312734.8754   23312744.1594
     -2784.3054      -2169.5844
  23622419.1934     192119.64448    394897.73246  23622417.7404   23622424.9764
     -2755.8794      -2147.4384
  24067417.5274   -7880656.97447  -5943053.27646  24067416.2304   24067425.1614
      2160.2104       1683.2774
 00  7 15  0 10 30.0000000  0  7G20G15G25G11G21G29G 1
  22693500.5624  -12543405.12048  -9402693.20846  22693498.9084   22693505.0734
      2485.6224       1936.8454
  23070829.5324   -4112708.18547  -3190792.46445  23070828.1544   23070837.2604
     -3995.1194      -3113.0734
  20735695.7684  -21510658.65049 -15719602.22747  20735694.3274   20735699.4174
      -420.2954       -327.5034
  20920154.0024  -18604056.73849 -14251066.68647  20920152.4154   20920157.5974
      -748.2024       -583.0134
  23328653.0924   -4789561.75447  -3082288.72545  23328651.4254   23328660.0764
     -2792.9954      -2176.3514
  23638147.5394     274772.57248    459302.53046  23638146.2684   23638153.6534
     -2755.7134      -2147.3054
  24055095.1074   -7945409.33947  -5993509.47545  24055092.5614   24055102.0704
      2155.2774       1679.4314
 00  7 15  0 11  0.0000000  0  7G20G15G25G11G21G29G 1
  22679313.8064  -12617958.88848  -9460786.98846  22679311.3554   22679317.6714
      2485.6354       1936.8564
  23093646.0154   -3992805.20447  -3097361.73945  23093644.6194   23093654.4964
     -3997.4354      -3114.8844
  20738139.6494  -21497815.34849 -15709594.44047  20738138.3114   20738143.4474
      -434.8934       -338.8774
  20924474.6394  -18581351.94349 -14233374.65047  20924473.0144   20924477.9954
      -764.4734       -595.6934
  23344617.5314   -4705667.88347  -3016916.99645  23344615.4554   23344624.9154
     -2798.8834      -2180.9434
  23653874.5704     357415.77048    523699.76146  23653872.9564   23653879.7884
     -2752.8504      -2145.0754
  24042799.1614   -8010019.17947  -6043854.60445  24042797.5404   24042807.4304
      2153.0624       1677.7044
 00  7 15  0 11 30.0000000  0  7G20G15G25G11G21G29G 1
  22665143.8614  -12692419.94748  -9518808.52146  22665141.8284   22665147.4894
      2478.8544       1931.5744
  23116493.2744   -3872743.31247  -3003807.18345  23116491.4654   23116501.7284
     -4006.2884      -3121.7754
  20740684.0554  -21484443.96949 -15699175.16647  20740682.6894   20740687.7484
      -456.1034       -355.4064
  20928905.5504  -18558067.70849 -14215231.10747  20928903.9084   20928908.7524
      -787.4104       -613.5654
  23360632.5464   -4621505.34547  -2951335.92845  23360631.2124   23360641.2964
     -2811.4784      -2190.7574
  23669600.4334     440063.48248    588100.49446  23669599.2924   23669607.2164
     -2756.6244      -2148.0174
  24030534.4304   -8074471.77647  -6094077.19945  24030532.2524   24030543.1814
      2144.1784       1670.7844
 00  7 15  0 12  0.0000000  0  7G20G15G25G11G21G29G 1
  22650997.8064  -12766760.51448  -9576736.18546  22650995.6454   22651000.8914
      2476.5054       1929.7404
  23139375.3604   -3752498.63847  -2910110.19245  23139372.8774   23139384.1484
     -4010.6564      -3125.1814
  20743333.9974  -21470518.75549 -15688324.33147  20743332.4964   20743337.4814
      -472.8724       -368.4734
  20933451.4794  -18534178.51749 -14196616.17047  20933449.8954   20933454.8094
      -805.9014       -627.9744
  23376705.2734   -4537047.44847  -2885524.69945  23376703.4494   23376712.6454
     -2819.6894      -2197.1574
  23685333.7474     522741.69947    652525.00146  23685332.7444   23685340.0064
     -2755.9464      -2147.4864
  24018304.9824   -8138740.69848  -6144156.67446  24018302.8464   24018313.7914
      2139.7594       1667.3394
 00  7 15  0 12 30.0000000  0  7G20G15G25G11G21G29G 1
  22636862.9444  -12841037.40448  -9634614.22046  22636861.1154   22636866.6914
      2472.3274       1926.4864
  23162280.5494   -3632132.72447  -2816318.75745  23162278.5614   23162289.1134
     -4016.6764      -3129.8684
  20746078.0394  -21456098.77149 -15677087.96647  20746076.6154   20746081.5174
      -491.3494       -382.8694
  20938101.0754  -18509743.67849 -14177576.04947  20938099.5724   20938104.5894
      -826.0724       -643.6924
  23392821.4794   -4452353.43347  -2819529.48745  23392819.5694   23392829.7944
     -2829.5484      -2204.8384
  23701062.5274     605391.38648    716927.26946  23701060.9644   23701068.3654
     -2757.0004      -2148.3084
  24006099.2874   -8202884.53948  -6194138.71646  24006097.3814   24006107.5744
      2133.5624       1662.5124
 00  7 15  0 13  0.0000000  0  7G20G15G25G11G21G29G 1
  22622753.9104  -12915180.66148  -9692388.12546  22622751.9284   22622757.7794
      2472.0354       1926.2594
  23185221.8454   -3511580.02547  -2722381.77045  23185219.3944   23185230.0044
     -4018.6514      -3131.4084
  20748929.2124  -21441116.54549 -15665413.48347  20748927.8384   20748932.6584
      -505.9074       -394.2134
  20942867.6794  -18484695.47149 -14158057.98047  20942866.0294   20942871.1914
      -842.3534       -656.3784
  23408996.6934   -4367355.23747  -2753297.24445  23408994.7394   23409004.0494
     -2835.4834      -2209.4664
  23716797.2984     688080.23048    781360.08746  23716795.8144   23716803.5054
     -2754.0814      -2146.0354
  23993929.3484   -8266834.88448  -6243969.98146  23993927.3374   23993937.5104
      2131.3064       1660.7484
 00  7 15  0 13 30.0000000  0  7G20G15G25G11G21G29G 1
  22608655.4004  -12989268.07048  -9750118.50846  22608653.5454   22608659.5404
      2465.1604       1920.9034
  23208182.6904   -3390922.68347  -2628363.23545  23208180.2324   23208189.7144
     -4027.1134      -3138.0004
  20751871.8624  -21425651.94449 -15653363.12947  20751870.5304   20751875.4684
      -526.9894       -410.6414
  20947735.7364  -18459114.01849 -14138124.39547  20947734.1274   20947739.2644
      -865.1174       -674.1164
  23425213.8254   -4282132.53947  -2686890.07245  23425211.9744   23425221.7354
     -2847.9444      -2219.1704
  23732524.7344     770728.50148    845761.25546  23732523.3734   23732531.3904
     -2757.7874      -2148.9214
  23981780.7614   -8330671.21048  -6293712.40646  23981779.1134   23981789.0364
      2122.5144       1653.9014
 00  7 15  0 14  0.0000000  0  7G20G15G25G11G21G29G 1
  22594597.8364  -13063139.22448  -9807680.39446  22594596.0194   22594602.1214
      2460.7254       1917.4474
  23231191.1054   -3270004.59147  -2534141.52745  23231189.1314   23231199.7754
     -4032.9604      -3142.5624
  20754936.6824  -21409547.06049 -15640813.85347  20754935.1404   20754940.0244
      -545.5494       -425.1044
  20952735.1804  -18432841.22749 -14117652.10947  20952733.7754   20952738.9044
      -885.3264       -689.8644
  23441504.1384   -4196527.90047  -2620185.27945  23441502.4194   23441512.1704
     -2857.9094      -2226.9404
  23748274.8094     853494.58548    910254.23746  23748273.3914   23748281.6284
     -2758.8614      -2149.7594
  23969685.0794   -8394234.59447  -6343242.15645  23969683.6784   23969692.9704
      2116.0854       1648.8954
 00  7 15  0 14 30.0000000  0  7G20G15G25G11G21G29G 1
  22580567.6364  -13136870.99048  -9865133.65146  22580565.2354   22580571.5634
      2455.1624       1913.1124
  23254236.9084   -3148906.80347  -2439779.78545  23254234.8754   23254243.9874
     -4039.7884      -3147.8834
  20758108.0004  -21392880.78549 -15627827.12647  20758106.6904   20758111.5804
      -565.0824       -440.3254
  20957851.5264  -18405956.18549 -14096702.73647  20957849.7754   20957855.0894
      -906.6204       -706.4564
  23457852.5724   -4110619.47547  -2553243.76645  23457850.1244   23457860.0584
     -2868.8754      -2235.4794
  23764031.6904     936299.71248    974777.62746  23764030.1034   23764038.6504
     -2761.0804      -2151.4834
  23957625.7864   -8457603.31247  -6392620.18745  23957624.0784   23957633.7184
      2108.8544       1643.2534
 00  7 15  0 15  0.0000000  0  7G20G15G25G11G21G29G 1
  22566558.9054  -13210488.55848  -9922497.93546  22566556.7974   22566562.6844
      2450.8264       1909.7354
  23277309.9714   -3027659.15347  -2345301.27145  23277307.8954   23277317.6884
     -4045.1744      -3152.0794
  20761381.3404  -21375680.92249 -15614424.61947  20761379.6634   20761384.6044
      -583.3644       -454.5704
  20963078.7254  -18378486.84449 -14075298.07247  20963077.0624   20963082.2394
      -926.5594       -721.9944
  23474252.1054   -4024434.35947  -2486086.66045  23474250.3504   23474260.0244
     -2878.6164      -2243.0724
  23779792.0384    1019116.73248   1039310.26646  23779790.5394   23779797.7164
     -2761.9314      -2152.1514
  23945599.4014   -8520804.27047  -6441867.52646  23945597.7714   23945607.0174
      2102.7504       1638.5014
 00  7 15  0 15 30.0000000  0  7G20G15G25G11G21G29G 1
  22552589.1244  -13283899.30048  -9979701.05446  22552586.9814   22552593.1294
      2446.1904       1906.1194
  23300426.4424   -2906173.50947  -2250637.31745  23300425.5344   23300435.5414
     -4050.8354      -3156.4884
  20764773.0594  -21357856.80749 -15600535.67647  20764771.4584   20764776.4194
      -601.8774       -468.9954
  20968434.3844  -18350342.82849 -14053367.68147  20968432.7214   20968438.0744
      -946.7004       -737.6884
  23490722.6024   -3937882.15047  -2418643.48945  23490721.0374   23490730.5514
     -2888.5324      -2250.7954
  23795570.9674    1102035.77248   1103922.44546  23795569.6354   23795577.1454
     -2763.0024      -2152.9894
  23933622.2994   -8583746.36048  -6490913.15346  23933620.4454   23933630.0734
      2096.4164       1633.5624
 00  7 15  0 16  0.0000000  0  7G20G15G25G11G21G29G 1
  22538630.6104  -13357249.61748 -10036857.08746  22538628.6144   22538634.6714
      2443.6704       1904.1554
  23323561.6534   -2784600.32947  -2155905.17145  23323559.5624   23323569.7294
     -4054.1884      -3159.1034
  20768255.1184  -21339557.33149 -15586276.32947  20768253.8114   20768258.7334
      -618.2244       -481.7334
  20973890.1184  -18321673.00149 -14031027.57747  20973888.3744   20973893.6654
      -964.7154       -751.7264
  23507234.4764   -3851111.67547  -2351030.24745  23507232.7054   23507242.9744
     -2896.2764      -2256.8324
  23811341.4374    1184908.87747   1168498.85446  23811339.8454   23811346.4354
     -2761.9494      -2152.1704
  23921667.0114   -8646577.43248  -6539872.28146  23921664.9004   23921673.5684
      2092.2134       1630.2884
 00  7 15  0 16 30.0000000  0  7G20G15G25G11G21G29G 1
  22524702.9564  -13430443.07648 -10093890.91146  22524700.7894   22524706.4014
      2435.6874       1897.9364
  23346730.6884   -2662847.71447  -2061033.19645  23346729.2244   23346738.9784
     -4062.8674      -3165.8634
  20771845.4644  -21320689.11349 -15571573.80847  20771844.0534   20771849.0954
      -639.8954       -498.6204
  20979463.7514  -18292383.55349 -14008204.64747  20979462.0394   20979467.3504
      -988.1194       -769.9624
  23523806.2994   -3764028.82947  -2283173.62745  23523804.8564   23523814.4774
     -2909.3994      -2267.0574
  23827120.6774    1267830.04647   1233112.70946  23827118.9734   23827126.8704
     -2766.3454      -2155.5894
  23909748.2814   -8709203.21348  -6588671.41646  23909745.9124   23909756.8824
      2082.6624       1622.8484
 00  7 15  0 17  0.0000000  0  7G20G15G25G11G21G29G 1
  22510815.4394  -13503419.60948 -10150755.69146  22510813.3244   22510819.3034
      2428.7644       1892.5424
  23369944.8534   -2540859.93247  -1965977.93945  23369942.3844   23369952.6204
     -4070.3114      -3171.6704
  20775555.1584  -21301193.85349 -15556382.68747  20775553.8464   20775558.6364
      -660.4194       -514.6134
  20985166.2984  -18262416.70349 -13984853.87647  20985164.6844   20985169.8844
     -1010.3514       -787.2864
  23540448.3124   -3676575.74147  -2215028.49145  23540446.5694   23540455.9694
     -2921.3914      -2276.4044
  23842919.5264    1350857.57347   1297809.39346  23842918.5534   23842926.7524
     -2769.4634      -2158.0214
  23897880.9114   -8771565.03948  -6637264.86146  23897878.9804   23897889.8514
      2074.1464       1616.2154
 00  7 15  0 17 30.0000000  0  7G20G15G25G11G21G29G 1
  22496958.7074  -13576236.16148 -10207495.80546  22496956.7454   22496962.7594
      2424.9364       1889.5594
  23393191.4624   -2418698.39747  -1870787.32945  23393188.9094   23393200.2274
     -4074.4864      -3174.9144
  20779373.0544  -21281131.33049 -15540749.53447  20779371.6484   20779376.6264
      -677.8184       -528.1714
  20990986.6684  -18231832.22749 -13961021.83147  20990984.8704   20990989.9964
     -1029.3664       -802.1044
  23557149.4664   -3588810.89547  -2146640.44245  23557147.6704   23557157.3234
     -2930.2574      -2283.3164
  23858728.6604    1433932.40948   1362542.93746  23858727.2964   23858735.8864
     -2769.5614      -2158.0974
  23886052.2714   -8833721.62448  -6685698.37846  23886050.5074   23886060.7794
      2068.8704       1612.1024
 00  7 15  0 18  0.0000000  0  7G20G15G25G11G21G29G 1
  22483133.0714  -13648891.86048 -10264110.58346  22483130.9844   22483137.0294
      2420.3304       1885.9714
  23416469.7604   -2296366.67147  -1775464.11845  23416467.9374   23416479.1104
     -4079.3784      -3178.7274
  20783298.7714  -21260503.12249 -15524675.58947  20783297.2034   20783301.9294
      -695.8404       -542.2124
  20996923.6794  -18200631.92149 -13936709.92247  20996922.0004   20996927.2684
     -1049.1114       -817.4894
  23573909.6274   -3500735.65147  -2078010.53045  23573907.7864   23573917.4064
     -2939.8874      -2290.8174
  23874546.8454    1517053.10548   1427312.21046  23874545.3144   23874552.8174
     -2770.3114      -2158.6844
  23874264.5054   -8895673.78348  -6733972.62346  23874262.2674   23874271.5324
      2062.8684       1607.4224
 00  7 15  0 18 30.0000000  0  7G20G15G25G11G21G29G 1
  22469322.7644  -13721464.79048 -10320660.87346  22469320.5984   22469326.8164
      2418.5094       1884.5504
  23439766.6104   -2173947.38847  -1680072.68245  23439764.2374   23439775.0774
     -4081.2664      -3180.1984
  20787316.2914  -21239389.83349 -15508223.66047  20787314.9264   20787319.4464
      -711.0444       -554.0604
  21002962.8034  -18168896.35849 -13911980.93147  21002961.0474   21002966.1504
     -1065.9774       -830.6304
  23590713.1844   -3412430.53847  -2009201.49545  23590711.8834   23590721.6814
     -2946.4994      -2295.9684
  23890357.6494    1600139.84148   1492055.06446  23890356.1594   23890363.8414
     -2768.1934      -2157.0344
  23862498.2984   -8957501.23348  -6782149.70246  23862496.5874   23862505.5204
      2059.6314       1604.9004
 00  7 15  0 19  0.0000000  0  7G20G15G25G11G21G29G 1
  22455525.9394  -13793967.86448 -10377156.71746  22455523.7764   22455530.2934
      2415.9704       1882.5704
  23463075.5214   -2051457.82447  -1584626.44145  23463073.5354   23463083.3914
     -4083.6864      -3182.0924
  20791423.1994  -21217806.85449 -15491405.74147  20791421.9664   20791426.5414
      -726.8574       -566.3834
  21009100.5814  -18136641.46349 -13886847.26547  21009098.9224   21009104.0794
     -1083.4854       -844.2744
  23607558.7744   -3323910.48547  -1940224.97445  23607556.8194   23607566.4924
     -2953.8504      -2301.6984
  23906158.7604    1683177.34547   1556759.53946  23906157.6174   23906165.5214
     -2766.7374      -2155.9004
  23850753.5154   -9019218.75648  -6830241.12046  23850751.9234   23850761.1234
      2055.8224       1601.9344
 00  7 15  0 19 30.0000000  0  7G20G15G25G11G21G29G 1
  22441744.0574  -13866389.49548 -10433589.09946  22441742.1784   22441748.3654
      2412.1394       1879.5874
  23486399.4254   -1928890.55247  -1489119.65645  23486397.3184   23486407.6484
     -4087.3824      -3184.9664
  20795621.4584  -21195745.19749 -15474214.82547  20795620.2024   20795625.0214
      -743.8684       -579.6384
  21015339.1994  -18103858.13149 -13861301.82847  21015337.3934   21015342.5554
     -1102.1254       -858.7984
  23624445.7844   -3235166.41347  -1871073.89545  23624444.2904   23624453.4924
     -2962.3724      -2308.3314
  23921952.5604    1766175.52047   1621433.38645  23921951.2204   23921959.0324
     -2766.4684      -2155.6884
  23839031.5904   -9080816.35748  -6878239.06246  23839029.5394   23839039.3414
      2050.7464       1597.9794
 00  7 15  0 20  0.0000000  0  7G20G15G25G11G21G29G 1
  22427986.2804  -13938687.02348 -10489924.79246  22427984.4334   22427990.3864
      2407.5284       1875.9934
  23509744.9924   -1806207.56847  -1393522.74245  23509743.3954   23509753.6514
     -4091.5984      -3188.2494
  20799918.3694  -21173164.96749 -15456619.83147  20799917.0134   20799921.8344
      -761.5944       -593.4494
  21021685.5864  -18070506.37349 -13835313.46147  21021683.8474   21021689.2874
     -1121.5064       -873.8994
  23641383.4294   -3146158.02747  -1801716.87445  23641382.0684   23641392.4854
     -2971.6324      -2315.5504
  23937746.0774    1849174.56247   1686107.86945  23937744.9444   23937753.4094
     -2766.9714      -2156.0764
  23827340.4314   -9142253.11448  -6926111.66046  23827338.7884   23827348.5484
      2044.9304       1593.4444
 00  7 15  0 20 30.0000000  0  7G20G15G25G11G21G29G 1
  22414249.1594  -14010875.55748 -10546175.55046  22414247.5314   22414253.5534
      2404.8724       1873.9254
  23533110.4044   -1683428.28047  -1297850.78345  23533107.6954   23533118.7354
     -4093.7384      -3189.9144
  20804310.2974  -21150083.86649 -15438634.54947  20804308.9954   20804313.8114
      -777.2844       -605.6774
  21028136.7574  -18036604.31249 -13808896.28647  21028135.0734   21028140.7324
     -1138.8484       -887.4124
  23658369.0604   -3056902.70147  -1732167.41445  23658366.6914   23658377.1224
     -2978.8414      -2321.1714
  23953538.3014    1932157.48947   1750769.81445  23953536.8224   23953544.5014
     -2765.3654      -2154.8294
  23815676.4894   -9203545.83448  -6973872.02746  23815674.4664   23815684.8744
      2041.1304       1590.4824
 00  7 15  0 21  0.0000000  0  7G20G15G25G11G21G29G 1
  22400529.5784  -14082973.96648 -10602356.07446  22400527.5384   22400533.3644
      2400.1554       1870.2514
  23556488.0784   -1560576.43847  -1202122.27645  23556485.7474   23556495.7714
     -4097.8284      -3193.1084
  20808793.4514  -21126523.67349 -15420275.94447  20808792.3034   20808797.1774
      -794.8944       -619.3994
  21034688.6624  -18002173.61549 -13782067.18947  21034687.1064   21034692.4624
     -1158.1224       -902.4324
  23675396.8874   -2967421.69147  -1662442.11545  23675395.6584   23675404.7174
     -2987.9994      -2328.3094
  23969322.5694    2015103.23648   1815402.80046  23969321.5564   23969328.7434
     -2765.8274      -2155.1894
  23804036.5464   -9264715.47348  -7021536.48546  23804034.8934   23804044.1124
      2035.3494       1585.9824
 00  7 15  0 21 30.0000000  0  7G20G15G25G11G21G29G 1
  22386834.5924  -14154939.89748 -10658433.37146  22386832.5464   22386838.5794
      2396.8934       1867.7074
  23579886.6664   -1437613.81647  -1106307.44045  23579884.1094   23579894.7664
     -4100.3104      -3195.0394
  20813375.8704  -21102444.26449 -15401512.76047  20813374.6324   20813379.4664
      -811.0524       -631.9884
  21041348.8654  -17967174.49849 -13754795.16947  21041347.3094   21041352.7244
     -1175.8984       -916.2834
  23692474.4984   -2877674.80247  -1592509.62245  23692472.8554   23692483.5594
     -2995.7484      -2334.3454
  23985107.4024    2098052.23248   1880038.29146  23985106.0074   23985113.8734
     -2764.8244      -2154.4054
  23792427.5884   -9325720.95248  -7069073.07546  23792425.8374   23792433.8834
      2031.0134       1582.6074
 00  7 15  0 22  0.0000000  0  8G20G22G15G25G11G21G29G 1
  22373170.4504  -14226744.69448 -10714385.11546  22373168.6414   22373174.5904
      2390.1254       1862.4324
  24619339.1484   -1272740.76956   -979794.62744  24619337.5644   24619351.7614
      2877.3854       2242.1054
  23603311.2384   -1314516.58747  -1010387.73445  23603308.8694   23603320.4984
     -4106.0994      -3199.5454
  20818061.5774  -21077820.25149 -15382325.21047  20818060.2934   20818065.2924
      -830.5064       -647.1474
  21048122.0174  -17931581.49249 -13727060.37847  21048120.3624   21048125.7894
     -1197.0184       -932.7424
  23709608.6214   -2787635.76647  -1522349.48545  23709606.5114   23709617.4024
     -3006.7994      -2342.9584
  24000897.4054    2181030.99047   1944696.95945  24000896.4364   24000903.7644
     -2767.1264      -2156.2024
  23780854.3894   -9386535.88448  -7116461.15646  23780852.6104   23780862.3744
      2023.3274       1576.6144
 00  7 15  0 22 30.0000000  0  8G20G22G15G25G11G21G29G 1
  22359547.2614  -14298335.54648 -10770170.13546  22359545.2864   22359551.4834
      2384.1674       1857.7894
  24602914.9964   -1359053.81346  -1047051.22144  24602911.6364   24602928.7574
      2878.2014       2242.7514
  23626772.0104   -1191236.29047   -914325.37745  23626769.3914   23626780.6204
     -4110.9124      -3203.2954
  20822860.8064  -21052601.59549 -15362674.30147  20822859.3304   20822864.1204
      -849.1034       -661.6404
  21055017.6644  -17895344.62849 -13698823.87747  21055016.0904   21055021.4884
     -1217.2404       -948.4984
  23726808.6104   -2697254.08747  -1451922.38645  23726807.2464   23726816.1794
     -3016.9814      -2350.8944
  24016702.3834    2264090.24147   2009418.39645  24016701.4204   24016709.1404
     -2768.5674      -2157.3204
  23769327.4824   -9447109.10948  -7163660.88846  23769325.7624   23769335.4574
      2016.5214       1571.3044
 00  7 15  0 23  0.0000000  0  8G20G22G15G25G11G21G29G 1
  22345950.6364  -14369788.28248 -10825847.54146  22345948.3474   22345954.1194
      2378.3774       1853.2804
  24586476.2664   -1445435.23346  -1114361.06444  24586473.0744   24586489.4044
      2879.4874       2243.7254
  23650250.2504   -1067852.93647   -818182.71845  23650248.0664   23650259.0344
     -4115.5334      -3206.8954
  20827757.8534  -21026866.14649 -15342620.69447  20827756.6024   20827761.4374
      -867.5134       -675.9844
  21062021.2254  -17858542.47749 -13670146.89447  21062019.5714   21062024.6144
     -1237.2104       -964.0594
  23744058.2664   -2606607.60947  -1381288.93545  23744056.3194   23744065.9314
     -3026.9694      -2358.6624
  24032509.5864    2347152.36547   2074142.03745  24032508.4814   24032515.5644
     -2769.8314      -2158.3034
  23757832.1584   -9507518.19348  -7210732.71546  23757830.4864   23757840.0384
      2009.8344       1566.1014
 00  7 15  0 23 30.0000000  0  8G20G22G15G25G11G21G29G 1
  22332401.9834  -14440986.97848 -10881326.99646  22332400.2144   22332405.5014
      2371.3024       1847.7654
  24570048.7614   -1531768.09646  -1181633.24444  24570047.2144   24570055.9334
      2879.1054       2243.4664
  23673769.4534    -944255.34547   -721873.13245  23673767.1834   23673778.6814
     -4121.1584      -3211.2794
  20832775.1054  -21000501.39149 -15322076.72247  20832773.7074   20832778.4984
      -887.0204       -691.1854
  21069153.2294  -17821062.46849 -13640941.70947  21069151.7594   21069156.8714
     -1258.3984       -980.5704
  23761379.2284   -2515583.31747  -1310361.09145  23761377.3284   23761387.7244
     -3038.1454      -2367.3754
  24048337.8194    2430330.84647   2138956.34845  24048336.4874   24048344.7634
     -2772.3084      -2160.2384
  23746389.4274   -9567649.27048  -7257587.95446  23746387.9554   23746396.7834
      2001.9984       1559.9954
 00  7 15  0 24  0.0000000  0  8G20G22G15G25G11G21G29G 1
  22318873.5934  -14512080.69448 -10936724.64746  22318871.3354   22318876.6214
      2369.0054       1845.9754
  24553601.0184   -1618200.87646  -1248983.23644  24553598.8834   24553609.2554
      2883.6764       2247.0194
  23697301.7504    -820597.00647   -625516.19445  23697299.8584   23697310.5774
     -4121.9314      -3211.8814
  20837882.8424  -20973659.26849 -15301160.76847  20837881.5224   20837886.2544
      -901.6844       -702.6134
  21076385.5004  -17783056.34349 -13611326.57047  21076383.9794   21076389.2614
     -1274.6264       -993.2154
  23778743.3364   -2424332.74347  -1239256.92445  23778740.7274   23778751.6864
     -3044.4324      -2372.2794
  24064159.9034    2513474.57647   2203743.58246  24064158.5094   24064166.3824
     -2769.9074      -2158.3654
  23734971.2914   -9627653.04948  -7304343.98346  23734969.1744   23734978.0164
      1999.0014       1557.6594
 00  7 15  0 24 30.0000000  0  8G20G22G15G25G11G21G29G 1
  22305352.6864  -14583133.17748 -10992090.17346  22305350.6394   22305355.7764
      2368.5494       1845.6224
  24537120.8514   -1704796.25246  -1316459.86244  24537120.4744   24537134.2124
      2889.9534       2251.9054
  23720831.4484    -696946.17047   -529165.08545  23720829.8024   23720841.3294
     -4120.6744      -3210.9074
  20843069.0014  -20946406.01649 -15279924.46047  20843067.5974   20843072.6024
      -914.4244       -712.5384
  21083705.5534  -17744590.81749 -13581353.45247  21083703.9574   21083709.0224
     -1289.0004      -1004.4154
  23796138.2984   -2332922.10147  -1168028.01945  23796136.8134   23796148.0794
     -3048.8064      -2375.6874
  24079962.0954    2596517.89347   2268452.58145  24079960.3524   24079968.9544
     -2765.6174      -2155.0254
  23723564.3444   -9687595.09848  -7351051.92946  23723562.5354   23723571.7984
      1997.9154       1556.8134
 00  7 15  0 25  0.0000000  0  8G20G22G15G25G11G21G29G 1
  22291839.5704  -14654139.85548 -11047420.00346  22291837.6644   22291843.5314
      2364.5114       1842.4724
  24520611.6214   -1791548.30446  -1384058.53144  24520608.5934   24520625.0014
      2892.6474       2254.0094
  23744359.2904    -573302.84547   -432819.87445  23744358.4134   23744370.7504
     -4122.8874      -3212.6324
  20848333.7194  -20918739.81249 -15258366.37547  20848332.3784   20848337.1194
      -930.6804       -725.2074
  21091113.2604  -17705664.54349 -13551021.30947  21091111.4154   21091116.5814
     -1306.8554      -1018.3284
  23813564.2604   -2241348.86147  -1096672.44045  23813562.4794   23813573.4764
     -3056.7174      -2381.8554
  24095746.5454    2679463.22647   2333085.23445  24095745.1564   24095753.3984
     -2764.8204      -2154.4004
  23712169.8234   -9747472.76248  -7397709.69146  23712168.0634   23712176.8924
      1993.2964       1553.2124
 00  7 15  0 25 30.0000000  0  8G20G22G15G25G11G21G29G 1
  22278365.3924  -14724948.35248 -11102595.39946  22278363.4294   22278369.3084
      2355.3694       1835.3514
  24504102.3784   -1878303.11546  -1451659.35445  24504102.3574   24504115.1444
      2890.1824       2252.0894
  23767916.6064    -449518.95147   -336365.12245  23767913.5634   23767926.1954
     -4130.0284      -3218.2014
  20853705.7304  -20890511.48149 -15236370.26847  20853704.2764   20853708.7084
      -951.8434       -741.6964
  21098636.5074  -17666128.18549 -13520213.77847  21098634.8074   21098639.9814
     -1329.6174      -1036.0654
  23831050.2994   -2149463.05047  -1025073.28045  23831048.6204   23831059.0224
     -3069.6034      -2391.8904
  24111540.0504    2762460.97547   2397758.69545  24111538.6694   24111547.1184
     -2769.0224      -2157.6724
  23700816.0504   -9807135.41748  -7444199.93246  23700814.3624   23700823.3154
      1983.6384       1545.6854
 00  7 15  0 26  0.0000000  0  8G20G22G15G25G11G21G29G 1
  22264941.6314  -14795492.00448 -11157564.43446  22264939.4864   22264945.1354
      2346.6624       1828.5674
  24487608.1654   -1964993.46147  -1519209.93645  24487605.6404   24487618.0474
      2888.2014       2250.5434
  23791510.2354    -325532.76047   -239752.71745  23791508.3414   23791518.7474
     -4136.5484      -3223.2784
  20859196.1154  -20861657.48349 -15213886.62647  20859194.9374   20859199.4254
      -972.5774       -757.8514
  21106288.1004  -17625918.56349 -13488881.62747  21106286.4794   21106291.5124
     -1351.9094      -1053.4354
  23848607.1954   -2057200.69347   -953180.73445  23848606.2564   23848616.3094
     -3082.0174      -2401.5684
  24127355.3334    2845575.63947   2462523.25345  24127354.2264   24127362.8374
     -2772.7854      -2160.6114
  23689516.0854   -9866518.44948  -7490472.28046  23689514.3754   23689523.4504
      1974.4304       1538.5144
 00  7 15  0 26 30.0000000  0  8G20G22G15G25G11G21G29G 1
  22251558.2344  -14865819.04248 -11212364.67546  22251556.5594   22251562.3264
      2340.8614       1824.0444
  24471114.7604   -2051666.99946  -1586747.43245  24471111.4834   24471123.7564
      2889.0864       2251.2144
  23815132.2974    -201397.04847   -143023.77645  23815131.0364   23815141.5784
     -4140.0064      -3225.9754
  20864796.4014  -20832228.86149 -15190955.22347  20864795.0894   20864799.6414
      -990.2274       -771.6064
  21114058.0784  -17585086.85149 -13457064.73047  21114056.4384   21114061.7074
     -1371.1734      -1068.4454
  23866226.3514   -1964613.30047   -881034.90845  23866224.5574   23866234.3764
     -3091.4194      -2408.8924
  24143186.5244    2928756.58547   2527339.53045  24143184.6444   24143191.5034
     -2773.5574      -2161.2074
  23678259.0564   -9925672.17248  -7536565.95046  23678257.5744   23678266.3334
      1968.2534       1533.6994
 00  7 15  0 27  0.0000000  0  8G20G22G15G25G11G21G29G 1
  22238201.3364  -14936011.24848 -11267059.85846  22238199.5984   22238205.1574
      2337.0824       1821.1024
  24454606.5124   -2138404.02446  -1654334.47444  24454603.8764   24454615.8884
      2891.7734       2253.3264
  23838767.1334     -77197.61847    -46245.22745  23838765.1304   23838776.6894
     -4141.4074      -3227.0644
  20870489.8544  -20802310.33949 -15167642.08147  20870488.4764   20870493.0844
     -1005.8134       -783.7514
  21121930.0774  -17543717.92549 -13424829.22547  21121928.4394   21121934.1674
     -1388.3204      -1081.8084
  23883891.0084   -1871784.17547   -808700.69245  23883889.7664   23883900.3404
     -3098.7054      -2414.5684
  24159011.2674    3011920.43247   2592142.49145  24159009.7594   24159017.6704
     -2772.2124      -2160.1614
  23667030.0624   -9984680.07548  -7582545.98746  23667028.2764   23667037.1754
      1964.1374       1530.4934
 00  7 15  0 27 30.0000000  0  8G20G22G15G25G11G21G29G 1
  22224886.3884  -15005980.61748 -11321581.39946  22224884.4664   22224890.5834
      2328.6864       1814.5594
  24438105.3504   -2225115.19346  -1721901.35544  24438102.6294   24438115.6064
      2889.9674       2251.9184
  23862429.4534      47148.82347     50647.86345  23862427.1544   23862439.6684
     -4147.2104      -3231.5864
  20876292.6914  -20771816.74849 -15143880.83647  20876291.3484   20876295.9604
     -1025.9004       -799.4034
  21129920.4544  -17501726.99849 -13392109.05047  21129918.9404   21129924.6394
     -1409.9784      -1098.6824
  23901617.7734   -1778628.37047   -736111.92945  23901616.7664   23901627.4264
     -3110.4964      -2423.7574
  24174850.1334    3095152.90647   2656998.86645  24174848.7844   24174856.9684
     -2775.4644      -2162.6944
  23655845.1934  -10043455.99748  -7628345.23946  23655843.4574   23655852.5354
      1955.4474       1523.7194
 00  7 15  0 28  0.0000000  0  8G20G22G15G25G11G21G29G 1
  22211601.2724  -15075795.18648 -11375982.31446  22211599.2564   22211604.9644
      2322.9024       1810.0544
  24421598.0384   -2311867.39046  -1789500.19044  24421596.8744   24421607.5254
      2890.7504       2252.5134
  23886106.2364     171569.40847    147598.75145  23886103.9494   23886115.4174
     -4150.2064      -3233.9264
  20882190.9494  -20740819.69349 -15119727.28447  20882189.7034   20882194.2994
     -1043.2784       -812.9434
  21138016.2884  -17459185.56149 -13358959.90547  21138014.4594   21138020.0334
     -1428.9064      -1113.4324
  23919393.2554   -1685216.64447   -663323.75245  23919391.7484   23919402.8804
     -3119.6784      -2430.9044
  24190688.1924    3178383.86247   2721854.07045  24190687.2254   24190695.1534
     -2776.0164      -2163.1314
  23644691.4354  -10102069.89748  -7674018.24746  23644690.1484   23644698.7164
      1949.4874       1519.0754
 00  7 15  0 28 30.0000000  0  8G20G22G15G25G11G21G29G 1
  22198362.3114  -15145365.99548 -11430193.29046  22198360.4064   22198366.1284
      2314.8374       1803.7674
  24405099.3074   -2398570.79746  -1857060.90844  24405097.5884   24405109.1104
      2889.0874       2251.2224
  23909813.1004     296148.71347    244673.33945  23909810.9594   23909822.3204
     -4155.2714      -3237.8724
  20888201.9044  -20709232.90249 -15095114.19847  20888200.5714   20888205.0614
     -1062.8074       -828.1624
  21146232.6964  -17416007.62949 -13325314.79247  21146231.0104   21146236.7374
     -1450.0114      -1129.8774
  23937235.2804   -1591462.29647   -590268.61545  23937232.8694   23937243.8214
     -3130.9814      -2439.7114
  24206542.4004    3261700.33547   2786775.89645  24206541.3024   24206549.6744
     -2778.7434      -2165.2524
  23633585.4104  -10160434.78848  -7719497.22546  23633583.6554   23633592.4294
      1941.2324       1512.6434
 00  7 15  0 29  0.0000000  0  8G20G22G15G25G11G21G29G 1
  22185174.1054  -15214674.18948 -11484199.63646  22185171.9364   22185177.2254
      2307.2984       1797.8944
  24388611.8134   -2485205.77746  -1924568.34445  24388609.8424   24388622.5234
      2888.0174       2250.3964
  23933553.1504     420901.17147    341882.82145  23933551.0984   23933563.1574
     -4159.8974      -3241.4694
  20894327.6434  -20677040.66049 -15070029.33047  20894326.2954   20894330.8304
     -1081.7044       -842.8864
  21154573.4214  -17372177.77049 -13291161.68547  21154571.7404   21154577.1244
     -1470.4164      -1145.7794
  23955144.7064   -1497348.42047   -516933.32045  23955143.1084   23955153.6554
     -3141.6714      -2448.0534
  24222416.9104    3345119.01547   2851777.36445  24222415.1454   24222423.9394
     -2780.8554      -2166.9044
  23622529.0994  -10218533.97948  -7764769.17646  23622527.1774   23622535.8744
      1933.6374       1506.7294
 00  7 15  0 29 30.0000000  0  8G20G22G15G25G11G21G29G 1
  22172005.3794  -15283873.58048 -11538121.19246  22172003.5014   22172009.4924
      2304.4704       1795.6894
  24372111.1544   -2571925.07947  -1992141.53045  24372107.3034   24372121.4414
      2891.5754       2253.1714
  23957295.1064     545668.28547    439103.71645  23957291.8134   23957304.9844
     -4159.4394      -3241.1114
  20900538.9944  -20644399.78549 -15044594.87147  20900537.6294   20900542.0964
     -1095.8164       -853.8834
  21163008.2704  -17327853.24449 -13256623.11547  21163006.4954   21163011.8814
     -1486.0834      -1157.9854
  23973092.9194   -1403031.91147   -443440.13445  23973090.5044   23973101.2494
     -3147.5934      -2452.6564
  24238281.3414    3428483.89447   2916736.94845  24238279.9444   24238287.0484
     -2778.2904      -2164.8994
  23611493.0344  -10276523.09248  -7809955.32646  23611491.7944   23611500.6114
      1930.8164       1504.5254
 00  7 15  0 30  0.0000000  0  8G20G22G15G25G11G21G29G 1
  22158869.8914  -15352901.37748 -11591909.04846  22158868.1224   22158873.5104
      2296.7774       1789.6944
  24355605.3114   -2658664.46846  -2059730.38444  24355604.0554   24355612.4614
      2890.2984       2252.1624
  23981051.9084     670507.94847    536381.15245  23981049.8714   23981061.6664
     -4163.8074      -3244.5204
  20906846.7504  -20611250.54749 -15018764.29447  20906845.7354   20906850.2214
     -1114.7004       -868.5974
  21171548.3104  -17282974.74549 -13221652.88347  21171546.7214   21171551.8514
     -1506.4604      -1173.8634
  23991090.1234   -1308452.98247   -369742.45645  23991088.6824   23991098.3334
     -3158.2904      -2461.0034
  24254146.1284    3511855.43047   2981701.72945  24254144.7984   24254153.2434
     -2780.4674      -2166.5944
  23600490.7054  -10334341.57548  -7855008.54246  23600489.2044   23600498.1174
      1923.2144       1498.6054
 00  7 15  0 30 30.0000000  0  8G20G22G15G25G11G21G29G 1
  22145778.0604  -15421698.41448 -11645517.08546  22145775.9004   22145781.4814
      2289.3354       1783.8964
  24339105.0964   -2745363.59546  -2127287.86344  24339103.0654   24339117.8454
      2889.2804       2251.3864
  24004832.1824     795475.01547    633757.85945  24004829.4904   24004842.3534
     -4167.6384      -3247.4944
  20913262.5154  -20577537.09749 -14992494.07247  20913261.1964   20913265.8004
     -1133.1934       -883.0074
  21180204.5904  -17237486.41349 -13186207.45647  21180203.0114   21180207.8854
     -1526.5044      -1189.4824
  24009148.7184   -1213555.37047   -295796.45345  24009147.1564   24009158.5174
     -3168.5874      -2469.0124
  24270023.0654    3595291.18147   3046716.52745  24270021.6794   24270030.5834
     -2782.3304      -2168.0474
  23589531.9934  -10391932.02948  -7899884.07146  23589530.3224   23589538.9454
      1915.8814       1492.8894
 00  7 15  0 31  0.0000000  0  8G20G22G15G25G11G21G29G 1
  22132705.2364  -15490395.93548 -11699047.57846  22132703.4364   22132708.6094
      2288.3524       1783.1294
  24322590.3214   -2832152.82046  -2194915.56544  24322587.2974   24322600.6894
      2894.3674       2255.3534
  24028610.8224     920433.75747    731128.07645  24028609.6774   24028620.3694
     -4164.9584      -3245.4154
  20919759.6504  -20543393.85049 -14965888.94347  20919758.4214   20919762.7814
     -1145.1334       -892.3134
  21188951.1894  -17191522.76949 -13150391.66047  21188949.5534   21188954.5904
     -1539.9224      -1199.9394
  24027242.4724   -1118472.59347   -221706.18345  24027241.1994   24027250.8304
     -3172.4184      -2472.0144
  24285886.9764    3678657.66447   3111677.32445  24285885.5464   24285894.5274
     -2777.5934      -2164.3514
  23578590.8104  -10449427.70748  -7944685.78446  23578589.0424   23578597.4494
      1915.0994       1492.2794
 00  7 15  0 31 30.0000000  0  8G20G22G15G25G11G21G29G 1
  22119663.0464  -15558931.22548 -11752451.65046  22119660.9714   22119666.8684
      2280.0814       1776.6844
  24306069.8414   -2918968.68946  -2262564.05745  24306066.6844   24306079.8894
      2892.5034       2253.8974
  24052400.5054    1045442.13747    828536.97345  24052398.0114   24052409.0184
     -4169.4624      -3248.9284
  20926350.0444  -20508761.57549 -14938902.75147  20926348.6504   20926353.1184
     -1164.2494       -907.2064
  21197799.4634  -17145024.54849 -13114159.30947  21197797.8484   21197803.2154
     -1560.5464      -1216.0094
  24045383.0064   -1023144.20947   -147424.53745  24045381.0764   24045392.5364
     -3183.3904      -2480.5574
  24301750.1024    3762015.51647   3176631.37945  24301748.9494   24301756.8014
     -2780.1854      -2166.3774
  23567679.5704  -10506767.85148  -7989366.28946  23567677.8914   23567685.5364
      1907.0464       1486.0064
 00  7 15  0 32  0.0000000  0  8G20G22G15G25G11G21G29G 1
  22106669.2584  -15627216.74148 -11805661.10046  22106667.2234   22106672.1514
      2272.7604       1770.9814
  24289560.6944   -3005722.37046  -2330164.00145  24289557.7884   24289568.9484
      2891.4344       2253.0604
  24076213.5104    1170583.35347    926049.39045  24076211.0614   24076222.6054
     -4172.8844      -3251.5844
  20933049.6854  -20473555.55649 -14911469.48847  20933048.3144   20933052.5974
     -1182.3054       -921.2774
  21206765.3224  -17097907.97549 -13077445.12647  21206763.8324   21206769.1584
     -1580.1334      -1231.2704
  24063586.4434    -927485.66347    -72885.64145  24063584.4634   24063595.8994
     -3193.3744      -2488.3434
  24317627.0874    3845449.96747   3241645.16945  24317625.4234   24317634.0354
     -2781.6454      -2167.5074
  23556813.6054  -10563866.85448  -8033858.87546  23556812.1304   23556820.2454
      1900.0494       1480.5544
 00  7 15  0 32 30.0000000  0  8G20G22G15G25G11G21G29G 1
  22093697.8674  -15695382.04148 -11858776.88446  22093695.9244   22093701.1284
      2272.6684       1770.9104
  24273039.2384   -3092541.93047  -2397815.29045  24273036.5434   24273048.7394
      2897.5044       2257.7764
  24100025.9194    1295722.97547   1023560.57645  24100024.7644   24100037.2254
     -4168.7154      -3248.3394
  20939832.9484  -20437908.71549 -14883692.73147  20939831.5504   20939836.0284
     -1193.0174       -929.6244
  21215823.6454  -17050306.08949 -13040352.78347  21215822.1154   21215827.4464
     -1592.2924      -1240.7454
  24081827.3544    -831629.36147      1807.36945  24081825.8264   24081836.9674
     -3195.9784      -2490.3664
  24333493.1494    3928829.65847   3306616.27245  24333492.3684   24333501.4074
     -2775.9264      -2163.0594
  23545968.3384  -10620856.63048  -8078266.32946  23545966.6424   23545976.0404
      1900.4014       1480.8254
 00  7 15  0 33  0.0000000  0  8G20G22G15G25G11G21G29G 1
  22080736.2814  -15763494.02648 -11911851.11046  22080734.7524   22080739.6704
      2267.4944       1766.8774
  24256491.4314   -3179493.33747  -2465569.35145  24256490.2214   24256501.5004
      2898.4454       2258.5194
  24123825.5524    1420789.67947   1121014.89045  24123824.4404   24123835.9324
     -4169.5974      -3249.0284
  20946686.8424  -20401891.32949 -14855627.23547  20946685.5094   20946690.0524
     -1208.7224       -941.8614
  21224960.9944  -17002289.18749 -13002937.04847  21224959.2974   21224964.8034
     -1609.4854      -1254.1424
  24100092.3024    -735645.25847     76599.98045  24100090.9274   24100102.4184
     -3203.6024      -2496.3154
  24349336.7864    4012085.24347   3371490.60446  24349335.5204   24349344.4814
     -2775.0834      -2162.3964
  23535129.9874  -10677806.16048  -8122642.42346  23535128.6474   23535138.8914
      1895.6824       1477.1524
 00  7 15  0 33 30.0000000  0  8G20G22G15G25G11G21G29G 1
  22067809.7504  -15831425.94848 -11964785.03846  22067807.7814   22067812.6484
      2261.7504       1762.4024
  24239945.3464   -3266449.00746  -2533326.78844  24239943.8514   24239952.5054
      2898.9574       2258.9154
  24147635.4414    1545905.62147   1218507.57745  24147632.2844   24147644.8664
     -4170.9594      -3250.0854
  20953634.5994  -20365380.03149 -14827176.87247  20953633.3454   20953637.8514
     -1224.8324       -954.4144
  21234200.5934  -16953733.98949 -12965101.86547  21234199.0744   21234204.5314
     -1627.0924      -1267.8624
  24118405.8244    -639408.54647    151589.42845  24118404.9764   24118416.1694
     -3211.7134      -2502.6304
  24365180.2244    4095341.63347   3436365.61045  24365179.2484   24365186.8624
     -2774.8764      -2162.2364
  23524325.6894  -10734590.53448  -8166889.83346  23524324.1324   23524332.4044
      1890.4984       1473.1124
 00  7 15  0 34  0.0000000  0  8G20G22G15G25G11G21G29G 1
  22054916.5654  -15899176.19648 -12017577.39146  22054914.7644   22054920.4274
      2256.1054       1758.0044
  24223397.6774   -3353406.36946  -2601085.51745  24223394.9144   24223407.5674
      2899.3514       2259.2184
  24171452.2174    1671067.95547   1316036.44045  24171451.0334   24171463.1544
     -4172.0554      -3250.9544
  20960676.1484  -20328376.03649 -14798342.59247  20960674.8934   20960679.7514
     -1240.8364       -966.8844
  21243542.5344  -16904642.60649 -12926848.87647  21243541.0744   21243546.3294
     -1644.5074      -1281.4334
  24136767.5734    -542920.92647    226774.39745  24136765.9334   24136776.4194
     -3219.6694      -2508.8184
  24381024.2944    4178598.46647   3501240.98945  24381022.3364   24381030.6564
     -2774.4244      -2161.8864
  23513551.7254  -10791210.00748  -8211008.79046  23513549.8564   23513558.0244
      1885.3624       1469.1094
 00  7 15  0 34 30.0000000  0  9G20G22G15G25G11G21G16G29G 1
  22042055.8914  -15966759.38648 -12070239.56346  22042054.2274   22042059.8254
      2249.4824       1752.8424
  24206847.0034   -3440378.73947  -2668855.93345  24206846.6934   24206856.9804
      2898.7274       2258.7284
  24195275.7694    1796257.45447   1413586.45845  24195274.2734   24195286.1394
     -4173.7744      -3252.2884
  20967808.1744  -20290897.60749 -14769138.61947  20967806.9674   20967811.5884
     -1257.6514       -979.9884
  21252982.8204  -16855033.28249 -12888192.28947  21252981.2684   21252986.9034
     -1662.7484      -1295.6464
  24155173.0784    -446200.10947    302141.07845  24155170.9574   24155183.6924
     -3228.3934      -2515.6334
  24700140.1484   -1604702.79456  -1038541.26144  24700139.1054   24700147.0664
      2820.5084       2197.7934
  24396864.4584    4261838.70547   3566103.43445  24396863.1084   24396870.6794
     -2774.8584      -2162.2254
  23502805.6804  -10847681.53548  -8255012.45246  23502803.7884   23502811.4424
      1879.4634       1464.5114
 00  7 15  0 35  0.0000000  0  9G20G22G15G25G11G21G16G29G 1
  22029233.0604  -16034145.90248 -12122748.49846  22029230.9554   22029236.3184
      2242.0344       1747.0374
  24190299.8174   -3527335.10046  -2736613.84244  24190296.9654   24190307.0764
      2897.2304       2257.5674
  24219109.2364    1921499.11847   1511177.12245  24219108.2904   24219119.8074
     -4176.5234      -3254.4284
  20975035.2564  -20252918.34249 -14739544.38747  20975034.0564   20975038.6934
     -1275.1914       -993.6554
  21262526.9284  -16804880.10149 -12849111.92447  21262525.3394   21262530.7664
     -1681.7524      -1310.4544
  24173628.2894    -349218.50847    377710.93645  24173626.9854   24173638.2614
     -3237.9024      -2523.0304
  24684039.0574   -1689317.82246  -1104474.96645  24684037.0614   24684046.7044
      2819.5594       2197.0554
  24412705.1434    4345090.00647   3630974.52445  24412703.9764   24412713.1754
     -2776.1344      -2163.2194
  23492092.0664  -10903977.76748  -8298879.54046  23492090.5214   23492098.4114
      1872.7174       1459.2584
 00  7 15  0 35 30.0000000  0  9G20G22G15G25G11G21G16G29G 1
  22016450.8844  -16101315.34548 -12175088.28346  22016449.1144   22016454.5184
      2237.6574       1743.6264
  24173758.4394   -3614254.18346  -2804342.69945  24173756.6544   24173769.7234
      2898.9144       2258.8834
  24242955.3384    2046808.29847   1608820.39145  24242952.7274   24242965.1554
     -4175.7784      -3253.8434
  20982360.9454  -20214421.52849 -14709546.87247  20982359.7374   20982364.4284
     -1289.5064      -1004.8114
  21272177.5104  -16754166.45849 -12809594.83747  21272175.7414   21272181.0184
     -1697.4864      -1322.7164
  24192136.0574    -251959.37047    453497.01645  24192133.5224   24192146.0044
     -3244.2364      -2527.9634
  24667942.4784   -1773912.68247  -1170392.91145  24667940.9484   24667949.9904
      2821.8614       2198.8504
  24428552.9234    4428370.44547   3695868.22545  24428550.7784   24428560.8404
     -2774.1724      -2161.6944
  23481415.9754  -10960080.39048  -8342595.77346  23481414.5484   23481421.6154
      1869.1754       1456.4934
 00  7 15  0 36  0.0000000  0  9G20G22G15G25G11G21G16G29G 1
  22003686.2384  -16168396.12848 -12227358.97547  22003684.4144   22003689.8834
      2233.7044       1740.5484
  24157201.1404   -3701263.58947  -2872141.97345  24157199.9464   24157211.0214
      2900.8704       2260.4054
  24266787.8884    2172052.14047   1706412.73845  24266786.0984   24266797.9384
