     2.00           OBSERVATION DATA    G (GPS)             RINEX VERSION / TYPE
teqc  1999Jul19     CORS/NGS/NOAA       19990919 02:07:58UTCPGM / RUN BY / DATE
HP-UX 10.20|PA-RISC|cc A.10.32.03|=+|=|                     COMMENT
BIT 2 OF LLI FLAGS DATA COLLECTED UNDER A/S CONDITION       COMMENT
ppt1                                                        MARKER NAME
xxx                                                         MARKER NUMBER
CORS/NGS/NOAA       U.S. Coast Guard                        OBSERVER / AGENCY
05402               ASHTECH   Z-XII3    RD00                REC # / TYPE / VERS
11092               ASH700829.3                             ANT # / TYPE
 -2725252.3748 -4295978.5284  3833958.9631                  APPROX POSITION XYZ 
        0.0000        0.0000        0.0000                  ANTENNA: DELTA H/E/N
     1     1                                                WAVELENGTH FACT L1/2
     7    C1    L1    L2    P1    P2    D1    D2            # / TYPES OF OBSERV
    30.0000                                                 INTERVAL
 SNR is mapped to RINEX snr flag value [1-9]                COMMENT
  L1: 1 -> 1;  90 -> 5; 210 -> 9                            COMMENT
  L2: 1 -> 1; 150 -> 5; 250 -> 9                            COMMENT
teqc windowed: delta = 86400.000 sec                        COMMENT
  1999     9    18     0     0   30.0000000     GPS         TIME OF FIRST OBS
                                                            END OF HEADER
 99  9 18  0  0 30.0000000  0  7G 4G19G14G22G18G 1G16
  24484433.8834  -13429711.12547  -9161174.06945  24484432.8774   24484441.3664
       -53.7394        -41.8714
  22499944.0694  -23209028.00448 -18062707.48947  22499943.1784   22499951.0334
      3000.3004       2337.8944
  21761809.0204  -37954574.61348 -29302003.28147  21761808.1254   21761815.9444
     -1875.7084      -1461.5904
  22374642.5164  -20343116.45148 -15542066.35346  22374640.8744   22374648.6394
     -1287.6234      -1003.3404
  21511430.9964  -29769292.39048 -22913981.59047  21511429.8074   21511437.1844
      2908.7684       2266.5724
  22649074.9864  -36162962.30148 -27520464.13946  22649073.9144   22649081.4664
     -1125.3554       -876.9004
  20721858.2114  -37208388.74649 -28698660.08647  20721856.8494   20721863.4994
       377.8574        294.4354
 99  9 18  0  1  0.0000000  0  6G 4G14G22G18G 1G16
  24484781.3134  -13427890.14347  -9159755.17445  24484780.1944   24484787.5224
       -69.0084        -53.7724
  21772548.9204  -37898138.26048 -29258026.97347  21772547.8254   21772555.3104
     -1887.8544      -1471.0524
  22382034.3934  -20304270.43448 -15511796.78646  22382032.7404   22382040.9634
     -1303.3554      -1015.5994
  21494839.0004  -29856483.08048 -22981922.36747  21494837.8944   21494845.3174
      2902.8274       2261.9434
  22655517.2424  -36129111.90748 -27494087.25846  22655516.0444   22655523.1304
     -1132.4854       -882.4534
  20719746.7514  -37219485.60549 -28707306.99947  20719745.4814   20719751.8684
       360.6364        281.0164
 99  9 18  0  1 30.0000000  0  7G 4G19G14G22G18G 1G16
  24485229.3224  -13425538.73047  -9157922.95945  24485228.4104   24485236.5434
       -82.8904        -64.5884
  22465776.3904    -115332.00448    -75070.56946  22465775.0814   22465784.6874
      2987.3984       2327.8414
  21783370.9664  -37841268.97048 -29213713.30747  21783369.7394   21783376.9774
     -1898.6304      -1479.4484
  22389528.9174  -20264886.90248 -15481108.36946  22389527.5004   22389535.0414
     -1317.3584      -1026.5104
  21478292.8654  -29943434.18548 -23049676.46247  21478291.8564   21478298.9584
      2898.7034       2258.7304
  22662010.4524  -36094986.64148 -27467496.18746  22662009.6774   22662017.1824
     -1137.4254       -886.3054
  20717747.5164  -37229990.30049 -28715492.49447  20717746.2114   20717752.8934
       344.3534        268.3284
 99  9 18  0  2  0.0000000  0  7G 4G19G14G22G18G 1G16
  24485737.0754  -13422869.99747  -9155843.46245  24485736.2634   24485744.3914
       -99.9214        -77.8594
  22448733.7634    -204902.16148   -144865.47746  22448732.1974   22448740.3534
      2979.3004       2321.5314
  21794237.6164  -37784163.66248 -29169215.72747  21794236.6864   21794244.2954
     -1913.2274      -1490.8244
  22397085.3914  -20225176.91648 -15450165.57846  22397084.1434   22397091.8754
     -1335.1054      -1040.3414
  21461755.1344  -30030340.99848 -23117396.03747  21461754.1364   21461760.9154
      2890.2134       2252.1154
  22668512.2004  -36060817.19148 -27440870.68546  22668511.2674   22668519.4304
     -1145.3724       -892.4954
  20715826.8864  -37240083.68849 -28723357.48547  20715825.5114   20715832.5354
       323.7254        252.2534
 99  9 18  0  2 30.0000000  0  7G 4G19G14G22G18G 1G16
  24486351.6804  -13419635.41547  -9153323.07045  24486351.4304   24486358.2274
      -110.1994        -85.8664
  22431745.2624    -294173.89748   -214427.81747  22431744.2764   22431752.2194
      2977.4824       2320.1154
  21805199.4434  -37726557.49248 -29124327.86947  21805198.5194   21805206.5564
     -1921.7924      -1497.4994
  22404757.6084  -20184861.12348 -15418750.73346  22404756.0814   22404763.6054
     -1347.1994      -1049.7634
  21445278.8984  -30116925.64648 -23184864.57147  21445277.7164   21445284.8224
      2887.6224       2250.0944
  22675074.0974  -36026337.98548 -27414003.82846  22675072.7904   22675080.6884
     -1147.8394       -894.4174
  20714035.2714  -37249499.93049 -28730694.82847  20714033.9704   20714040.6634
       309.4314        241.1154
 99  9 18  0  3  0.0000000  0  7G 4G19G14G22G18G 1G16
  24487040.3174  -13416016.05247  -9150502.82945  24487039.3284   24487048.2254
      -131.1364       -102.1834
  22414785.4024    -383301.94148   -283878.19447  22414784.2284   22414791.6564
      2964.0934       2309.6804
  21816228.5644  -37668601.85448 -29079167.70047  21816227.3194   21816235.1784
     -1942.1044      -1513.3254
  22412515.2364  -20144096.83148 -15386986.40546  22412513.3724   22412520.6834
     -1370.6084      -1068.0044
  21428832.6554  -30203348.84549 -23252207.29947  21428831.7824   21428838.9554
      2873.7854       2239.3114
  22681667.0064  -35991697.14548 -27387011.03546  22681665.2464   22681672.9104
     -1161.5944       -905.1354
  20712343.0324  -37258393.81849 -28737625.14747  20712341.5184   20712348.3954
       283.3674        220.8064
 99  9 18  0  3 30.0000000  0  7G 4G19G14G22G18G 1G16
  24487826.7264  -13411887.85747  -9147286.12445  24487825.5724   24487833.9484
      -144.0044       -112.2104
  22397881.5944    -472130.09148   -353094.88347  22397880.4174   22397888.0004
      2957.7584       2304.7444
  21827354.5384  -37610137.11848 -29033610.83847  21827353.1954   21827360.8214
     -1955.2694      -1523.5844
  22420385.3994  -20102736.92648 -15354757.95446  22420383.8744   22420391.0744
     -1386.4844      -1080.3774
  21412446.8764  -30289462.66249 -23319308.95247  21412445.3594   21412452.0564
      2867.3314       2234.2834
  22688316.3494  -35956754.36248 -27359782.95346  22688315.0324   22688322.3654
     -1167.6084       -909.8214
  20710779.6364  -37266607.02649 -28744025.06847  20710778.3104   20710785.4064
       264.3684        206.0024
 99  9 18  0  4  0.0000000  0  7G 4G19G14G22G18G 1G16
  24488677.6104  -13407408.04147  -9143795.40645  24488677.3374   24488687.1074
      -158.0764       -123.1734
  22381009.5884    -560791.02748   -422181.27346  22381008.5334   22381016.5584
      2949.5994       2298.3864
  21838547.9594  -37551311.56848 -28987772.81947  21838546.9984   21838554.9214
     -1969.4494      -1534.6344
  22428340.4314  -20060934.83748 -15322184.94146  22428338.6604   22428345.6054
     -1403.6094      -1093.7204
  21396090.7724  -30375407.54149 -23386278.96247  21396089.9404   21396096.9814
      2859.2824       2228.0114
  22694993.6544  -35921659.63548 -27332436.47446  22694992.7104   22695000.4494
     -1175.2854       -915.8054
  20709320.5124  -37274275.20249 -28750000.28747  20709319.0944   20709326.1074
       243.8064        189.9814
 99  9 18  0  4 30.0000000  0  7G 4G19G14G22G18G 1G16
  24489622.6334  -13402448.98347  -9139931.26045  24489621.5114   24489631.9444
      -173.7434       -135.3814
  22364197.3364    -649139.77848   -491024.40447  22364196.4394   22364204.3134
      2939.3424       2290.3954
  21849830.8884  -37492017.78148 -28941569.93547  21849830.0164   21849838.4244
     -1984.2044      -1546.1314
  22436400.8384  -20018576.63048 -15289178.59646  22436399.2544   22436406.7234
     -1421.0954      -1107.3454
  21379788.9614  -30461075.67149 -23453033.32447  21379788.0114   21379794.5924
      2851.0384       2221.5874
  22701725.8984  -35886282.68148 -27304870.07846  22701724.6734   22701732.7114
     -1183.8034       -922.4434
  20707986.6434  -37281286.15249 -28755463.38347  20707985.2164   20707992.1144
       222.6834        173.5194
 99  9 18  0  5  0.0000000  0  7G 4G19G14G22G18G 1G16
  24490659.3344  -13396995.26147  -9135681.66545  24490659.2684   24490668.5644
      -191.0924       -148.9024
  22347449.2434    -737154.41748   -559607.18547  22347448.1004   22347455.8494
      2927.1534       2280.8954
  21861199.9624  -37432273.44948 -28895015.97747  21861199.1574   21861207.4534
     -1999.6534      -1558.1694
  22444562.4034  -19975684.09548 -15255755.89446  22444561.2114   22444569.0984
     -1439.5994      -1121.7644
  21363538.5204  -30546473.41548 -23519576.99147  21363537.1054   21363543.9444
      2841.1084       2213.8494
  22708509.2654  -35850637.85248 -27277094.94746  22708507.9574   22708516.1154
     -1193.6444       -930.1094
  20706778.8734  -37287632.88149 -28760408.90247  20706777.5504   20706784.4374
       199.4794        155.4374
 99  9 18  0  5 30.0000000  0  7G 4G19G14G22G18G 1G16
  24491770.6874  -13391159.22347  -9131134.18045  24491769.3984   24491778.0914
      -203.9134       -158.8854
  22330743.4004    -824943.24148   -628014.00047  22330742.4124   22330750.2314
      2919.6914       2275.0834
  21872628.0394  -37372220.67348 -28848221.67647  21872626.9344   21872635.2274
     -2009.5044      -1565.8454
  22452801.2974  -19932386.07748 -15222017.24146  22452800.0214   22452808.2214
     -1452.7224      -1131.9894
  21347315.9594  -30631720.00548 -23586002.87247  21347315.0354   21347322.0844
      2836.2814       2210.0884
  22715321.1314  -35814838.86348 -27249199.69346  22715319.8334   22715327.9924
     -1198.6124       -933.9794
  20705675.5224  -37293432.27149 -28764927.92647  20705673.9894   20705680.7924
       181.4924        141.4234
 99  9 18  0  6  0.0000000  0  7G 4G19G14G22G18G 1G16
  24492964.6984  -13384886.99247  -9126246.80545  24492963.7104   24492973.4724
      -219.1224       -170.7364
  22314088.5744    -912462.87748   -696211.06447  22314087.6154   22314095.4684
      2910.3084       2267.7714
  21884120.4634  -37311827.47848 -28801162.11946  21884119.5644   21884127.5554
     -2021.4724      -1575.1724
  22461124.8654  -19888648.46548 -15187936.03846  22461123.2424   22461131.4884
     -1468.0114      -1143.9034
  21331131.0344  -30716773.32149 -23652278.15647  21331129.9314   21331137.1074
      2829.2124       2204.5804
  22722171.6724  -35778843.75348 -27221151.61646  22722170.0814   22722177.8514
     -1205.7444       -939.5394
  20704682.1154  -37298649.59749 -28768993.39547  20704680.8704   20704687.8254
       161.7794        126.0624
 99  9 18  0  6 30.0000000  0  7G 4G19G14G22G18G 1G16
  24494234.0654  -13378213.74147  -9121046.94645  24494233.8064   24494242.8644
      -229.6934       -178.9764
  22297475.5704    -999766.00548   -764239.42147  22297474.3514   22297482.3444
      2906.1644       2264.5424
  21895672.3964  -37251124.38848 -28753861.07546  21895671.1344   21895679.1304
     -2029.2824      -1581.2554
  22469525.0074  -19844504.83748 -15153538.45046  22469523.8404   22469531.4354
     -1479.0244      -1152.4834
  21314975.2294  -30801672.90749 -23718433.64647  21314974.1084   21314981.2314
      2826.7904       2202.6914
  22729051.3304  -35742690.53948 -27192980.36046  22729049.9964   22729057.4154
     -1208.1854       -941.4424
  20703789.7954  -37303339.34149 -28772647.76147  20703788.5694   20703795.3014
       147.0554        114.5894
 99  9 18  0  7  0.0000000  0  7G 4G19G14G22G18G 1G16
  24495573.6624  -13371176.61947  -9115563.53445  24495572.8464   24495581.5954
      -241.1134       -187.8794
  22280895.2444   -1086896.56548   -832133.30147  22280894.0944   22280902.0484
      2901.0064       2260.5214
  21907278.7364  -37190128.35148 -28706331.76546  21907277.6264   21907286.6894
     -2038.7594      -1588.6424
  22478002.0994  -19799959.75948 -15118828.03846  22478000.3164   22478008.4814
     -1492.4184      -1162.9224
  21298846.2014  -30886431.84449 -23784479.54447  21298845.2114   21298851.9744
      2822.2984       2199.1934
  22735957.2714  -35706400.04148 -27164702.12846  22735955.8204   22735963.3474
     -1212.7234       -944.9774
  20702992.2574  -37307531.36849 -28775914.29647  20702990.8964   20702997.7424
       130.9224        102.0184
 99  9 18  0  7 30.0000000  0  7G 4G19G14G22G18G 1G16
  24497010.7144  -13363624.78147  -9109679.02045  24497010.2004   24497018.7114
      -258.8324       -201.6854
  22264375.4194   -1173707.86948   -899778.41647  22264374.3384   22264382.1734
      2890.0674       2251.9974
  21918975.4334  -37128660.47448 -28658434.79746  21918974.7594   21918983.6844
     -2055.4714      -1601.6634
  22486589.4724  -19754832.76148 -15083664.18546  22486587.9924   22486596.0424
     -1512.5364      -1178.5964
  21282775.8684  -30970883.15349 -23850285.72947  21282774.7634   21282781.1554
      2811.2854       2190.6104
  22742920.3434  -35669805.62448 -27136187.06146  22742919.4414   22742927.4494
     -1223.1844       -953.1304
  20702319.9514  -37311064.36449 -28778667.30347  20702318.5364   20702325.4834
       108.1514         84.2754
 99  9 18  0  8  0.0000000  0  7G 4G19G14G22G18G 1G16
  24498523.8194  -13355672.41447  -9103482.43045  24498522.9764   24498531.8644
      -270.2154       -210.5534
  22247892.5304   -1260323.37948   -967270.96447  22247891.4634   22247900.1794
      2885.3834       2248.3504
  21930744.0304  -37066820.07448 -28610247.55146  21930742.9414   21930751.0944
     -2066.0154      -1609.8784
  22495268.7514  -19709224.44948 -15048125.28546  22495266.9144   22495274.5474
     -1526.8974      -1189.7884
  21266744.0864  -31055129.77849 -23915932.42647  21266742.9914   21266749.3744
      2806.3904       2186.7984
  22749918.3284  -35633028.07448 -27107529.28946  22749917.4944   22749926.4664
     -1227.5254       -956.5104
  20701754.0914  -37314036.93149 -28780983.61047  20701752.7194   20701759.9954
        91.2924         71.1384
 99  9 18  0  8 30.0000000  0  7G 4G19G14G22G18G 1G16
  24500103.6264  -13347380.40847  -9097021.21045  24500102.7934   24500111.0484
      -288.2194       -224.5854
  22231438.8784   -1346790.17848  -1034647.63447  22231437.9924   22231446.0264
      2873.4484       2239.0514
  21942571.8074  -37004663.30348 -28561813.77646  21942570.7844   21942579.1894
     -2083.0614      -1623.1644
  22504031.2564  -19663176.18048 -15012243.55646  22504029.7124   22504037.3664
     -1548.5544      -1206.6654
  21250740.6914  -31139228.21749 -23981463.64547  21250739.5094   21250745.9304
      2794.7504       2177.7274
  22756944.0034  -35596108.80148 -27078761.08546  22756942.9094   22756951.8734
     -1239.2054       -965.6124
  20701286.8394  -37316493.28749 -28782897.67247  20701285.3334   20701292.5004
        67.0504         52.2484
 99  9 18  0  9  0.0000000  0  7G 4G19G14G22G18G 1G16
  24501774.9594  -13338593.66747  -9090174.45145  24501773.6304   24501782.1744
      -295.4194       -230.1934
  22215045.6634   -1432935.89348  -1101774.10747  22215044.6474   22215052.9374
      2871.7754       2237.7454
  21954486.7834  -36942049.51948 -28513023.88946  21954485.8074   21954494.5464
     -2088.8704      -1627.6904
  22512908.0114  -19616531.47948 -14975897.07546  22512906.1294   22512913.7294
     -1558.6774      -1214.5514
  21234794.5404  -31223025.33848 -24046760.08247  21234793.6854   21234799.5674
      2794.0914       2177.2134
  22764028.1464  -35558884.60148 -27049755.28146  22764026.6474   22764034.9494
     -1239.9734       -966.2114
  20700948.9164  -37318266.47449 -28784279.40147  20700947.7404   20700955.3294
        53.4534         41.6534
 99  9 18  0  9 30.0000000  0  7G 4G19G14G22G18G 1G16
  24503520.2884  -13329412.39347  -9083020.26245  24503520.2814   24503530.4744
      -313.6204       -244.3784
  22198697.9664   -1518843.19348  -1168714.79447  22198696.8124   22198705.1414
      2858.4634       2227.3714
  21966469.3764  -36879082.50348 -28463958.75546  21966468.2984   21966476.8004
     -2105.6634      -1640.7744
  22521873.1544  -19569417.80748 -14939185.16746  22521871.5014   22521879.2814
     -1579.1104      -1230.4744
  21218886.8974  -31306623.46949 -24111901.46347  21218885.5874   21218891.4614
      2782.2654       2167.9994
  22771148.1454  -35521471.70848 -27020602.44346  22771146.5754   22771154.5594
     -1251.0704       -974.8574
  20700723.5654  -37319452.97449 -28785203.97147  20700722.1044   20700729.3154
        29.0194         22.6124
 99  9 18  0 10  0.0000000  0  7G 4G19G14G22G18G 1G16
  24505337.6174  -13319866.19447  -9075581.73645  24505337.3934   24505347.7944
      -321.2124       -250.2874
  22182393.0114   -1604524.77648  -1235479.60847  22182392.0694   22182400.4114
      2855.5354       2225.0924
  21978511.7954  -36815799.83048 -28414647.65546  21978511.0004   21978519.1274
     -2111.5114      -1645.3304
  22530919.9804  -19521876.46048 -14902140.01746  22530918.3074   22530926.3024
     -1588.5924      -1237.8614
  21203011.4334  -31390048.70749 -24176908.12447  21203010.2674   21203016.7324
      2781.2694       2167.2224
  22778297.5654  -35483900.97948 -26991326.62446  22778296.0824   22778304.6234
     -1251.9094       -975.5134
  20700599.8374  -37320101.69749 -28785709.49547  20700598.6114   20700605.9824
        16.1874         12.6144
 99  9 18  0 10 30.0000000  0  7G 4G19G14G22G18G 1G16
  24507217.2824  -13309988.87747  -9067885.16845  24507216.3554   24507225.9314
      -340.4134       -265.2564
  22166122.9224   -1690026.59248  -1302104.34747  22166121.8724   22166129.8364
      2841.6694       2214.2854
  21990607.1714  -36752236.15448 -28365117.58746  21990606.5174   21990615.1334
     -2128.9744      -1658.9394
  22540038.5384  -19473956.39148 -14864799.74946  22540036.9224   22540044.9464
     -1609.0464      -1253.7994
  21187161.0874  -31473339.54849 -24241810.05847  21187160.0694   21187166.7854
      2768.5914       2157.3434
  22785470.5264  -35446205.86848 -26961953.86946  22785469.0834   22785477.3304
     -1263.9524       -984.8954
  20700566.8934  -37320274.51349 -28785844.17847  20700565.7164   20700573.1624
        -7.5824         -5.9064
 99  9 18  0 11  0.0000000  0  7G 4G19G14G22G18G 1G16
  24509200.3784  -13299569.58947  -9059766.32045  24509199.1334   24509209.0714
      -356.1694       -277.5304
  22149925.6264   -1775144.71848  -1368430.09947  22149924.2214   22149932.0094
      2831.0114       2205.9804
  22002798.9154  -36688171.81748 -28315197.41046  22002797.9594   22002806.2094
     -2143.9654      -1670.6194
  22549266.3054  -19425467.97848 -14827016.61346  22549264.2734   22549272.2734
     -1625.5034      -1266.6244
  21171379.1474  -31556276.07249 -24306435.90447  21171377.9064   21171384.7264
      2758.6024       2149.5604
  22792704.7554  -35408185.27848 -26932327.50346  22792704.0754   22792712.1424
     -1272.5624       -991.6044
  20700663.3504  -37319770.77749 -28785451.68147  20700661.8994   20700669.2464
       -27.9084        -21.7444
 99  9 18  0 11 30.0000000  0  7G 4G19G14G22G18G 1G16
  24511251.3224  -13288792.16747  -9051368.39845  24511250.4254   24511260.3304
      -365.4084       -284.7374
  22133766.0514   -1860062.12248  -1434599.45147  22133765.0764   22133772.4494
      2827.4214       2203.1844
  22015055.0934  -36623766.61848 -28265011.61846  22015053.6364   22015062.2384
     -2152.4564      -1677.2354
  22558567.2394  -19376591.74848 -14788931.27546  22558565.4014   22558573.3254
     -1635.8564      -1274.6934
  21155633.1574  -31639021.63949 -24370912.95147  21155632.0564   21155638.6694
      2754.9784       2146.7354
  22799969.1904  -35370013.63648 -26902583.42746  22799967.9674   22799975.8324
     -1275.2014       -993.6594
  20700852.2114  -37318777.46049 -28784677.68747  20700850.8204   20700858.1314
       -41.2734        -32.1604
 99  9 18  0 12  0.0000000  0  7G 4G19G14G22G18G 1G16
  24513382.1724  -13277587.98247  -9042637.91945  24513382.3664   24513391.6124
      -382.5444       -298.0834
  22117651.3224   -1944744.59248  -1500585.73947  22117650.1504   22117658.1704
      2817.1074       2195.1464
  22027385.5364  -36558966.15948 -28214517.83446  22027384.5894   22027393.0084
     -2168.4174      -1689.6744
  22567954.8034  -19327259.01948 -14750490.23646  22567953.1554   22567960.9074
     -1653.9644      -1288.8024
  21139934.6114  -31721516.80049 -24435194.88747  21139933.7474   21139940.7584
      2743.8004       2138.0244
  22807277.6834  -35331609.74848 -26872658.39446  22807276.0174   22807283.7564
     -1286.0054      -1002.0804
  20701146.6294  -37317230.82449 -28783472.54247  20701145.2684   20701152.2754
       -62.8804        -48.9964
 99  9 18  0 12 30.0000000  0  7G 4G19G14G22G18G 1G16
  24515593.3824  -13265984.07047  -9033595.99745  24515592.1564   24515600.6944
      -392.4474       -305.8034
  22101574.9694   -2029226.43248  -1566415.69847  22101573.8464   22101581.7474
      2813.5404       2192.3674
  22039785.2664  -36493806.14848 -28163743.87146  22039784.3884   22039792.9604
     -2176.7864      -1696.1944
  22577425.2524  -19277490.59748 -14711709.69946  22577423.6854   22577431.4124
     -1665.2134      -1297.5664
  21124280.2294  -31803782.61649 -24499298.10947  21124279.2464   21124286.2004
      2739.4024       2134.5984
  22814625.5364  -35292991.46948 -26842566.30246  22814624.8384   22814633.1774
     -1289.7414      -1004.9904
  20701544.1624  -37315139.66349 -28781843.08947  20701542.9454   20701550.3014
       -77.8534        -60.6634
 99  9 18  0 13  0.0000000  0  8G 4G19G14G22G18G 1G27G16
  24517871.3684  -13253999.62047  -9024257.54245  24517870.9854   24517880.3304
      -403.1214       -314.1174
  22085537.6094   -2113503.95248  -1632086.44346  22085536.4664   22085544.1514
      2808.4764       2188.4204
  22052249.0514  -36428309.19648 -28112707.36846  22052248.2604   22052256.8284
     -2185.9934      -1703.3684
  22586977.5684  -19227295.47848 -14672596.67246  22586975.7554   22586983.2564
     -1677.7224      -1307.3124
  21108668.2124  -31885823.88949 -24563226.36547  21108666.9574   21108673.7934
      2733.4944       2129.9964
  22822014.1314  -35254170.67548 -26812316.39746  22822012.1384   22822020.1504
     -1294.7814      -1008.9164
  25200858.1134   -5732558.12957  -4179559.44145  25200857.6494   25200869.9924
      3564.5724       2777.5794
  20702045.1944  -37312509.64849 -28779793.74947  20702043.6884   20702050.9864
       -93.9904        -73.2384
 99  9 18  0 13 30.0000000  0  8G 4G19G14G22G18G 1G27G16
  24520248.3554  -13241516.40347  -9014530.43145  24520247.2074   24520255.7054
      -421.7904       -328.6624
  22069561.1644   -2197460.20848  -1697506.86547  22069559.9524   22069567.8874
      2796.0274       2178.7224
  22064796.4954  -36362374.69848 -28061329.92246  22064795.2514   22064803.8154
     -2201.9114      -1715.7734
  22596635.1424  -19176542.36148 -14633048.83546  22596633.6624   22596641.0474
     -1698.2124      -1323.2794
  21093122.3944  -31967515.96649 -24626882.52347  21093121.2534   21093128.2094
      2720.1844       2119.6234
  22829463.0674  -35215024.54248 -26781812.97546  22829461.6884   22829469.9154
     -1307.3624      -1018.7224
  25180551.0634   -5839273.61647  -4262714.17245  25180550.1534   25180561.7804
      3557.3734       2771.9724
  20702670.4364  -37309222.68649 -28777232.50547  20702669.1904   20702676.2694
      -117.7044        -91.7164
 99  9 18  0 14  0.0000000  0  8G 4G19G14G22G18G 1G27G16
  24522682.8824  -13228725.84547  -9004563.84545  24522681.6964   24522690.6534
      -436.2954       -339.9694
  22053609.4464   -2281284.94348  -1762824.79847  22053608.5944   22053616.1114
      2786.7394       2171.4824
  22077386.2554  -36296215.14748 -28009777.10246  22077385.2114   22077393.5724
     -2214.0814      -1725.2554
  22606361.1774  -19125428.48148 -14593219.87746  22606359.9464   22606367.5334
     -1714.9044      -1336.2904
  21077606.2744  -32049053.44849 -24690418.21747  21077605.3764   21077612.4094
      2710.3154       2111.9334
  22836935.1094  -35175756.17848 -26751214.32146  22836934.1614   22836942.2974
     -1315.7694      -1025.2724
  25160238.1914   -5946018.88247  -4345892.13545  25160236.7194   25160247.9544
      3553.6544       2769.0794
  20703385.3824  -37305467.68249 -28774306.55647  20703383.8974   20703390.8754
      -137.8414       -107.4094
 99  9 18  0 14 30.0000000  0  8G 4G19G14G22G18G 1G27G16
  24525207.7224  -13215453.05147  -8994221.48445  24525206.9114   24525216.5464
      -448.4874       -349.4724
  22037723.6284   -2364769.79648  -1827877.89347  22037722.3404   22037729.2634
      2779.0554       2165.4964
  22090054.8744  -36229640.74848 -27957901.03346  22090053.6924   22090062.1574
     -2224.0274      -1733.0054
  22616192.9244  -19073763.47148 -14552961.47646  22616191.4524   22616199.3234
     -1729.1424      -1347.3804
  21062156.1464  -32130245.09649 -24753684.43747  21062155.0474   21062162.1564
      2702.8124       2106.0864
  22844465.0004  -35136190.78648 -26720384.22446  22844463.5614   22844471.8784
     -1321.5914      -1029.8104
  25139956.2454   -6052601.59447  -4428943.42045  25139955.2324   25139965.7384
      3552.1314       2767.8864
  20704222.8444  -37301067.84749 -28770878.13947  20704221.3594   20704228.3404
      -155.1894       -120.9274
 99  9 18  0 15  0.0000000  0  8G 4G19G14G22G18G 1G27G16
  24527804.8074  -13201809.82747  -8983590.47245  24527803.4724   24527811.5164
      -462.4014       -360.3104
  22021882.7164   -2448011.67148  -1892741.65647  22021881.3804   22021888.4914
      2769.3144       2157.9064
  22102782.3284  -36162754.93048 -27905782.30046  22102781.6614   22102790.0974
     -2236.0404      -1742.3674
  22626107.7114  -19021665.13748 -14512365.42246  22626106.0294   22626113.2484
     -1745.2684      -1359.9494
  21046749.6854  -32211208.34149 -24816772.67447  21046748.6854   21046755.4524
      2693.6644       2098.9604
  22852027.6914  -35096447.01948 -26689415.12046  22852026.5254   22852034.8584
     -1329.0444      -1035.6164
  25119685.3794   -6159128.75647  -4511951.44645  25119683.5834   25119693.4504
      3548.5874       2765.1274
  20705160.4534  -37296139.15149 -28767037.61947  20705159.0524   20705166.1004
      -174.4494       -135.9344
 99  9 18  0 15 30.0000000  0  8G 4G19G14G22G18G 1G27G16
  24530473.7014  -13187782.07847  -8972659.82645  24530472.4234   24530482.3934
      -473.5834       -369.0214
  22006091.1264   -2530995.69748  -1957404.48847  22006090.1444   22006097.4164
      2762.2514       2152.4024
  22115572.7624  -36095544.00348 -27853410.23446  22115571.5614   22115580.0954
     -2245.4384      -1749.6904
  22636106.7254  -18969121.42748 -14471422.32046  22636104.7444   22636112.3434
     -1758.2774      -1370.0864
  21031386.2024  -32291943.53749 -24879683.20947  21031385.0794   21031392.3034
      2688.0324       2094.5694
  22859625.8064  -35056520.32448 -26658303.48246  22859624.2544   22859632.5414
     -1333.4344      -1039.0354
  25099426.6004   -6265585.93147  -4594904.93345  25099425.1334   25099435.4694
      3547.7594       2764.4824
  20706202.6394  -37290662.08549 -28762769.79847  20706201.4984   20706208.1124
      -191.4104       -149.1504
 99  9 18  0 16  0.0000000  0  8G 4G19G14G22G18G 1G27G16
  24533200.6564  -13173448.63847  -8961490.96845  24533200.1034   24533208.6104
      -483.4094       -376.6844
  21990335.1084   -2613794.11048  -2021922.68847  21990333.9744   21990341.6014
      2756.3404       2147.7964
  22128413.5614  -36028066.15048 -27800830.18246  22128412.3414   22128420.6644
     -2254.2224      -1756.5344
  22646173.1574  -18916217.99648 -14430198.92346  22646171.9414   22646179.4874
     -1770.0194      -1379.2354
  21016050.7234  -32372531.58549 -24942479.08647  21016049.6794   21016057.0434
      2683.2654       2090.8554
  22867243.3094  -35016487.99448 -26627109.53846  22867242.2194   22867250.1594
     -1336.6924      -1041.5764
  25079171.4244   -6372026.66047  -4677845.57245  25079169.5184   25079181.8334
      3547.1114       2763.9744
  20707338.2644  -37284695.16149 -28758120.26847  20707336.7834   20707343.5174
      -207.4894       -161.6804
 99  9 18  0 16 30.0000000  0  8G 4G19G14G22G18G 1G27G16
  24536002.8924  -13158720.91447  -8950014.89145  24536002.5044   24536013.0454
      -497.8384       -387.9274
  21974630.3994   -2696324.17148  -2086231.78447  21974629.2914   21974636.8194
      2746.3824       2140.0374
  22141319.7004  -35960241.10648 -27747979.59046  22141318.9044   22141327.2634
     -2266.6904      -1766.2484
  22656323.4004  -18862878.21948 -14388635.51246  22656321.8824   22656329.5414
     -1785.2214      -1391.0834
  21000758.8564  -32452891.94549 -25005097.54947  21000757.7694   21000765.1654
      2674.7414       2084.2134
  22874897.1124  -34976265.78048 -26595767.63046  22874896.0624   22874904.6164
     -1344.1584      -1047.3934
  25058935.4404   -6478361.89547  -4760704.02545  25058935.2624   25058945.2954
      3542.5004       2760.3924
  20708581.8984  -37278157.28349 -28753025.84347  20708580.7294   20708587.6764
      -227.7034       -177.4314
 99  9 18  0 17  0.0000000  0  8G 4G19G14G22G18G 1G27G16
  24538888.3244  -13143560.37047  -8938201.56945  24538887.7144   24538896.8884
      -512.0804       -399.0264
  21958980.2734   -2778565.69748  -2150316.05947  21958979.1064   21958986.4034
      2737.4284       2133.0594
  22154298.5984  -35892038.51648 -27694834.80446  22154297.6104   22154305.6884
     -2279.1294      -1775.9414
  22666561.0684  -18809082.76148 -14346717.02546  22666559.4244   22666566.6024
     -1800.2964      -1402.8264
  20985517.1754  -32532987.30249 -25067509.50947  20985516.0514   20985523.0634
      2665.7724       2077.2254
  22882595.7864  -34935813.28748 -26564246.29946  22882594.2734   22882602.5504
     -1351.9264      -1053.4464
  25038728.9984   -6584549.20147  -4843447.21845  25038727.7674   25038737.7124
      3537.5934       2756.5644
  20709944.1104  -37271003.44749 -28747451.44947  20709942.5374   20709949.3444
      -248.2904       -193.4714
 99  9 18  0 17 30.0000000  0  8G 4G19G14G22G18G 1G27G16
  24541848.2104  -13128015.21647  -8926088.53245  24541846.5554   24541854.8284
      -525.8554       -409.7604
  21943372.5524   -2860584.94048  -2214227.11847  21943371.4944   21943378.9664
      2729.0964       2126.5644
  22167338.9934  -35823509.85848 -27641435.94146  22167338.1644   22167346.5174
     -2290.8484      -1785.0734
  22676875.6074  -18754882.83348 -14304483.37146  22676873.5584   22676881.2384
     -1814.6364      -1414.0024
  20970320.2244  -32612848.23749 -25129738.80247  20970319.1574   20970326.1334
      2656.6224       2070.0954
  22890331.4604  -34895159.97448 -26532568.46646  22890330.7174   22890338.7374
     -1359.8834      -1059.6474
  25018540.8954   -6690634.25347  -4926110.69845  25018540.5704   25018550.4134
      3533.2994       2753.2114
  20711416.0944  -37263267.24249 -28741423.26247  20711414.6384   20711421.6334
      -268.8504       -209.4924
 99  9 18  0 18  0.0000000  0  8G 4G19G14G22G18G 1G27G16
  24544871.1154  -13112120.25947  -8913702.93145  24544871.3434   24544881.5174
      -538.4024       -419.5304
  21927797.6964   -2942431.95648  -2278003.97247  21927796.7024   21927804.2114
      2722.7724       2121.6404
  22180433.5734  -35754701.47748 -27587819.11546  22180432.3394   22180440.5634
     -2300.6284      -1792.6924
  22687258.4234  -18700316.02848 -14261963.85046  22687256.8804   22687264.7754
     -1827.7504      -1424.2224
  20955166.9514  -32692479.57049 -25191789.18147  20955165.6554   20955172.2804
      2647.8074       2063.2254
  22898102.2474  -34854324.36248 -26500748.58546  22898101.2704   22898109.5964
     -1366.7674      -1065.0094
  24998366.3984   -6796655.26447  -5008724.30545  24998364.8604   24998376.4744
      3530.5664       2751.0864
  20712991.8894  -37254984.47049 -28734969.18347  20712990.5254   20712997.6044
      -287.4894       -224.0164
 99  9 18  0 18 30.0000000  0  8G 4G19G14G22G18G 1G27G16
  24547974.8104  -13095812.61947  -8900995.75845  24547973.9394   24547984.5064
      -553.3804       -431.2084
  21912268.5774   -3024038.15948  -2341593.18347  21912267.4514   21912274.7984
      2713.0814       2114.0884
  22193590.6334  -35685563.08848 -27533945.14146  22193589.3084   22193597.3724
     -2313.1864      -1802.4824
  22697724.7174  -18645315.67448 -14219106.49046  22697722.8274   22697730.3894
     -1843.5244      -1436.5104
  20940071.3434  -32771803.13749 -25253599.74447  20940070.3994   20940077.5224
      2635.9404       2053.9794
  22905920.0954  -34813241.59948 -26468736.11746  22905919.3174   22905927.5574
     -1376.6914      -1072.7434
  24978214.0764   -6902556.67047  -5091244.66645  24978212.7354   24978223.8454
      3524.8604       2746.6374
  20714682.0554  -37246103.55249 -28728049.01247  20714680.7374   20714687.6684
      -309.1164       -240.8684
 99  9 18  0 19  0.0000000  0  8G 4G19G14G22G18G 1G27G16
  24551146.2384  -13079156.33847  -8888016.93545  24551144.7504   24551153.1314
      -556.8314       -433.8924
  21896776.0924   -3105449.73448  -2405030.73947  21896775.1554   21896782.8144
      2714.4574       2115.1604
  22206801.5844  -35616134.60448 -27479845.11546  22206800.8004   22206809.0984
     -2314.9654      -1803.8654
  22708265.4204  -18589925.55648 -14175945.41546  22708263.4104   22708270.8934
     -1848.9224      -1440.7174
  20925027.5254  -32850860.64249 -25315202.98147  20925026.5364   20925033.6354
      2634.9884       2053.2364
  22913777.8504  -34771947.93648 -26436559.33046  22913776.7624   22913785.7674
     -1375.7094      -1071.9784
  24958077.5084   -7008376.70647  -5173701.65645  24958075.8594   24958086.6534
      3530.1484       2750.7624
  20716477.7504  -37236666.83549 -28720695.75547  20716476.4334   20716483.4934
      -319.5964       -249.0354
 99  9 18  0 19 30.0000000  0  8G 4G19G14G22G18G 1G27G16
  24554373.5014  -13062186.34847  -8874793.62845  24554372.9064   24554383.1514
      -567.9734       -442.5804
  21881319.6744   -3186675.98648  -2468323.88847  21881318.3984   21881325.8114
      2707.2654       2109.5584
  22220064.5064  -35546442.18548 -27425539.42346  22220063.1974   22220071.0424
     -2324.5464      -1811.3324
  22718875.9984  -18534163.68948 -14132494.66946  22718874.6114   22718882.2534
     -1861.9404      -1450.8614
  20910029.0514  -32929681.66249 -25376621.94747  20910027.9094   20910034.6254
      2626.4484       2046.5834
  22921669.7474  -34730477.01748 -26404244.40846  22921668.7564   22921677.2084
     -1382.1504      -1076.9984
  24937948.6954   -7114148.68847  -5256121.19845  24937948.0054   24937958.9464
      3527.9964       2749.0754
  20718372.8444  -37226709.29649 -28712936.66247  20718371.3164   20718378.2274
      -337.3154       -262.8424
 99  9 18  0 20  0.0000000  0  8G 4G19G14G22G18G 1G27G16
  24557648.0914  -13044974.53447  -8861381.93245  24557647.8464   24557658.2214
      -577.4434       -449.9534
  21865885.7884   -3267779.18448  -2531521.14847  21865884.5264   21865892.4274
      2701.5784       2105.1254
  22233364.1754  -35476550.57348 -27371078.52046  22233363.0734   22233370.6454
     -2332.7804      -1817.7464
  22729543.7874  -18478106.54948 -14088813.84146  22729542.1434   22729549.9944
     -1873.1514      -1459.5944
  20895060.1664  -33008343.17449 -25437916.62147  20895058.9614   20895065.5474
      2620.0264       2041.5784
  22929579.2044  -34688916.97748 -26371860.04246  22929577.5334   22929586.0584
     -1386.2614      -1080.1984
  24917816.9864   -7219942.82547  -5338558.02645  24917815.9054   24917827.8194
      3527.2024       2748.4624
  20720348.7034  -37216323.99249 -28704844.24447  20720347.3154   20720354.4684
      -352.9134       -274.9964
 99  9 18  0 20 30.0000000  0  9G 4G19G14G22G 3G18G 1G27G16
  24561032.4664  -13027192.70347  -8847526.06145  24561031.2784   24561041.5814
      -598.0974       -466.0514
  21850542.1304   -3348409.97548  -2594350.30447  21850541.1464   21850548.9454
      2684.1114       2091.5144
  22246766.7724  -35406116.47448 -27316194.90246  22246765.9064   22246774.1494
     -2352.6344      -1833.2194
  22740329.9124  -18421427.25948 -14044648.22746  22740327.6384   22740335.8804
     -1895.3734      -1476.9114
  24787262.0164   -4893807.95357  -3329923.55545  24787261.9594   24787274.4504
      3067.4474       2390.2154
  20880180.2874  -33086536.91549 -25498846.79947  20880179.0554   20880185.3254
      2603.1364       2028.4154
  22937565.2414  -34646947.35448 -26339156.53246  22937564.3424   22937572.5084
     -1401.6914      -1092.2254
  24897744.5344   -7325421.21447  -5420748.81045  24897743.7534   24897755.0634
      3514.8774       2738.8604
  20722470.3764  -37205176.56549 -28696157.96947  20722468.9694   20722476.0174
      -380.1134       -296.1924
 99  9 18  0 21  0.0000000  0  9G 4G19G14G22G 3G18G 1G27G16
  24564461.5144  -13009178.87747  -8833489.37745  24564460.6144   24564470.4894
      -610.3244       -475.5714
  21835222.3954   -3428915.04648  -2657081.48547  21835221.4904   21835229.2414
      2675.7094       2084.9664
  22260209.3284  -35335476.09148 -27261150.54546  22260208.2894   22260217.0214
     -2363.7374      -1841.8694
  22751168.9324  -18364464.81448 -14000261.96746  22751166.9924   22751175.7394
     -1909.2694      -1487.7414
  24769747.2924   -4985850.36747  -3401644.77045  24769746.8904   24769758.3544
      3061.5314       2385.6014
  20865322.7794  -33164612.83949 -25559685.17247  20865321.7384   20865328.0074
      2594.7904       2021.9144
  22945566.0834  -34604903.76748 -26306395.38246  22945565.1714   22945572.9634
     -1408.2684      -1097.3474
  24877670.1774   -7430921.65447  -5502956.78345  24877667.7194   24877678.0114
      3511.4394       2736.1854
  20724671.8824  -37193605.65949 -28687141.71547  20724670.5144   20724677.7274
      -398.4544       -310.4824
 99  9 18  0 21 30.0000000  0  9G 4G19G14G22G 3G18G 1G27G16
  24567959.2444  -12990794.47947  -8819163.96245  24567958.1754   24567968.3234
      -620.7424       -483.6884
  21819950.5884   -3509170.65848  -2719618.29147  21819949.4404   21819957.1934
      2669.4954       2080.1264
  22273713.0964  -35264513.06448 -27205854.78246  22273712.1434   22273721.1944
     -2372.4084      -1848.6264
  22762085.8954  -18307096.24448 -13955559.25246  22762084.2534   22762092.3754
     -1920.6354      -1496.5944
  24752265.3974   -5077719.46547  -3473230.95845  24752263.5794   24752276.3144
      3057.7834       2382.6904
  20850513.7614  -33242434.35049 -25620325.29847  20850512.8174   20850519.4584
      2587.9934       2016.6174
  22953603.0814  -34562671.55348 -26273487.24746  22953601.6934   22953610.0174
     -1412.5654      -1100.6964
  24857610.3214   -7536326.78047  -5585090.48345  24857608.5824   24857620.0384
      3510.2094       2735.2254
  20726977.7044  -37181487.59349 -28677699.10047  20726976.4434   20726983.8504
      -414.6514       -323.1044
 99  9 18  0 22  0.0000000  0  9G 4G19G14G22G 3G18G 1G27G16
  24571536.1454  -12971995.59047  -8804515.57645  24571536.3634   24571546.8884
      -634.9264       -494.7474
  21804733.0414   -3589139.62648  -2781931.73547  21804731.7744   21804739.2864
      2659.2754       2072.1614
  22287285.9584  -35193187.75848 -27150276.72046  22287285.1804   22287293.9874
     -2384.9014      -1858.3614
  22773088.9224  -18249276.00748 -13910504.59446  22773086.9374   22773095.3534
     -1936.5184      -1508.9724
  24734823.7994   -5169370.97947  -3544647.57445  24734824.0414   24734834.0754
      3049.9384       2376.5794
  20835762.9994  -33319950.35149 -25680727.36447  20835761.8024   20835768.4944
      2577.5044       2008.4454
  22961683.2674  -34520203.76548 -26240395.55046  22961682.2584   22961691.2914
     -1421.0584      -1107.3154
  24837580.6614   -7641588.67747  -5667112.58845  24837579.2344   24837590.1304
      3504.9904       2731.1554
  20729396.7794  -37168776.92549 -28667794.71247  20729395.3484   20729402.6744
      -435.2254       -339.1364
 99  9 18  0 22 30.0000000  0  9G 4G19G14G22G 3G18G 1G27G16
  24575183.6764  -12952839.23647  -8789588.65145  24575182.8594   24575191.9534
      -646.6874       -503.9094
  21789561.5804   -3668863.20248  -2844053.96147  21789560.5864   21789568.9434
      2651.2024       2065.8704
  22300916.7744  -35121557.68048 -27094461.17746  22300915.8834   22300925.1614
     -2394.8844      -1866.1414
  22784171.0754  -18191037.14448 -13865123.72646  22784169.7144   22784177.4024
     -1950.5614      -1519.9174
  24717417.2434   -5260847.84747  -3615928.07845  24717414.7074   24717430.1834
      3043.8814       2371.8514
  20821058.8374  -33397221.50849 -25740938.64647  20821057.7064   20821064.2794
      2569.3294       2002.0754
  22969803.4794  -34477538.57048 -26207150.03746  22969802.0104   22969810.4494
     -1427.8374      -1112.5984
  24817565.4244   -7746764.30747  -5749067.48345  24817563.9524   24817575.7694
      3502.2654       2729.0284
  20731920.8714  -37155512.11749 -28657458.53447  20731919.3994   20731927.0234
      -453.4474       -353.3344
 99  9 18  0 23  0.0000000  0  9G 4G19G14G22G 3G18G 1G27G16
  24578910.5674  -12933253.26847  -8774326.95845  24578909.2254   24578918.6184
      -661.8854       -515.7504
  21774451.9254   -3748265.37648  -2905925.75847  21774451.0834   21774458.8214
      2639.4274       2056.6954
  22314620.4004  -35049546.20748 -27038348.44346  22314619.5564   22314628.1874
     -2408.5214      -1876.7684
  22795349.7544  -18132294.12248 -13819350.01146  22795348.2274   22795355.6444
     -1968.3334      -1533.7634
  24700060.2944   -5352059.96747  -3687002.33045  24700058.8324   24700068.5184
      3034.0224       2364.1664
  20806418.0244  -33474159.01949 -25800889.94247  20806416.9414   20806423.3384
      2557.1014       1992.5464
  22977977.3864  -34434585.41448 -26173680.12546  22977976.0324   22977983.7474
     -1438.4244      -1120.8464
  24797582.8724   -7851775.25247  -5830894.07745  24797581.0444   24797592.2034
      3495.8164       2724.0094
  20734564.5004  -37141621.47649 -28646634.69347  20734562.9464   20734570.5194
      -475.3254       -370.3824
 99  9 18  0 23 30.0000000  0  9G 4G19G14G22G 3G18G 1G27G16
  24582690.3594  -12913386.48647  -8758846.44645  24582689.5784   24582700.3064
      -671.3444       -523.1224
  21759379.6134   -3827472.18148  -2967645.32247  21759378.5534   21759386.2294
      2632.2354       2051.0904
  22328370.7564  -34977292.07548 -26982046.62146  22328369.4234   22328377.9994
     -2417.2174      -1883.5444
  22806596.6874  -18073192.08048 -13773296.53746  22806594.9744   22806602.8964
     -1980.5944      -1543.3174
  24682727.8624   -5443141.27147  -3757974.64145  24682726.5504   24682736.4534
      3029.1384       2360.3544
  20791815.1964  -33550896.88149 -25860685.66947  20791814.0404   20791820.6824
      2550.0814       1987.0764
  22986180.9014  -34391477.49648 -26140089.61946  22986178.7474   22986187.1544
     -1444.3124      -1125.4374
  24777603.5984   -7956757.54947  -5912698.34045  24777603.3944   24777614.9014
      3494.1964       2722.7464
  20737300.4774  -37127242.31949 -28635430.18747  20737299.2014   20737306.5514
      -492.0044       -383.3794
 99  9 18  0 24  0.0000000  0  9G 4G19G14G22G 3G18G 1G27G16
  24586533.2874  -12893190.27147  -8743109.23945  24586532.7484   24586542.8564
      -677.6604       -528.0464
  21744357.8304   -3906411.87848  -3029156.73647  21744356.7564   21744364.7814
      2628.0314       2047.8154
  22342180.9954  -34904719.22248 -26925496.44646  22342179.7854   22342188.5794
     -2423.1034      -1888.1304
  22817922.3304  -18013675.04748 -13726919.70046  22817920.5304   22817928.8614
     -1989.4634      -1550.2304
  24665435.3764   -5534014.69247  -3828784.97845  24665434.4704   24665443.8754
      3026.8724       2358.5984
  20777262.4104  -33627373.40749 -25920277.75747  20777261.3464   20777267.5404
      2546.0754       1983.9544
  22994427.1414  -34348135.21048 -26106316.50946  22994426.4284   22994435.4104
     -1447.5424      -1127.9524
  24757646.7124   -8061639.12547  -5994424.12845  24757645.2504   24757656.7634
      3495.5754       2723.8224
  20740142.7724  -37112307.14249 -28623792.42547  20740141.3864   20740148.7714
      -505.9394       -394.2374
 99  9 18  0 24 30.0000000  0  9G 4G19G14G22G 3G18G 1G27G16
  24590437.6634  -12872676.63747  -8727124.69245  24590437.1364   24590445.4564
      -689.4904       -537.2644
  21729382.6734   -3985105.62248  -3090476.50747  21729381.6364   21729389.6934
      2618.9414       2040.7324
  22356046.3974  -34831853.73348 -26868718.24646  22356045.6734   22356054.6294
     -2433.9184      -1896.5584
  22829319.7014  -17953781.03548 -13680249.12246  22829317.9724   22829326.4954
     -2002.7404      -1560.5764
  24648176.7454   -5624702.86047  -3899450.96645  24648176.1154   24648189.0894
      3019.7634       2353.0594
  20762757.0134  -33703597.46049 -25979673.11447  20762755.9954   20762762.5654
      2535.8914       1976.0174
  23002717.9044  -34304571.37348 -26072370.75046  23002716.6324   23002725.3134
     -1455.9324      -1134.4914
  24737703.6494   -8166434.05847  -6076082.41445  24737702.7654   24737715.5734
      3491.3394       2720.5154
  20743087.0544  -37096834.13249 -28611735.56947  20743085.6614   20743093.4374
      -524.7694       -408.9094
 99  9 18  0 25  0.0000000  0  9G 4G19G14G22G 3G18G 1G27G16
  24594389.6644  -12851913.34947  -8710945.59545  24594388.6014   24594397.2304
      -694.4724       -541.1374
  21714438.3584   -4063638.72948  -3151671.10647  21714437.4144   21714445.5214
      2617.0784       2039.2814
  22369952.2304  -34758777.73248 -26811776.00946  22369951.2214   22369960.1674
     -2437.2044      -1899.1164
  22840769.7404  -17893609.61448 -13633362.37346  22840768.3114   22840776.6914
     -2008.2374      -1564.8624
  24630937.4544   -5715287.97147  -3970036.63145  24630937.0194   24630950.9464
      3019.7824       2353.0694
  20748292.6784  -33779608.99249 -26038902.87647  20748291.6724   20748298.2104
      2532.1474       1973.1014
  23011034.0114  -34260869.05548 -26038317.07646  23011033.2434   23011041.5594
     -1456.8434      -1135.1994
  24717767.0454   -8271205.56447  -6157722.43245  24717765.4144   24717777.6264
      3493.9604       2722.5634
  20746118.0364  -37080906.22349 -28599324.24847  20746116.6884   20746124.2634
      -536.5014       -418.0514
 99  9 18  0 25 30.0000000  0  9G 4G19G14G22G 3G18G 1G27G16
  24598404.1134  -12830805.70547  -8694498.17645  24598403.9604   24598413.1844
      -712.9794       -555.5634
  21699541.7404   -4141921.27248  -3212670.46847  21699540.7124   21699548.3714
      2601.8294       2027.4004
  22383913.5674  -34685411.11048 -26754607.31646  22383912.6904   22383921.5284
     -2453.8764      -1912.1084
  22852287.7774  -17833084.28448 -13586199.84946  22852286.2494   22852294.2594
     -2026.9604      -1579.4484
  24613739.2044   -5805672.15647  -4040465.72145  24613736.8004   24613748.8984
      3005.9034       2342.2554
  20733886.7264  -33855313.11449 -26097893.10047  20733885.6564   20733892.0424
      2514.7934       1959.5784
  23019392.0094  -34216950.61148 -26004095.00246  23019390.6294   23019399.0434
     -1470.9294      -1146.1754
  24697853.2034   -8375853.91347  -6239266.52645  24697852.1074   24697863.7294
      3482.5994       2713.7094
  20749252.9444  -37064432.44649 -28586487.57647  20749251.5624   20749258.9864
      -561.8254       -437.7854
 99  9 18  0 26  0.0000000  0  9G 4G19G14G22G 3G18G 1G27G16
  24602499.7744  -12809286.26447  -8677729.86545  24602499.0554   24602508.7844
      -718.0964       -559.5484
  21684702.4274   -4219903.81748  -3273436.06147  21684701.3324   21684708.7004
      2600.9034       2026.6784
  22397940.7934  -34611698.18648 -26697168.77646  22397939.5224   22397948.7034
     -2456.3024      -1913.9994
  22863883.9654  -17772147.59048 -13538716.77946  22863882.0484   22863890.2924
     -2031.7804      -1583.2034
  24596590.9394   -5895791.66247  -4110688.56645  24596590.7914   24596598.6014
      3006.2434       2342.5214
  20719551.4194  -33930645.30349 -26156593.50247  20719550.2744   20719556.8874
      2511.3604       1956.9034
  23027798.6484  -34172770.98648 -25969669.41546  23027797.5824   23027806.4954
     -1470.4714      -1145.8174
  24677974.6054   -8480311.05647  -6320661.61545  24677973.7094   24677984.7324
      3485.2164       2715.7524
  20752504.3594  -37047348.75249 -28573175.64147  20752502.7164   20752510.2984
      -573.0974       -446.5684
 99  9 18  0 26 30.0000000  0  9G 4G19G14G22G 3G18G 1G27G16
  24606650.3484  -12787474.84047  -8660734.03345  24606649.4784   24606658.6784
      -736.6304       -573.9984
  21669893.1114   -4297726.20448  -3334076.86347  21669892.1144   21669899.5034
      2586.6174       2015.5474
  22412006.9534  -34537780.30048 -26639570.53446  22412005.9354   22412014.4584
     -2472.0494      -1926.2684
  22875533.5574  -17710928.34348 -13491013.54546  22875531.4804   22875540.1174
     -2050.1724      -1597.5364
  24579463.0234   -5985799.03547  -4180824.04845  24579460.8924   24579473.5644
      2993.6224       2332.6894
  20705260.7274  -34005744.99349 -26215112.73547  20705259.4674   20705265.8334
      2494.9124       1944.0874
  23036227.8114  -34128478.56448 -25935155.93646  23036226.1694   23036235.1934
     -1482.8884      -1155.4954
  24658108.5394   -8584713.91847  -6402014.41745  24658107.2124   24658117.5284
      3474.4834       2707.3884
  20755844.4584  -37029794.40649 -28559496.96747  20755843.1004   20755850.9054
      -597.6304       -465.6864
 99  9 18  0 27  0.0000000  0  9G 4G19G14G22G 3G18G 1G27G16
  24610881.9384  -12765238.56847  -8643407.16645  24610881.9174   24610891.3164
      -743.9864       -579.7334
  21655143.8524   -4375234.64048  -3394473.01447  21655142.8524   21655150.2134
      2582.5024       2012.3384
  22426141.0054  -34463508.17948 -26581696.26346  22426139.4764   22426148.3754
     -2477.3104      -1930.3684
  22887265.9964  -17649270.90248 -13442968.86646  22887264.6454   22887273.1024
     -2058.4224      -1603.9624
  24562385.0084   -6075538.61447  -4250750.85745  24562384.1604   24562394.9174
      2991.1934       2330.7884
  20691036.7714  -34080490.05749 -26273355.63847  20691035.7084   20691042.6714
      2490.4654       1940.6224
  23044703.7084  -34083932.36148 -25900444.69946  23044703.3344   23044711.7664
     -1484.8024      -1156.9864
  24638279.1674   -8688918.43347  -6483212.63545  24638277.8774   24638288.3124
      3474.5484       2707.4334
  20759303.3884  -37011619.02749 -28545334.37047  20759301.9334   20759309.2894
      -612.0224       -476.8994
 99  9 18  0 27 30.0000000  0  9G 4G19G14G22G 3G18G 1G27G16
  24615162.1414  -12742748.63947  -8625882.65045  24615161.9784   24615171.8284
      -759.3974       -591.7314
  21640424.4144   -4452586.08048  -3454746.84547  21640423.3434   21640430.6364
      2570.3124       2002.8414
  22440310.8394  -34389043.68548 -26523672.09246  22440309.8794   22440318.4634
     -2490.8884      -1940.9504
  22899053.8494  -17587326.78148 -13394700.78846  22899052.0514   22899060.4574
     -2075.1764      -1617.0184
  24545328.1214   -6165176.07147  -4320598.09445  24545326.9884   24545338.1974
      2980.7914       2322.6914
  20676842.6354  -34155081.60649 -26331478.91647  20676841.4744   20676848.2374
      2478.2584       1931.1114
  23053200.3894  -34039291.55548 -25865659.75246  23053198.5914   23053206.5984
     -1495.1954      -1165.0844
  24618454.7244   -8793097.11547  -6564390.74546  24618453.4824   24618463.7494
      3466.9774       2701.5374
  20762849.8934  -36992981.75749 -28530811.85847  20762848.5214   20762855.8624
      -634.2884       -494.2504
 99  9 18  0 28  0.0000000  0  9G 4G19G14G22G 3G18G 1G27G16
  24619539.0314  -12719747.68447  -8607959.90245  24619538.0204   24619548.3554
      -774.1974       -603.2704
  21625784.1714   -4529521.37948  -3514696.41047  21625782.9334   21625790.5564
      2558.5214       1993.6524
  22454566.3264  -34314130.64348 -26465298.39946  22454565.2614   22454573.6824
     -2503.3144      -1950.6304
  22910946.9714  -17524832.36748 -13346003.91746  22910944.7534   22910953.2514
     -2091.3344      -1629.6084
  24528335.3704   -6254458.92547  -4390169.01345  24528335.4564   24528347.1304
      2971.3284       2315.3194
  20662726.7484  -34229259.91449 -26389280.18447  20662725.6824   20662732.3994
      2466.8424       1922.2154
  23061763.6674  -33994283.58848 -25830588.70346  23061762.6714   23061771.1844
     -1505.6494      -1173.2304
  24598678.7304   -8897014.67947  -6645365.37945  24598678.2884   24598688.8174
      3460.8434       2696.7554
  20766530.7204  -36973641.46149 -28515741.54047  20766529.2864   20766536.6694
      -655.1324       -510.4914
 99  9 18  0 28 30.0000000  0  9G 4G19G14G22G 3G18G 1G27G16
  24623974.8384  -12696436.24747  -8589795.23045  24623974.6264   24623984.2054
      -781.1924       -608.7204
  21611186.6534   -4606232.04848  -3574470.94947  21611185.5334   21611192.5914
      2554.0784       1990.1914
  22468866.8204  -34238979.16948 -26406738.91546  22468865.6504   22468874.5464
     -2508.0134      -1954.2914
  22922906.3154  -17461981.58948 -13297029.35446  22922904.8334   22922913.1054
     -2100.1634      -1636.4884
  24511379.4234   -6343576.13647  -4459610.84645  24511377.8054   24511390.1164
      2968.2844       2312.9454
  20648652.5574  -34303222.51449 -26446913.37247  20648651.2984   20648658.0074
      2462.6064       1918.9144
  23070364.4714  -33949085.15648 -25795369.22846  23070364.2014   23070372.6174
     -1508.9104      -1175.7734
  24578914.3444   -9000878.43547  -6726298.08045  24578913.8264   24578925.0314
      3462.0314       2697.6824
  20770305.3374  -36953803.88949 -28500283.72847  20770303.8944   20770311.7014
      -668.6384       -521.0144
 99  9 18  0 29  0.0000000  0  9G 4G19G14G22G 3G18G 1G27G16
  24628477.9724  -12672775.07347  -8571358.07545  24628476.7474   24628485.7574
      -793.6694       -618.4404
  21596642.6054   -4682661.65248  -3634026.46047  21596641.4324   21596648.5404
      2544.1174       1982.4264
  22483220.9434  -34163547.31048 -26347960.94946  22483220.2144   22483229.1134
     -2517.8704      -1961.9754
  22934945.3284  -17398717.41048 -13247732.65946  22934943.5514   22934951.8934
     -2114.6264      -1647.7574
  24494467.7034   -6432445.49547  -4528859.52345  24494467.4174   24494477.0554
      2959.2704       2305.9144
  20634629.9754  -34376911.72649 -26504333.52847  20634628.9924   20634635.1254
      2452.5674       1911.0914
  23079014.4674  -33903635.97748 -25759954.38746  23079012.9214   23079021.1984
     -1518.1494      -1182.9684
  24559170.6594   -9104633.59647  -6807146.18246  24559169.5974   24559180.9904
      3457.6594       2694.2804
  20774184.3734  -36933418.75449 -28484399.24947  20774182.8754   20774190.3934
      -687.5484       -535.7494
 99  9 18  0 29 30.0000000  0  9G 4G19G14G22G 3G18G 1G27G16
  24633020.8994  -12648907.80547  -8552760.31545  24633018.6774   24633028.8584
      -797.9004       -621.7374
  21582120.6344   -4758975.19648  -3693491.53647  21582119.5094   21582126.5844
      2543.1514       1981.6754
  22497597.4124  -34088001.32048 -26289094.04646  22497596.2144   22497604.8324
     -2518.8464      -1962.7324
  22947031.3654  -17335202.63148 -13198240.70846  22947029.9504   22947038.6144
     -2120.1324      -1652.0494
  24477574.9514   -6521212.81947  -4598028.70545  24477574.3364   24477585.9584
      2958.1824       2305.0664
  20620636.6654  -34450447.77849 -26561634.33847  20620635.5574   20620641.6184
      2449.2984       1908.5424
  23087680.9064  -33858087.00348 -25724461.79346  23087679.9604   23087689.3094
     -1518.6624      -1183.3684
  24539418.2484   -9208433.38647  -6888029.03745  24539417.0784   24539427.7454
      3461.9744       2697.6354
  20778137.1404  -36912646.63749 -28468213.21747  20778135.8784   20778143.5574
      -697.6414       -543.6154
 99  9 18  0 30  0.0000000  0  9G 4G19G14G22G 3G18G 1G27G16
  24637615.0844  -12624750.93847  -8533936.86645  24637614.6414   24637623.8984
      -813.3764       -633.8024
  21567634.7864   -4835096.65848  -3752806.94647  21567633.7944   21567641.1794
      2530.9364       1972.1574
  22512009.1044  -34012263.82548 -26230077.92546  22512008.5864   22512017.8554
     -2531.0464      -1972.2384
  22959179.2464  -17271366.10148 -13148498.04046  22959177.4024   22959186.1014
     -2136.5334      -1664.8264
  24460722.0784   -6609778.28947  -4667040.61345  24460721.4664   24460732.7294
      2945.6374       2295.2964
  20606694.0494  -34523712.87549 -26618724.01547  20606693.0934   20606699.7554
      2434.3324       1896.8814
  23096382.5874  -33812363.46448 -25688833.16846  23096381.8614   23096390.4894
     -1530.2034      -1192.3624
  24519674.3734   -9312189.26847  -6968877.70345  24519673.2114   24519683.8854
      3454.2394       2691.6084
  20782180.5214  -36891399.09849 -28451656.73447  20782179.0674   20782187.1014
      -719.7474       -560.8404
 99  9 18  0 30 30.0000000  0  9G 4G19G14G22G 3G18G 1G27G16
  24642294.6084  -12600161.81447  -8514776.60445  24642294.3584   24642305.4264
      -823.1824       -641.4344
  21553212.3784   -4910886.61648  -3811864.04447  21553211.4384   21553218.4704
      2524.3334       1967.0134
  22526487.7014  -33936182.41848 -26170793.82746  22526486.4924   22526495.3374
     -2538.3564      -1977.9364
  22971414.8364  -17207067.75048 -13098395.52146  22971413.3614   22971421.5644
     -2147.3614      -1673.2684
  24443933.4844   -6697997.72547  -4735782.87745  24443932.3404   24443944.4754
      2938.5224       2289.7494
  20592833.4094  -34596549.88749 -26675480.11947  20592832.6384   20592839.6414
      2424.2974       1889.0624
  23105143.2924  -33766332.49248 -25652964.97646  23105141.3344   23105150.1954
     -1535.7234      -1196.6684
  24499969.8994   -9415735.59847  -7049563.04945  24499968.8204   24499979.7114
      3451.5964       2689.5514
  20786346.7114  -36869505.94649 -28434597.17647  20786345.2804   20786353.1204
      -737.0064       -574.2894
 99  9 18  0 30 59.9990000  0  9G 4G19G14G22G 3G18G 1G27G16
  24647044.1234  -12575213.24047  -8495336.24545  24647043.1334   24647051.7854
      -843.5554       -657.3164
  21538841.5644   -4986406.37848  -3870710.59447  21538840.5834   21538847.8514
      2507.2384       1953.6914
  22541020.2734  -33859812.23448 -26111284.70946  22541019.6684   22541028.3144
     -2556.5004      -1992.0714
  22983723.5374  -17142385.99048 -13047994.21646  22983722.2784   22983729.8784
     -2168.1714      -1689.4804
  24427198.9934   -6785944.76347  -4804312.90345  24427196.9624   24427208.3834
      2921.6304       2276.5894
  20579044.4134  -34669013.26949 -26731945.08247  20579043.2714   20579050.1744
      2403.3354       1872.7284
  23113945.6054  -33720073.22448 -25616918.89846  23113944.6954   23113953.1184
     -1551.5874      -1209.0234
  24480294.1394   -9519132.50647  -7130131.95845  24480292.7704   24480303.2974
