     2.10           OBSERVATION DATA    G (GPS)             RINEX VERSION / TYPE
teqc  2000Feb29     CORS/NGS/NOAA       20000716 00:44:22UTCPGM / RUN BY / DATE
HP-UX 10.20|PA-RISC|cc A.10.32.03|=+|=|                     COMMENT
BIT 2 OF LLI FLAGS DATA COLLECTED UNDER A/S CONDITION       COMMENT
ppt1                                                        MARKER NAME
xxx                                                         MARKER NUMBER
CORS/NGS/NOAA       U.S. Coast Guard                        OBSERVER / AGENCY
05402               ASHTECH   Z-XII3    RD00                REC # / TYPE / VERS
11092               ASH700829.3                             ANT # / TYPE
 -2725252.3748 -4295978.5284  3833958.9631                  APPROX POSITION XYZ 
        0.0000        0.0000        0.0000                  ANTENNA: DELTA H/E/N
     1     1                                                WAVELENGTH FACT L1/2
     7    C1    L1    L2    P1    P2    D1    D2            # / TYPES OF OBSERV
    30.0000                                                 INTERVAL
 SNR is mapped to RINEX snr flag value [1-9]                COMMENT
  L1: 1 -> 1;  90 -> 5; 210 -> 9                            COMMENT
  L2: 1 -> 1; 150 -> 5; 250 -> 9                            COMMENT
teqc windowed: delta = 86400.000 sec                        COMMENT
  2000     7    15     0     0   30.0000000     GPS         TIME OF FIRST OBS
                                                            END OF HEADER
 00  7 15  0  0 30.0000000  0  7G11G25G29G21G20G 1G15
  20828430.4014  -35437454.66049 -26967359.36347  20828428.1924   20828433.3604
       650.0684        506.5464
  20834746.5644  -32302564.44249 -24849188.48747  20834744.7804   20834750.0404
      1323.1264       1031.0064
  23353913.2314  -29238270.65048 -22756319.73946  23353910.7934   23353917.5604
     -1649.9404      -1285.6664
  23271473.9174  -36904583.62347 -28430809.23945  23271472.4344   23271481.6284
     -1550.1284      -1207.8854
  22761393.7744  -19837753.64548 -15169038.05046  22761391.3104   22761397.5934
      3699.7724       2882.9404
  24257599.4594   -8996596.05548  -6706389.88346  24257597.0724   24257607.4884
      3609.7974       2812.8264
  22911721.9214  -32919629.62647 -25354846.10745  22911719.1794   22911728.9524
     -2748.1534      -2141.4064
 00  7 15  0  1  0.0000000  0  7G11G25G29G21G20G 1G15
  20824793.0104  -35456570.17549 -26982254.57147  20824790.7874   20824795.8074
       626.2994        488.0264
  20827261.8364  -32341894.14749 -24879834.98747  20827260.0654   20827265.5044
      1300.9164       1013.6994
  23363353.0624  -29188665.20048 -22717666.20446  23363350.6174   23363357.4084
     -1655.1284      -1289.7084
  23280365.5314  -36857858.91047 -28394400.50745  23280363.8384   23280373.1274
     -1562.7744      -1217.7454
  22740299.1394  -19948607.81048 -15255417.84946  22740296.1344   22740302.5574
      3692.5624       2877.3174
  24237023.5324   -9104717.49148  -6790640.10846  24237021.5784   24237031.9354
      3600.3644       2805.4674
  22927446.8674  -32836995.70947 -25290456.18545  22927444.2774   22927454.1254
     -2758.7574      -2149.6754
 00  7 15  0  1 30.0000000  0  7G11G25G29G21G20G 1G15
  20821239.9324  -35475241.86049 -26996803.93647  20821237.5284   20821242.6494
       612.4734        477.2514
  20819853.4064  -32380828.08849 -24910173.10047  20819851.7144   20819856.2684
      1288.7374       1004.2104
  23372770.2014  -29139173.56948 -22679101.36746  23372768.6934   23372775.5624
     -1650.3584      -1285.9934
  23289278.8864  -36811025.08447 -28357906.75845  23289275.9954   23289285.0034
     -1565.4134      -1219.7994
  22719193.9794  -20059513.74348 -15341837.98646  22719191.3794   22719197.5624
      3695.1944       2879.3684
  24216451.6054   -9212824.65848  -6874879.22546  24216449.4084   24216459.2994
      3600.8124       2805.8194
  22943180.6164  -32754315.29847 -25226030.03445  22943179.0684   22943187.1634
     -2759.2804      -2150.0834
 00  7 15  0  2  0.0000000  0  7G11G25G29G21G20G 1G15
  20817807.8594  -35493275.27149 -27010855.94847  20817805.7854   20817811.2004
       588.3454        458.4494
  20812557.2064  -32419171.13049 -24940050.77347  20812555.3344   20812560.0844
      1266.1474        986.6084
  23382204.1134  -29089601.41648 -22640473.77346  23382201.8864   23382208.2914
     -1655.8304      -1290.2574
  23298248.8084  -36763887.34347 -28321176.16945  23298246.7364   23298255.3794
     -1578.4234      -1229.9304
  22698115.6254  -20170275.16348 -15428145.52046  22698113.7964   22698119.9604
      3687.5234       2873.3904
  24195919.1344   -9320722.17647  -6958954.96945  24195916.5944   24195926.5414
      3590.9364       2798.1244
  22958960.8504  -32671396.11847 -25161417.82545  22958957.7994   22958967.0144
     -2770.0354      -2158.4634
 00  7 15  0  2 30.0000000  0  7G11G25G29G21G20G 1G15
  20814483.0414  -35510749.81449 -27024472.47947  20814480.8844   20814485.8104
       572.5234        446.1224
  20805357.7934  -32457002.64149 -24969529.85647  20805356.0044   20805361.0104
      1251.9134        975.5174
  23391636.8574  -29040029.03748 -22601846.01246  23391634.9644   23391642.7224
     -1653.0534      -1288.0904
  23307260.9094  -36716525.64247 -28284271.08345  23307258.5594   23307267.7964
     -1583.0494      -1233.5454
  22677051.9734  -20280969.86248 -15514401.06546  22677049.4404   22677055.6994
      3688.0594       2873.8094
  24175410.7904   -9428488.96547  -7042928.82146  24175409.0164   24175419.2874
      3589.4214       2796.9394
  22974769.1954  -32588320.44347 -25096683.67745  22974766.2974   22974775.3854
     -2772.4184      -2160.3234
 00  7 15  0  3  0.0000000  0  7G11G25G29G21G20G 1G15
  20811278.9704  -35527586.04149 -27037591.61847  20811276.7534   20811281.9924
       552.1724        430.2644
  20798271.7534  -32494242.61449 -24998547.99647  20798269.7644   20798274.4044
      1233.1374        960.8854
  23401085.4994  -28990376.79748 -22563156.02446  23401083.9234   23401090.6084
     -1654.7574      -1289.4224
  23316332.2434  -36668860.26547 -28247129.35545  23316330.2164   23316338.8504
     -1592.2254      -1240.6884
  22656015.8534  -20391516.33048 -15600541.10446  22656013.1774   22656019.3554
      3684.0504       2870.6884
  24154945.0034   -9536044.60748  -7126738.17446  24154942.4324   24154952.0004
      3583.3184       2792.1904
  22990621.6734  -32505010.71147 -25031767.14245  22990619.5084   22990629.4204
     -2779.2204      -2165.6194
 00  7 15  0  3 30.0000000  0  7G11G25G29G21G20G 1G15
  20808177.9314  -35543882.43249 -27050290.11047  20808175.7424   20808180.8174
       533.2944        415.5544
  20791279.3244  -32530989.29749 -25027181.75847  20791277.3394   20791281.7514
      1215.7614        947.3474
  23410530.9294  -28940743.85248 -22524481.07746  23410528.5344   23410535.9074
     -1655.0284      -1289.6334
  23325441.1564  -36620990.22147 -28209828.15245  23325438.6344   23325448.1154
     -1599.9124      -1246.6824
  22634989.0584  -20502011.34448 -15686641.04246  22634986.2624   22634992.5374
      3681.3964       2868.6174
  24134499.3254   -9643487.22448  -7210459.46246  24134496.6994   24134506.6284
      3578.6534       2788.5554
  23006500.6534  -32421567.61847 -24966746.69745  23006498.6814   23006507.4644
     -2784.4974      -2169.7314
 00  7 15  0  4  0.0000000  0  7G11G25G29G21G20G 1G15
  20805183.3564  -35559619.40149 -27062552.69147  20805181.2304   20805186.1704
       514.3934        400.8274
  20784383.6574  -32567222.68449 -25055415.54047  20784381.8744   20784386.6254
      1198.4104        933.8264
  23419975.4624  -28891110.91248 -22485806.13646  23419973.4744   23419981.0564
     -1655.2554      -1289.8094
  23334592.5694  -36572895.36847 -28172351.76345  23334591.0564   23334600.5674
     -1607.7484      -1252.7864
  22613976.6894  -20612433.34248 -15772684.09146  22613974.1934   22613979.8134
      3678.6804       2866.5014
  24114077.9274   -9750796.41147  -7294076.79046  24114075.8934   24114085.6774
      3573.9044       2784.8524
  23022407.8904  -32337974.10247 -24901609.03745  23022405.8074   23022415.1974
     -2789.7834      -2173.8514
 00  7 15  0  4 30.0000000  0  7G11G25G29G21G20G 1G15
  20802304.0054  -35574751.13249 -27074343.65847  20802301.6514   20802306.5154
       493.8004        384.7794
  20777595.2414  -32602896.35649 -25083213.19047  20777593.4594   20777597.9294
      1179.3404        918.9664
  23429428.9804  -28841432.50548 -22447095.76246  23429427.1044   23429434.1284
     -1657.1764      -1291.3054
  23343797.5274  -36524529.63247 -28134664.32245  23343795.4284   23343803.6884
     -1617.2114      -1260.1584
  22592986.7874  -20722735.10248 -15858633.44146  22592984.3184   22592990.3684
      3674.2064       2863.0144
  24093691.9854   -9857925.75248  -7377553.96646  24093689.4564   24093699.2524
      3567.4884       2779.8544
  23038351.9984  -32254186.57347 -24836320.21845  23038349.7124   23038359.6464
     -2796.5794      -2179.1484
 00  7 15  0  5  0.0000000  0  7G11G25G29G21G20G 1G15
  20799539.9024  -35589272.90849 -27085659.33247  20799537.9504   20799542.9404
       474.1704        369.4824
  20770914.4454  -32638005.44349 -25110570.91047  20770912.3674   20770916.9544
      1161.2024        904.8314
  23438892.1364  -28791703.99348 -22408346.34546  23438890.1044   23438896.8454
     -1658.1694      -1292.0794
  23353053.6754  -36475888.10747 -28096761.97445  23353051.1634   23353060.2724
     -1625.6864      -1266.7634
  22572021.7084  -20832909.34048 -15944483.43146  22572019.0674   22572024.9714
      3670.6424       2860.2374
  24073340.9104   -9964869.69448  -7460886.69046  24073338.4984   24073348.3514
      3562.0284       2775.5974
  23054334.2974  -32170202.49247 -24770878.24345  23054331.8674   23054342.1714
     -2802.3964      -2183.6774
 00  7 15  0  5 30.0000000  0  7G11G25G29G21G20G 1G15
  20796889.0864  -35603203.06049 -27096514.00247  20796887.0844   20796892.2554
       453.7274        353.5544
  20764336.8734  -32672568.18849 -25137502.90747  20764335.0884   20764339.9434
      1142.2574        890.0694
  23448361.6104  -28741944.12548 -22369572.49346  23448359.4504   23448365.8174
     -1659.8574      -1293.3914
  23362358.6174  -36426989.49747 -28058659.29645  23362356.2294   23362366.2984
     -1634.9674      -1273.9934
  22551076.6624  -20942972.92848 -16030247.20046  22551074.2454   22551080.2374
      3666.1934       2856.7734
  24053022.2564  -10071645.84548  -7544088.66146  24053019.8154   24053029.9274
      3555.7084       2770.6724
  23070349.6344  -32086042.56947 -24705299.24345  23070347.7094   23070357.0004
     -2808.9564      -2188.7874
 00  7 15  0  6  0.0000000  0  7G11G25G29G21G20G 1G15
  20794332.5584  -35616638.43149 -27106983.13147  20794330.4624   20794335.8954
       434.3474        338.4524
  20757846.0894  -32706680.50649 -25164083.92247  20757844.1684   20757848.8224
      1124.3344        876.1044
  23457818.4074  -28692249.78148 -22330849.69846  23457815.9614   23457822.6614
     -1660.6224      -1293.9884
  23371694.0024  -36377930.68647 -28020431.77845  23371691.6914   23371701.9164
     -1643.1824      -1280.3934
  22530135.9254  -21053020.58348 -16115998.55146  22530133.0034   22530139.1014
      3662.7284       2854.0724
  24032717.4024  -10178350.31648  -7627234.78146  24032714.6984   24032724.2364
      3550.4024       2766.5424
  23086379.5594  -32001805.44347 -24639660.08645  23086376.9324   23086386.6064
     -2814.3934      -2193.0294
 00  7 15  0  6 30.0000000  0  7G11G25G29G21G20G 1G15
  20791911.0684  -35629365.28349 -27116900.16847  20791908.7364   20791913.6294
       413.8864        322.5104
  20751481.2324  -32740128.57549 -25190147.34047  20751479.4104   20751483.9984
      1105.3604        861.3194
  23467302.7094  -28642407.59148 -22292011.70646  23467300.5574   23467307.2914
     -1662.3624      -1295.3404
  23381102.1864  -36328497.57247 -27981912.61945  23381099.4994   23381108.9284
     -1652.5204      -1287.6764
  22509238.1564  -21162836.57948 -16201569.38146  22509235.5704   22509242.1354
      3658.1464       2850.5034
  24012465.2614  -10284768.61048  -7710157.93046  24012463.3084   24012473.3344
      3543.9984       2761.5514
  23102464.3414  -31917279.89147 -24573796.17745  23102461.9804   23102471.3274
     -2820.7824      -2197.9974
 00  7 15  0  6 59.9990000  0  7G11G25G29G21G20G 1G15
  20789579.3964  -35641617.35749 -27126447.24447  20789577.2484   20789582.4024
       401.4694        312.8334
  20745198.3034  -32773144.82249 -25215874.27347  20745196.3564   20745201.1814
      1094.4064        852.7844
  23476770.6974  -28592653.12948 -22253242.07546  23476768.4404   23476775.6534
     -1656.1054      -1290.4664
  23390533.9844  -36278925.28347 -27943285.02245  23390531.6104   23390541.5014
     -1653.7764      -1288.6454
  22488341.2554  -21272649.10948 -16287137.51846  22488338.9324   22488345.5114
      3661.5454       2853.1494
  23992225.3794  -10391130.27748  -7793036.95646  23992223.1084   23992233.5114
      3545.6214       2762.8184
  23118559.5654  -31832704.59947 -24507893.50545  23118556.5244   23118565.2784
     -2819.1314      -2196.7234
 00  7 15  0  7 29.9990000  0  7G11G25G29G21G20G 1G15
  20787351.8114  -35653325.21749 -27135570.26147  20787349.5434   20787354.6424
       377.8644        294.4404
  20739010.4264  -32805660.93249 -25241211.48947  20739008.8094   20739013.5454
      1072.2584        835.5254
  23486235.7714  -28542913.08848 -22214483.68246  23486233.7414   23486241.1224
     -1661.0044      -1294.2864
  23400009.2484  -36229140.73847 -27904492.01645  23400005.9634   23400015.2354
     -1666.2774      -1298.3954
  22467457.2844  -21382393.47948 -16372652.56746  22467454.9054   22467461.4254
      3653.6234       2846.9774
  23972008.6984  -10497371.34948  -7875822.01046  23972006.5424   23972016.5284
      3536.0264       2755.3394
  23134677.7884  -31748006.05347 -24441894.78245  23134674.1384   23134683.5034
     -2828.5744      -2204.0774
 00  7 15  0  7 59.9990000  0  7G11G25G29G21G20G 1G15
  20785251.5024  -35664359.04449 -27144168.05847  20785249.6474   20785254.8584
       353.6364        275.5614
  20732943.0414  -32837545.85049 -25266056.86547  20732941.3354   20732945.8974
      1049.4484        817.7514
  23495722.5794  -28493059.89848 -22175637.12346  23495720.4494   23495727.9724
     -1666.5624      -1298.6144
  23409547.0234  -36179015.53447 -27865433.55845  23409544.9294   23409555.3564
     -1679.4194      -1308.6344
  22446613.6634  -21491934.39948 -16458009.06646  22446610.8974   22446616.7504
      3645.0724       2840.3154
  23951839.5804  -10603358.10548  -7958408.89846  23951837.4844   23951847.7524
      3525.7574       2747.3354
  23150841.4764  -31663059.61047 -24375702.91545  23150838.8754   23150848.3764
     -2838.5304      -2211.8414
 00  7 15  0  8 29.9990000  0  7G11G25G29G21G20G 1G15
  20783274.2444  -35674753.60049 -27152267.72347  20783271.9324   20783276.6174
       336.7174        262.3774
  20726989.5124  -32868834.13349 -25290437.32947  20726987.4914   20726991.9554
      1033.9274        805.6574
  23505224.0084  -28443128.30448 -22136729.47446  23505221.9644   23505229.9324
     -1664.7994      -1297.2424
  23419144.1574  -36128584.33547 -27826136.66245  23419142.1974   23419150.9504
     -1685.1634      -1313.1064
  22425801.1884  -21601304.45748 -16543232.42646  22425798.4114   22425803.5044
      3643.7084       2839.2524
  23931713.3244  -10709124.52348  -8040824.08646  23931710.4414   23931720.5784
      3522.7914       2745.0214
  23167045.3794  -31577902.15047 -24309346.62645  23167043.3474   23167053.5954
     -2841.1264      -2213.8574
 00  7 15  0  8 59.9990000  0  7G11G25G29G21G20G 1G15
  20781390.5934  -35684650.90849 -27159979.92047  20781388.5294   20781393.0844
       322.4234        251.2394
  20721121.8054  -32899667.59349 -25314463.39147  20721119.9164   20721124.5934
      1021.0144        795.5954
  23514713.1604  -28393260.28048 -22097871.35246  23514711.5244   23514719.1784
     -1660.4044      -1293.8184
  23428772.8744  -36077988.60247 -27786711.56045  23428770.3334   23428779.1684
     -1688.3994      -1315.6274
  22404993.7984  -21710643.24948 -16628431.43446  22404991.3144   22404996.3114
      3644.9404       2840.2104
  23911601.2164  -10814811.45248  -8123177.35946  23911598.8584   23911608.7664
      3522.4424       2744.7544
  23183263.2624  -31492677.64947 -24242938.08645  23183260.7384   23183271.3444
     -2841.0424      -2213.7914
 00  7 15  0  9 29.9990000  0  7G11G25G29G21G20G 1G15
  20779606.7764  -35694025.60249 -27167284.88747  20779604.6124   20779609.1534
       300.7624        234.3604
  20715346.2644  -32930020.07649 -25338114.66147  20715344.2284   20715348.7144
      1000.7494        779.8034
  23524196.4134  -28343430.21548 -22059042.79946  23524194.4484   23524201.5114
     -1663.3884      -1296.1424
  23438436.7624  -36027203.39647 -27747138.81845  23438434.2444   23438443.2114
     -1698.9334      -1323.8284
  22384198.5764  -21819923.31848 -16713584.69046  22384196.0944   22384201.1584
      3638.6714       2835.3274
  23891509.3724  -10920392.84848  -8205448.38946  23891507.1464   23891517.0414
      3514.6224       2738.6564
  23199497.7994  -31407362.85347 -24176459.19545  23199495.7154   23199505.7344
     -2848.3024      -2219.4534
 00  7 15  0  9 59.9990000  0  7G11G25G29G21G20G 1G15
  20777951.5824  -35702723.23649 -27174062.27847  20777949.4604   20777953.9444
       277.7884        216.4614
  20709691.2484  -32959736.85349 -25361270.57647  20709689.2184   20709693.8094
       979.1624        762.9834
  23533701.0284  -28293484.07248 -22020123.79746  23533699.1324   23533706.2684
     -1667.6364      -1299.4584
  23448165.6904  -35976073.91347 -27707297.79045  23448163.3514   23448173.5864
     -1710.8454      -1333.1234
  22363444.0574  -21928988.19548 -16798570.25246  22363441.2764   22363447.0334
      3631.0844       2829.4154
  23871467.0834  -11025713.34648  -8287516.14046  23871464.8744   23871474.9044
      3505.5154       2731.5654
  23215778.6904  -31321805.32047 -24109791.15845  23215776.9054   23215787.4874
     -2856.7624      -2226.0414
 00  7 15  0 10 29.9990000  0  7G11G25G29G21G20G 1G15
  20776406.9564  -35710840.49049 -27180387.41947  20776404.8244   20776409.5664
       260.2774        202.8144
  20704138.8294  -32988914.14049 -25384006.11347  20704136.9284   20704141.5564
       962.9874        750.3794
  23543208.9314  -28243517.90048 -21981189.17846  23543207.4614   23543214.5994
     -1666.4754      -1298.5514
  23457942.3804  -35924696.27947 -27667263.40545  23457941.4454   23457950.3644
     -1717.3514      -1338.1954
  22342713.1494  -22037932.02948 -16883461.50146  22342710.3414   22342715.9364
      3628.8204       2827.6504
  23851457.1224  -11130868.51648  -8369455.07246  23851455.1694   23851464.3044
      3501.7814       2728.6544
  23232087.3854  -31236103.29547 -24043010.53645  23232085.5904   23232095.3684
     -2859.7384      -2228.3584
 00  7 15  0 10 59.9990000  0  7G11G25G29G21G20G 1G15
  20774954.5434  -35718473.86949 -27186335.52247  20774952.3744   20774956.9104
       246.1134        191.7774
  20698671.0474  -33017648.17749 -25406396.26347  20698668.8234   20698673.5914
       950.1764        740.3964
  23552703.9614  -28193628.39047 -21942314.30446  23552701.3204   23552708.3714
     -1661.9774      -1295.0494
  23467750.1554  -35873166.56847 -27627110.51845  23467747.5754   23467756.3554
     -1720.4294      -1340.5934
  22321985.7054  -22146849.12048 -16968331.91946  22321983.5814   22321989.5244
      3629.8814       2828.4774
  23831459.4704  -11235953.94248  -8451339.66546  23831457.6654   23831467.3544
      3501.4594       2728.4094
  23248405.1664  -31150355.62847 -23976194.34545  23248402.8564   23248413.6734
     -2859.2134      -2227.9514
 00  7 15  0 11 29.9990000  0  7G11G25G29G21G20G 1G15
  20773611.4564  -35725532.01149 -27191835.38247  20773609.2364   20773613.6544
       230.2644        179.4264
  20693304.4804  -33045847.28749 -25428369.58447  20693302.8914   20693307.6054
       935.6284        729.0614
  23562199.4574  -28143724.18147 -21903427.97746  23562197.3454   23562204.9754
     -1659.1794      -1292.8644
  23477601.1664  -35821394.04147 -27586768.42845  23477599.1324   23477608.7104
     -1725.2424      -1344.3354
  22301282.9694  -22255645.91148 -17053108.58746  22301280.3174   22301286.3264
      3629.0924       2827.8614
  23811493.6124  -11340877.48548  -8533098.13446  23811491.5714   23811500.4344
      3499.3344       2726.7524
  23264748.7154  -31064472.93747 -23909272.94945  23264746.6904   23264755.6754
     -2860.4134      -2228.8904
 00  7 15  0 11 59.9990000  0  7G11G25G29G21G20G 1G15
  20772379.5394  -35732003.87749 -27196878.40747  20772377.4804   20772382.4074
       208.4784        162.4524
  20688042.7974  -33073499.80849 -25449916.99247  20688040.9974   20688045.5734
       915.2044        713.1454
  23571700.9474  -28093793.71648 -21864521.20146  23571698.7944   23571706.5804
     -1662.2944      -1295.2904
  23487501.4404  -35769366.35347 -27546227.50345  23487499.1604   23487508.2254
     -1735.9564      -1352.6854
  22280604.6114  -22364308.94448 -17137781.03646  22280602.4174   22280608.4054
      3622.3764       2822.6294
  23791560.0394  -11445626.78548  -8614720.82946  23791557.8904   23791567.4094
      3491.2844       2720.4744
  23281119.9974  -30978445.64747 -23842238.86145  23281117.9824   23281126.3334
     -2867.4074      -2234.3464
 00  7 15  0 12 29.9990000  0  7G11G25G29G21G20G 1G15
  20771264.0264  -35737869.16349 -27201448.77947  20771261.7424   20771266.2564
       184.3414        143.6434
  20682888.5924  -33100584.81649 -25471022.18147  20682886.7174   20682891.2244
       892.3724        695.3544
  23581211.5164  -28043816.42948 -21825577.93146  23581209.8314   23581216.5404
     -1667.7534      -1299.5454
  23497454.9004  -35717063.15747 -27505471.90845  23497452.3404   23497462.0994
     -1749.0604      -1362.8934
  22259957.0244  -22472815.27748 -17222331.37946  22259954.2604   22259960.0954
      3613.2224       2815.4974
  23771664.3724  -11550180.65448  -8696191.23046  23771661.8584   23771670.9394
      3480.8644       2712.3594
  23297521.7784  -30892255.42347 -23775077.81245  23297519.2054   23297528.7774
     -2876.7514      -2241.6164
 00  7 15  0 12 59.9990000  0  7G11G25G29G21G20G 1G15
  20770270.9724  -35743087.93749 -27205515.37147  20770268.6164   20770272.9834
       165.9724        129.3294
  20677849.8314  -33127062.22949 -25491653.91947  20677847.8954   20677852.7524
       875.2744        682.0314
  23590739.0154  -27993752.30648 -21786566.99246  23590736.4214   23590743.8544
     -1667.4744      -1299.3274
  23507468.9034  -35664444.00747 -27464470.13345  23507466.1834   23507476.3484
     -1756.4234      -1368.6394
  22239346.6704  -22581122.54048 -17306726.59546  22239344.2894   22239349.9984
      3609.6974       2812.7494
  23751813.2914  -11654497.94448  -8777477.28146  23751810.6724   23751819.7424
      3476.1064       2708.6484
  23313961.2904  -30805864.21147 -23707760.15845  23313958.8074   23313968.3634
     -2880.3164      -2244.3964
 00  7 15  0 13 29.9990000  0  7G11G25G29G21G20G 1G15
  20769367.1654  -35747833.54549 -27209213.26247  20769365.2594   20769369.9514
       149.1634        116.2314
  20672894.0674  -33153104.76749 -25511946.80347  20672892.2444   20672897.0374
       859.7204        669.9124
  23600249.3644  -27943774.38848 -21747623.22646  23600247.3574   23600254.1794
     -1665.6524      -1297.9134
  23517507.6654  -35611681.78947 -27423356.85545  23517506.4404   23517516.2074
     -1762.2214      -1373.1554
  22218742.0424  -22689401.59748 -17391099.83846  22218739.5304   22218744.8784
      3607.6674       2811.1684
  23731974.7254  -11758751.11748  -8858713.34446  23731972.3354   23731981.3114
      3472.9004       2706.1514
  23330405.5084  -30719447.22047 -23640422.43245  23330403.0484   23330413.4704
     -2882.1384      -2245.8174
 00  7 15  0 13 59.9990000  0  7G11G25G29G21G20G 1G15
  20768577.5784  -35751988.04549 -27212450.55347  20768575.2224   20768579.5154
       129.7064        101.0704
  20668043.6034  -33178594.32349 -25531808.78947  20668041.8304   20668046.5234
       841.5204        655.7294
  23609765.5384  -27893764.40748 -21708654.47446  23609763.6744   23609770.8934
     -1666.4744      -1298.5454
  23527599.2384  -35558659.12447 -27382040.63645  23527596.7024   23527606.6594
     -1770.6674      -1379.7284
  22198165.6984  -22797532.08648 -17475357.31846  22198163.0124   22198168.1004
      3602.9304       2807.4764
  23712169.8864  -11862821.13048  -8939806.69846  23712167.7594   23712177.8094
      3467.0614       2701.5984
  23346877.4084  -30632888.31647 -23572974.11945  23346875.4354   23346885.2554
     -2886.5244      -2249.2394
 00  7 15  0 14 29.9990000  0  7G11G25G29G21G20G 1G15
  20767884.6614  -35755628.29649 -27215287.13147  20767882.3984   20767886.7264
       107.3424         83.6444
  20663283.9824  -33203607.14249 -25551299.28847  20663282.1784   20663286.7644
       820.4344        639.2984
  23619273.6124  -27843798.89248 -21669720.38146  23619271.5744   23619278.6484
     -1670.1644      -1301.4234
  23537723.9204  -35505451.84947 -27340580.56445  23537723.1714   23537731.1384
     -1782.0724      -1388.6224
  22177603.0304  -22905588.42248 -17559557.01146  22177600.4124   22177605.5994
      3595.2184       2801.4664
  23692386.4374  -11966783.65848  -9020816.28946  23692384.5894   23692394.4324
      3458.2404       2694.7294
  23363361.3454  -30546265.94847 -23505476.36145  23363359.3334   23363369.9464
     -2893.8694      -2254.9524
 00  7 15  0 14 59.9990000  0  7G11G25G29G21G20G 1G15
  20767302.3604  -35758687.19949 -27217670.71047  20767300.1464   20767304.7814
        93.9994         73.2474
  20658627.8954  -33228075.63849 -25570365.64047  20658625.9184   20658630.5004
       808.3134        629.8544
  23628786.3434  -27793809.94248 -21630768.02746  23628784.0914   23628791.3514
     -1664.8854      -1297.3144
  23547897.9894  -35451992.03247 -27298923.70045  23547895.5384   23547904.8044
     -1784.4394      -1390.4604
  22157068.1264  -23013500.65748 -17643644.41346  22157065.3764   22157070.4954
      3596.4184       2802.4004
  23672636.4094  -12070570.33648  -9101688.88146  23672634.2994   23672644.6114
      3458.4394       2694.8834
  23379869.9644  -30459514.79647 -23437878.25345  23379867.0844   23379878.1254
     -2892.0724      -2253.5564
 00  7 15  0 15 29.9990000  0  7G11G25G29G21G20G 1G15
  20766831.5344  -35761160.93449 -27219598.31747  20766829.4164   20766834.2414
        71.7374         55.8994
  20654076.2404  -33251995.29249 -25589004.32547  20654074.4524   20654078.7724
       787.2344        613.4294
  23638304.1894  -27743793.88448 -21591794.55746  23638301.9444   23638309.3454
     -1668.5864      -1300.1994
  23558117.8774  -35398275.62547 -27257066.89345  23558116.4254   23558126.1454
     -1795.7304      -1399.2554
  22136561.5454  -23121262.49848 -17727614.63446  22136558.9344   22136564.0044
      3588.5854       2796.2994
  23652920.6984  -12174176.13048  -9182420.50946  23652918.4754   23652928.0524
      3449.5424       2687.9544
  23396403.0434  -30372632.97547 -23370178.32345  23396400.7794   23396412.1444
     -2899.1314      -2259.0594
 00  7 15  0 15 59.9990000  0  7G11G25G29G21G20G 1G15
  20766468.2294  -35763069.61549 -27221085.61947  20766466.1504   20766471.0874
        52.4494         40.8704
  20649624.9144  -33275385.90249 -25607230.76347  20649623.1064   20649627.4424
       769.1604        599.3444
  23647822.7274  -27693770.00447 -21552814.98746  23647821.2754   23647828.8134
     -1669.3104      -1300.7554
  23568387.2214  -35344322.70847 -27215025.77745  23568383.7544   23568393.4954
     -1804.0874      -1405.7714
  22116079.8894  -23228891.47248 -17811481.32546  22116077.3244   22116082.8594
      3583.6694       2792.4684
  23633236.3554  -12277620.00848  -9263025.96346  23633233.9094   23633243.5294
      3443.7254       2683.4164
  23412956.8484  -30285642.00347 -23302393.34045  23412954.9014   23412965.9224
     -2903.1704      -2262.1984
 00  7 15  0 16 29.9990000  0  7G11G25G29G21G20G 1G15
  20766232.6564  -35764307.59049 -27222050.29347  20766230.6154   20766235.3174
        31.1824         24.2994
  20645294.7874  -33298141.84549 -25624962.65847  20645292.8084   20645297.3594
       749.0684        583.6904
  23657363.7344  -27643632.42047 -21513746.81146  23657362.1024   23657369.3744
     -1672.0824      -1302.9184
  23578718.4254  -35290027.22347 -27172717.74145  23578715.5214   23578725.3604
     -1814.4824      -1413.8644
  22095644.7364  -23336279.17348 -17895160.00846  22095642.4304   22095647.9084
      3576.6374       2786.9884
  23613602.9774  -12380795.37148  -9343422.16146  23613600.6824   23613608.9814
      3435.8164       2677.2554
  23429550.9484  -30198437.89447 -23234442.27745  23429548.5604   23429560.6014
     -2909.2124      -2266.9134
 00  7 15  0 16 59.9990000  0  7G11G25G29G21G20G 1G15
  20766092.3354  -35765045.64149 -27222625.41447  20766090.1944   20766095.0224
        16.5654         12.9094
  20641053.0464  -33320433.02249 -25642332.40047  20641051.0254   20641055.7524
       735.6334        573.2214
  23666895.4574  -27593551.46447 -21474722.76145  23666892.5214   23666899.6444
     -1668.1184      -1299.8294
  23589083.1534  -35235559.74647 -27130275.66745  23589080.9334   23589091.1504
     -1818.1194      -1416.7154
  22075223.8614  -23443593.92648 -17978781.85046  22075221.1174   22075226.7624
      3576.2304       2786.6704
  23593987.3044  -12483871.83548  -9423741.28346  23593985.2334   23593994.6654
      3434.5234       2676.2444
  23446152.3144  -30111193.20547 -23166459.60245  23446150.6134   23446162.5494
     -2908.5104      -2266.3654
 00  7 15  0 17 29.9990000  0  7G11G25G29G21G20G 1G15
  20766050.1604  -35765266.03149 -27222797.16947  20766048.0984   20766053.1924
        -0.9664         -0.7524
  20636902.4704  -33342241.37549 -25659325.91947  20636900.6724   20636905.3834
       719.2534        560.4574
  23676417.4674  -27543508.57147 -21435728.38045  23676415.1954   23676422.9634
     -1667.1214      -1299.0544
  23599483.2774  -35180901.26047 -27087684.76545  23599481.7884   23599492.3214
     -1824.8164      -1421.9284
  22054820.3074  -23550815.02048 -18062330.70746  22054817.8484   22054823.3244
      3572.7514       2783.9624
  23574395.4014  -12586830.37048  -9503968.52946  23574392.8674   23574401.9914
      3430.2884       2672.9484
  23462766.3434  -30023891.70147 -23098432.67945  23462762.9944   23462775.7784
     -2910.6494      -2268.0274
 00  7 15  0 17 59.9990000  0  7G11G25G29G21G20G 1G15
  20766094.3854  -35765034.63549 -27222616.88547  20766092.2154   20766097.0564
       -16.8324        -13.1154
  20632832.1104  -33363632.14749 -25675994.04347  20632830.3174   20632834.9844
       704.5074        548.9664
  23685920.7334  -27493569.24647 -21396814.70445  23685918.6834   23685925.5784
     -1664.4894      -1297.0044
  23609908.7204  -35126117.10647 -27044995.92845  23609906.7914   23609916.7994
     -1829.7904      -1425.8074
  22034422.0644  -23658005.53748 -18145855.73546  22034419.6904   22034425.4104
      3570.9374       2782.5474
  23554812.8634  -12689735.55348  -9584154.21346  23554810.3844   23554818.9594
      3427.7354       2670.9584
  23479377.6754  -29936600.74847 -23030413.94245  23479375.2034   23479386.7404
     -2911.0444      -2268.3424
 00  7 15  0 18 29.9990000  0  7G11G25G29G21G20G 1G15
  20766240.0964  -35764269.91949 -27222021.02647  20766237.8544   20766242.6754
       -34.0284        -26.5154
  20628856.8004  -33384523.48949 -25692273.00747  20628854.8964   20628859.6404
       688.4414        536.4474
  23695420.2874  -27443651.23247 -21357917.61245  23695418.2654   23695424.8234
     -1663.2224      -1296.0154
  23620374.9934  -35071125.62647 -27002145.56145  23620372.3384   23620381.6144
     -1836.1984      -1430.8014
  22014046.2044  -23765081.30048 -18229291.34946  22014043.8784   22014049.7364
      3567.6274       2779.9664
  23535256.8144  -12792504.69448  -9664233.90746  23535254.5174   23535263.2744
      3423.7474       2667.8464
  23496001.3884  -29849240.61547 -22962341.30945  23495998.9514   23496010.6354
     -2912.7414      -2269.6584
 00  7 15  0 18 59.9990000  0  7G11G25G29G21G20G 1G15
  20766516.7574  -35762816.05649 -27220888.16747  20766514.5704   20766519.8584
       -63.0214        -49.1064
  20625006.2754  -33404758.66349 -25708040.67147  20625004.3244   20625009.2024
       660.5324        514.6994
  23704945.0714  -27393598.04647 -21318915.20745  23704942.6704   23704950.1984
     -1673.7844      -1304.2464
  23630909.0034  -35015769.90647 -26959011.39145  23630905.4844   23630916.1694
     -1854.3314      -1444.9244
  21993722.5024  -23871883.33348 -18312513.66746  21993720.1904   21993725.3404
      3552.4324       2768.1274
  23515755.7294  -12894980.53748  -9744085.06846  23515753.2164   23515762.2894
      3407.9124       2655.5094
  23512668.7224  -29761656.57747 -22894094.20545  23512666.5824   23512678.6304
     -2926.2744      -2280.2084
 00  7 15  0 19 29.9990000  0  7G11G25G29G21G20G 1G15
  20766905.4384  -35760773.74249 -27219296.77947  20766903.2114   20766908.4284
       -75.9784        -59.2034
  20621261.1894  -33424438.13649 -25723375.32147  20621259.3154   20621264.3004
       648.6544        505.4464
  23714476.4924  -27343509.58047 -21279885.31545  23714474.2124   23714482.0484
     -1668.3014      -1299.9734
  23641491.9634  -34960150.59847 -26915671.81245  23641489.6794   23641499.8044
     -1856.4314      -1446.5674
  21973432.6814  -23978509.69948 -18395599.10646  21973430.0294   21973435.0784
      3553.1754       2768.7084
  23496292.8934  -12997262.48948  -9823785.15046  23496290.3244   23496298.8574
      3408.0844       2655.6444
  23529358.5664  -29673950.92547 -22825752.35545  23529356.3084   23529368.0314
     -2923.6244      -2278.1384
 00  7 15  0 19 59.9990000  0  7G11G25G29G21G20G 1G15
  20767402.0634  -35758161.79349 -27217261.51947  20767399.9644   20767405.1894
       -96.7504        -75.3894
  20617618.4884  -33443580.43949 -25738291.39847  20617616.5224   20617621.2814
       628.9694        490.1064
  23724011.1234  -27293404.46647 -21240842.45245  23724009.0414   23724017.3044
     -1670.6674      -1301.8154
  23652122.2634  -34904286.10547 -26872141.17945  23652119.7224   23652131.5364
     -1866.4414      -1454.3634
  21953172.6084  -24084976.40848 -18478560.13646  21953170.1294   21953175.1944
      3546.0474       2763.1524
  23476862.3274  -13099368.12248  -9903347.81646  23476859.8574   23476868.2174
      3400.3764       2649.6354
  23546067.8174  -29586144.06647 -22757331.62545  23546065.4754   23546076.5044
     -2928.7354      -2282.1234
 00  7 15  0 20 29.9990000  0  7G11G25G29G21G20G 1G15
  20767985.1974  -35755098.34349 -27214874.44047  20767983.0444   20767988.4624
      -108.4724        -84.5234
  20614056.0234  -33462302.93949 -25752880.35347  20614054.0004   20614058.3184
       618.2844        481.7804
  23733525.5894  -27243399.66047 -21201877.76145  23733524.0684   23733532.3654
     -1663.9494      -1296.5834
  23662776.4674  -34848293.72947 -26828510.90845  23662774.9114   23662786.5134
     -1867.2904      -1455.0314
  21932921.2754  -24191398.44648 -18561486.36046  21932918.7854   21932923.2744
      3547.8204       2764.5334
  23457443.1654  -13201414.04548  -9982863.99346  23457441.1864   23457448.7914
      3401.7584       2650.7164
  23562774.2604  -29498355.29447 -22688925.00245  23562771.6644   23562782.3254
     -2924.7354      -2279.0124
 00  7 15  0 20 59.9990000  0  7G11G25G29G21G20G 1G15
  20768673.6914  -35751482.39449 -27212056.84347  20768671.4124   20768676.8324
      -134.8644       -105.0884
  20610592.1424  -33480504.39249 -25767063.29547  20610590.2894   20610594.9874
       592.9204        462.0154
  23743042.1614  -27193393.49747 -21162911.99845  23743040.6024   23743048.1794
     -1672.0114      -1302.8664
  23673476.3604  -34792072.05347 -26784701.94945  23673474.1774   23673484.3954
     -1882.9414      -1467.2274
  21912697.9944  -24297671.89848 -18644296.80146  21912695.4424   21912700.2004
      3534.8384       2754.4194
  23438055.1354  -13303298.13348 -10062254.09146  23438053.0824   23438061.2354
      3388.3124       2640.2414
  23579495.2304  -29410485.40547 -22620455.16045  23579493.0774   23579503.7054
     -2935.4394      -2287.3504
 00  7 15  0 21 29.9990000  0  7G11G25G29G21G20G 1G15
  20769503.1624  -35747123.03049 -27208659.96347  20769500.8464   20769506.2964
      -156.2884       -121.7814
  20607264.3294  -33497993.22349 -25780690.94447  20607262.3284   20607266.9934
       572.5234        446.1214
  23752594.7484  -27143194.53847 -21123796.00545  23752593.5384   23752600.3694
     -1675.0864      -1305.2574
  23684257.0114  -34735429.67747 -26740565.16245  23684253.5824   23684263.7014
     -1893.6594      -1475.5674
  21892540.0964  -24403603.12648 -18726840.56846  21892537.4024   21892542.5224
      3526.7474       2748.1134
  23418734.9944  -13404827.91848 -10141368.07346  23418732.8454   23418741.2204
      3379.8544       2633.6464
  23596267.3604  -29322344.86447 -22551774.44745  23596265.0464   23596276.1924
     -2941.0804      -2291.7434
 00  7 15  0 21 59.9990000  0  7G11G25G29G21G20G 1G15
  20770421.6504  -35742295.18149 -27204898.03247  20770419.5534   20770424.7044
      -173.6064       -135.2774
  20604019.3354  -33515044.05249 -25793977.29947  20604017.4784   20604022.2564
       556.2134        433.4134
  23762131.8804  -27093076.57947 -21084743.14145  23762129.8984   23762137.2014
     -1674.1124      -1304.5014
  23695063.3694  -34678640.56747 -26696314.03545  23695060.9724   23695071.3774
     -1900.2994      -1480.7424
  21872394.9164  -24509463.75648 -18809329.32846  21872392.5484   21872397.7084
      3522.6394       2744.9124
  23399429.4614  -13506277.09148 -10220419.21346  23399426.9574   23399436.2704
      3375.4274       2630.1994
  23613039.6184  -29234210.01647 -22483098.15045  23613036.4584   23613047.4144
     -2942.5674      -2292.9004
 00  7 15  0 22 29.9990000  0  7G11G25G29G21G20G 1G15
  20771451.6894  -35736880.03049 -27200678.45647  20771449.7454   20771455.1054
      -190.0574       -148.0964
  20600880.4974  -33531537.63349 -25806829.43747  20600878.7504   20600883.5964
       540.7684        421.3784
  23771676.9154  -27042920.10447 -21045660.25745  23771674.2244   23771682.5444
     -1672.2864      -1303.0764
  23705920.3694  -34621585.38247 -26651855.61145  23705917.8904   23705926.7234
     -1905.9794      -1485.1734
  21852287.1914  -24615131.96848 -18891668.14446  21852284.7434   21852290.2884
      3519.2744       2742.2904
  23380161.7984  -13607525.25848 -10299313.72946  23380159.8734   23380168.8634
      3371.8314       2627.3944
  23629833.2714  -29145963.29747 -22414334.69445  23629829.9064   23629841.6164
     -2943.0874      -2293.3094
 00  7 15  0 22 59.9990000  0  7G11G25G29G21G20G 1G15
  20772577.3074  -35730966.29649 -27196070.37847  20772575.2724   20772580.5664
      -202.6514       -157.9094
  20597831.8324  -33547561.67749 -25819315.69947  20597829.8574   20597834.4424
       529.0924        412.2804
  23781212.3414  -26992812.94147 -21006615.81145  23781210.2444   23781217.6804
     -1666.6314      -1298.6704
  23716810.9524  -34564352.00247 -26607258.34445  23716808.2544   23716818.6624
     -1907.9014      -1486.6774
  21832199.5504  -24720693.65748 -18973923.95846  21832196.6914   21832202.7214
      3519.7144       2742.6344
  23360916.9894  -13708659.96948 -10378119.84446  23360914.7034   23360923.3564
      3372.0714       2627.5884
  23646629.7374  -29057694.67347 -22345554.17745  23646626.8424   23646638.9114
     -2939.8064      -2290.7444
 00  7 15  0 23 29.9990000  0  7G11G25G29G21G20G 1G15
  20773803.1054  -35724524.39349 -27191050.74547  20773801.1344   20773806.3834
      -228.7874       -178.2754
  20594877.5024  -33563086.24449 -25831412.75847  20594875.6534   20594880.3424
       503.9694        392.7044
  23790744.2924  -26942724.40747 -20967585.87145  23790741.9944   23790749.2914
     -1674.5774      -1304.8654
  23727742.8004  -34506910.26247 -26562498.71845  23727740.1484   23727749.1204
     -1923.4534      -1498.8004
  21812137.6194  -24826115.71448 -19056070.96846  21812135.3024   21812141.0344
      3506.4744       2732.3154
  23341699.9304  -13809649.94048 -10456813.19746  23341697.2874   23341705.5554
      3358.7284       2617.1854
  23663435.9924  -28969375.70047 -22276734.42645  23663433.1514   23663444.9244
     -2949.9654      -2298.6734
 00  7 15  0 23 59.9990000  0  7G11G25G29G21G20G 1G15
  20775148.5664  -35717456.22949 -27185543.11247  20775146.4514   20775151.1914
      -246.1184       -191.7794
  20592037.0554  -33578013.13049 -25843044.09347  20592035.1174   20592039.7604
       487.5534        379.9114
  23800290.6004  -26892555.89547 -20928493.60445  23800289.2234   23800296.3024
     -1673.6914      -1304.1634
  23738730.5544  -34449161.84647 -26517500.12145  23738728.9364   23738738.2084
     -1930.1094      -1503.9784
  21792122.4404  -24931297.29348 -19138030.59646  21792119.9464   21792125.7764
      3501.9404       2728.7814
  23322527.3554  -13910395.74248 -10535316.24946  23322525.3394   23322534.3224
      3354.0364       2613.5274
  23680270.4044  -28880909.84247 -22207800.22545  23680268.3654   23680279.2154
     -2951.2294      -2299.6564
 00  7 15  0 24 29.9990000  0  7G11G25G29G21G20G 1G15
  20776572.3614  -35709973.90949 -27179712.76347  20776570.2994   20776575.1884
      -259.4524       -202.1704
  20589269.5774  -33592553.60749 -25854374.33347  20589268.0534   20589272.7654
       475.1474        370.2454
  23809812.6694  -26842518.45147 -20889503.46245  23809810.4844   23809817.9724
     -1668.8294      -1300.3834
  23749738.3184  -34391318.24547 -26472427.32945  23749736.9244   23749746.2904
     -1932.8474      -1506.1114
  21772113.6774  -25036447.35248 -19219965.66446  21772110.9964   21772116.1534
      3501.3224       2728.3004
  23303361.7814  -14011108.12748 -10613793.26946  23303359.6714   23303368.8884
      3353.3774       2613.0164
  23697092.9914  -28792510.45747 -22138917.80845  23697090.6904   23697101.8604
     -2948.6044      -2297.6044
 00  7 15  0 24 59.9990000  0  7G11G25G29G21G20G 1G15
  20778102.8524  -35701933.23349 -27173447.32647  20778100.4324   20778105.3324
      -273.7254       -213.2914
  20586604.2034  -33606562.65749 -25865290.47047  20586602.2764   20586606.9134
       461.7354        359.7924
  23819336.5444  -26792466.76447 -20850502.23545  23819334.7804   23819342.8404
     -1664.9814      -1297.3854
  23760790.8874  -34333233.99047 -26427167.06045  23760788.0474   23760799.3014
     -1936.5044      -1508.9554
  21752138.0404  -25141418.36748 -19301761.22046  21752135.4464   21752140.5264
      3499.6614       2727.0084
  23284231.7844  -14111641.25548 -10692130.62846  23284229.2474   23284238.0704
      3351.7254       2611.7274
  23713928.7314  -28704034.59547 -22069975.79645  23713927.0344   23713938.1424
     -2946.7524      -2296.1624
 00  7 15  0 25 29.9990000  0  7G11G25G29G21G20G 1G15
  20779725.4254  -35693405.64049 -27166802.47847  20779723.2284   20779728.3904
      -294.0884       -229.1574
  20584025.7454  -33620111.55549 -25875848.04447  20584024.0354   20584028.5734
       442.2634        344.6204
  23828850.3184  -26742471.26047 -20811544.78845  23828848.8384   23828856.4954
     -1667.3004      -1299.1954
  23771878.0144  -34274979.85147 -26381774.41545  23771876.9514   23771885.7594
     -1946.3324      -1516.6164
  21732183.2954  -25246278.64148 -19383470.48346  21732181.0384   21732186.5124
      3491.7314       2720.8284
  23265121.3754  -14212064.88748 -10770382.63846  23265118.9494   23265127.9734
      3343.9184       2605.6454
  23730765.8244  -28615554.64347 -22001030.61545  23730763.7794   23730775.7714
     -2951.0934      -2299.5454
 00  7 15  0 25 59.9990000  0  7G11G25G29G21G20G 1G15
  20781455.3644  -35684315.83849 -27159719.54147  20781453.0484   20781458.1394
      -311.7284       -242.9044
  20581549.4394  -33633124.30849 -25885987.84847  20581547.6474   20581552.4854
       425.4804        331.5434
  23838368.0904  -26692455.34247 -20772571.43645  23838366.1034   23838374.5704
     -1666.9084      -1298.8884
  23783010.7674  -34216479.59447 -26336189.99845  23783008.9514   23783017.6554
     -1953.5014      -1522.2014
  21712265.4614  -25350949.25548 -19465031.96046  21712263.0024   21712267.9504
      3486.4914       2716.7454
  23246046.0064  -14312302.11148 -10848489.40046  23246044.0174   23246053.3284
      3338.7964       2601.6534
  23747616.3114  -28526996.56247 -21932024.57345  23747615.6284   23747628.0784
     -2952.4884      -2300.6344
 00  7 15  0 26 29.9990000  0  8G11G25G29G21G20G 1G15G16
  20783304.4814  -35674597.48549 -27152146.82647  20783302.2644   20783307.3114
      -334.3454       -260.5284
  20579188.1964  -33645534.08149 -25895657.80147  20579186.2814   20579190.8644
       403.6934        314.5664
  23847901.7644  -26642352.06147 -20733530.01445  23847900.5494   23847908.9094
     -1671.4944      -1302.4604
  23794200.7644  -34157667.18547 -26290362.32345  23794198.6794   23794208.9744
     -1965.6004      -1531.6374
  21692396.8934  -25455360.79048 -19546391.55346  21692394.1184   21692398.9034
      3476.1224       2708.6644
  23227020.3744  -14412285.34548 -10926398.23346  23227018.1214   23227026.5064
      3328.5844       2593.6944
  23764496.2624  -28438295.36147 -21862906.99145  23764495.0424   23764507.2724
     -2959.0034      -2305.7064
  24346632.6414   -6605358.63357  -4543699.36145  24346630.2064   24346639.4984
      4063.4944       3166.3564
 00  7 15  0 26 59.9990000  0  8G11G25G29G21G20G 1G15G16
  20785247.7164  -35664384.10049 -27144188.38047  20785245.6744   20785250.9374
      -352.5804       -274.7374
  20576916.3234  -33657473.93849 -25904961.58547  20576914.3284   20576918.8804
       386.2994        301.0124
  23857428.5294  -26592293.47847 -20694523.38745  23857426.5474   23857434.2924
     -1671.7604      -1302.6674
  23805428.0594  -34098674.45247 -26244394.14945  23805423.9544   23805436.0894
     -1973.2864      -1537.6214
  21672551.8504  -25559643.60748 -19627650.84646  21672549.5404   21672554.3104
      3470.0514       2703.9324
  23208017.3644  -14512146.52848 -11004211.98846  23208014.9954   23208023.1784
      3322.8174       2589.2064
  23781378.2024  -28349585.35647 -21793782.55545  23781375.7734   23781389.1544
     -2960.9964      -2307.2524
  24323417.1734   -6727356.16747  -4638762.25745  24323414.3894   24323423.8624
      4063.6674       3166.4904
 00  7 15  0 27 29.9990000  0  8G11G25G29G21G20G 1G15G16
  20787300.4434  -35653600.29049 -27135785.45047  20787298.2454   20787302.9654
      -365.8534       -285.0794
  20574748.0074  -33668867.76149 -25913839.88947  20574746.1034   20574750.9234
       373.8614        291.3214
  23866960.0404  -26542203.30547 -20655492.14645  23866958.5764   23866965.8924
     -1667.1264      -1299.0564
  23816702.1604  -34039425.76447 -26198226.50745  23816700.2574   23816710.3864
     -1976.1054      -1539.8234
  21652747.3404  -25663718.92348 -19708748.45246  21652744.5844   21652749.6514
      3468.8044       2702.9644
  23189052.4784  -14611808.54148 -11081870.52846  23189049.8214   23189058.4064
      3321.8904       2588.4804
  23798274.2164  -28260792.32947 -21724593.45245  23798272.4564   23798285.4154
     -2957.9524      -2304.9004
  24300204.7174   -6849333.99747  -4733809.82645  24300201.9984   24300211.6064
      4068.7594       3170.4614
 00  7 15  0 27 59.9990000  0  8G11G25G29G21G20G 1G15G16
  20789452.5084  -35642292.05149 -27126973.87447  20789450.1024   20789454.7224
      -387.5364       -301.9754
  20572675.2114  -33679761.34549 -25922328.39647  20572673.1654   20572677.8134
       352.9384        275.0184
  23876490.1754  -26492126.19647 -20616471.09045  23876488.4894   23876495.5464
     -1670.8734      -1301.9724
  23828017.3824  -33979966.29647 -26151894.65745  23828014.9384   23828024.8484
     -1987.3544      -1548.5844
  21632973.7264  -25767629.22848 -19789717.47947  21632971.3074   21632976.4134
      3459.0634       2695.3724
  23170116.6274  -14711315.57848 -11159408.31646  23170114.1164   23170122.4794
      3312.4564       2581.1294
  23815179.0994  -28171963.46347 -21655376.39345  23815176.2524   23815190.1634
     -2963.3514      -2309.1004
  24276988.4244   -6971336.18747  -4828876.36545  24276985.7554   24276995.1204
      4065.3174       3167.7704
 00  7 15  0 28 29.9990000  0  8G11G25G29G21G20G 1G15G16
  20791702.8024  -35630463.11849 -27117756.56547  20791700.9044   20791705.9254
      -402.0484       -313.2844
  20570696.6914  -33690157.79749 -25930429.52147  20570694.7404   20570699.3864
       339.2374        264.3414
  23886016.4704  -26442064.83647 -20577462.31445  23886014.5574   23886022.7704
     -1667.5184      -1299.3594
  23839371.0374  -33920298.96347 -26105400.82145  23839369.0634   23839380.9584
     -1991.4264      -1551.7564
  21613231.2994  -25871375.13348 -19870558.39547  21613228.8684   21613234.6014
      3456.3794       2693.2824
  23151210.0784  -14810670.14648 -11236827.31646  23151207.5814   23151215.5834
      3310.2634       2579.4204
  23832089.4134  -28083103.70147 -21586135.29345  23832087.6554   23832099.0844
     -2961.5114      -2307.6644
  24253766.7754   -7093363.41347  -4923962.42945  24253765.1424   24253774.4414
      4068.9814       3170.6324
 00  7 15  0 28 59.9990000  0  8G11G25G29G21G20G 1G15G16
  20794061.7604  -35618069.23749 -27108099.03347  20794059.5284   20794064.4904
      -422.2714       -329.0414
  20568821.0304  -33700012.27649 -25938108.33047  20568819.2534   20568824.1684
       319.7574        249.1614
  23895549.0304  -26391973.71247 -20538430.36445  23895546.6064   23895554.9634
     -1669.8694      -1301.1924
  23850774.3814  -33860377.99447 -26058709.33645  23850772.0754   23850783.2744
     -2001.2514      -1559.4074
  21593529.6834  -25974908.88848 -19951234.00947  21593526.9304   21593532.8404
      3447.8514       2686.6364
  23132342.1704  -14909826.29148 -11314091.68446  23132339.5924   23132346.8224
      3302.1904       2573.1314
  23849012.7744  -27994169.60747 -21516836.24945  23849010.4954   23849022.5044
     -2965.4414      -2310.7304
  24230549.9004   -7215369.26447  -5019031.83945  24230547.6734   24230557.4034
      4066.7774       3168.9144
 00  7 15  0 29 29.9990000  0  8G11G25G29G21G20G 1G15G16
  20796523.3734  -35605136.12549 -27098021.31947  20796521.0814   20796525.6364
      -438.1494       -341.4134
  20567044.1154  -33709349.70649 -25945384.25047  20567042.1004   20567047.3554
       304.6044        237.3544
  23905080.9934  -26341877.33047 -20499394.32045  23905079.9204   23905087.7404
     -1668.0104      -1299.7434
  23862220.3074  -33800228.63247 -26011839.89345  23862218.7694   23862229.5004
     -2006.8114      -1563.7354
  21573863.5244  -26078252.63848 -20031761.57047  21573861.0524   21573867.2444
      3443.5704       2683.3004
  23113505.6664  -15008807.89948 -11391220.04746  23113503.0524   23113511.4014
      3298.4404       2570.2054
  23865945.0234  -27905187.88447 -21447500.09145  23865943.8634   23865955.6984
     -2964.9074      -2310.3124
  24207333.7194   -7337375.99047  -5114101.91945  24207331.1594   24207340.4674
      4068.8784       3170.5524
 00  7 15  0 29 59.9990000  0  8G11G25G29G21G20G 1G15G16
  20799068.8344  -35591755.30349 -27087594.74647  20799066.7664   20799071.8984
      -455.5544       -354.9764
  20565348.7054  -33718260.91249 -25952328.04647  20565346.8814   20565351.5364
       287.8904        224.3294
  23914598.3044  -26291866.06047 -20460424.56845  23914596.3424   23914604.3374
     -1667.7064      -1299.5094
  23873691.6604  -33739941.86847 -25964863.39845  23873690.7794   23873700.0824
     -2013.8864      -1569.2584
  21554217.0944  -26181494.36248 -20112209.62647  21554214.6954   21554220.9344
      3437.5774       2678.6304
  23094685.7084  -15107704.94348 -11468282.52646  23094683.6514   23094692.4504
      3293.0284       2565.9924
  23882870.3194  -27816251.29447 -21378199.10745  23882868.7374   23882879.1554
     -2965.9134      -2311.0914
  24184098.8534   -7459472.62747  -5209242.08445  24184096.5194   24184106.1954
      4069.2404       3170.8404
 00  7 15  0 30 29.9990000  0  8G11G25G29G21G20G 1G15G16
  20801727.2674  -35577787.78549 -27076711.00347  20801724.9244   20801729.6624
      -478.6324       -372.9594
  20563760.8324  -33726606.57249 -25958831.15047  20563758.8044   20563763.3364
       265.5294        206.9054
  23924125.6944  -26241799.29447 -20421411.58445  23924123.6484   23924132.3084
     -1673.0604      -1303.6784
  23885216.8904  -33679378.17446 -25917671.11045  23885216.1394   23885226.6244
     -2026.6274      -1579.1854
  21534618.2534  -26284491.61448 -20192467.19147  21534615.5874   21534621.1894
      3425.9014       2669.5314
  23075909.4684  -15206376.62448 -11545169.41346  23075907.3254   23075914.8414
      3282.0944       2557.4714
  23899812.4544  -27727221.56947 -21308825.56745  23899809.2554   23899821.4044
     -2972.3994      -2316.1544
  24160875.3824   -7581517.47347  -5304341.86645  24160872.3694   24160881.2924
      4064.0404       3166.7874
 00  7 15  0 30 59.9990000  0  8G11G25G29G21G20G 1G15G16
  20804481.6984  -35563312.85049 -27065431.87147  20804479.4954   20804484.2104
      -487.6974       -380.0224
  20562265.1574  -33734465.55849 -25964955.03047  20562263.1764   20562267.8574
       257.1274        200.3594
  23933649.4374  -26191755.23947 -20382416.28345  23933647.0434   23933655.2814
     -1664.4714      -1296.9854
  23896780.3564  -33618615.82946 -25870324.03445  23896778.4584   23896789.9354
     -2025.5034      -1578.3224
  21515050.2984  -26387320.32148 -20272593.42247  21515047.5574   21515053.3134
      3428.0384       2671.1984
  23057160.7674  -15304900.62948 -11621941.23046  23057158.5024   23057166.0084
      3284.9094       2559.6684
  23916756.8004  -27638179.07947 -21239442.04445  23916755.0064   23916766.1214
     -2965.0054      -2310.3964
  24137643.8044   -7703587.19647  -5399461.03645  24137642.1674   24137651.8214
      4072.6924       3173.5234
 00  7 15  0 31 29.9990000  0  8G11G25G29G21G20G 1G15G16
  20807329.4024  -35548348.04849 -27053771.02447  20807327.2414   20807332.3094
      -510.1164       -397.4934
  20560858.8824  -33741855.14349 -25970713.15647  20560856.8504   20560861.7574
       235.3984        183.4284
  23943165.2264  -26141750.07347 -20343451.30045  23943162.7504   23943171.5384
     -1669.3244      -1300.7744
  23908378.7714  -33557671.05546 -25822834.82245  23908375.4684   23908386.1044
     -2037.6794      -1587.7824
  21495512.1764  -26489994.48448 -20352599.23447  21495509.8404   21495514.5614
      3416.7474       2662.4004
  23038437.2544  -15403292.80848 -11698610.31746  23038434.8654   23038443.2694
      3274.4384       2551.5064
  23933700.2654  -27549142.38946 -21170063.06645  23933699.1354   23933707.4834
     -2970.9564      -2315.0284
  24114408.6324   -7825696.33147  -5494610.90245  24114405.6634   24114416.0824
      4067.7764       3169.6944
 00  7 15  0 31 59.9990000  0  8G11G25G29G21G20G 1G15G16
  20810289.2804  -35532791.72649 -27041649.25147  20810287.1884   20810292.6374
      -527.3364       -410.9104
  20559560.9604  -33748672.41149 -25976025.31747  20559559.4324   20559564.1294
       218.8074        170.4994
  23952693.1994  -26091680.64547 -20304436.24745  23952689.9804   23952699.8704
     -1668.9914      -1300.5094
  23920029.9854  -33496441.34446 -25775123.56245  23920028.3764   23920040.3074
     -2044.7094      -1593.2654
  21476022.9764  -26592408.58148 -20432402.38847  21476020.6064   21476026.0814
      3410.5204       2657.5464
  23019758.5684  -15501449.40348 -11775095.85346  23019756.4044   23019763.9344
      3269.0124       2547.2814
  23950662.1614  -27460010.28146 -21100609.74645  23950659.3424   23950672.3294
     -2971.5874      -2315.4934
  24091184.2954   -7947740.19947  -5589709.94645  24091182.5584   24091190.9254
      4068.1174       3169.9634
 00  7 15  0 32 29.9990000  0  8G11G25G29G21G20G 1G15G16
  20813340.6754  -35516757.54249 -27029155.11647  20813338.5244   20813343.6514
      -547.1884       -426.3794
  20558351.1894  -33755030.60249 -25980979.75347  20558349.4514   20558354.3954
       199.5584        155.4994
  23962211.1984  -26041659.09747 -20265458.51545  23962209.5604   23962218.3944
     -1671.3754      -1302.3694
  23931713.8724  -33435039.58946 -25727278.24945  23931712.8714   23931722.6364
     -2054.2694      -1600.7274
  21456562.8184  -26694672.73348 -20512088.69947  21456560.2484   21456565.6304
      3401.5704       2650.5724
  23001103.0194  -15599482.60448 -11851485.23946  23001100.9034   23001108.4254
      3260.9984       2541.0314
  23967620.3624  -27370897.52847 -21031171.49245  23967617.7954   23967629.2434
     -2974.8514      -2318.0584
  24067950.9804   -8069829.73547  -5684844.56545  24067948.4324   24067956.9684
      4065.6804       3168.0554
 00  7 15  0 32 59.9990000  0  8G11G25G29G21G20G 1G15G16
  20816495.9344  -35500177.74849 -27016235.83447  20816493.5934   20816498.8424
      -556.3984       -433.5554
  20557242.5404  -33760861.62949 -25985523.41347  20557240.3754   20557244.9474
       190.9654        148.8044
  23971735.2194  -25991616.66247 -20226464.50545  23971732.6724   23971740.7774
     -1663.0704      -1295.8954
  23943444.3624  -33373397.69846 -25679245.79045  23943442.9384   23943454.3504
     -2053.3274      -1599.9954
  21437144.6774  -26796715.61548 -20591602.59547  21437142.1774   21437147.0654
      3403.0734       2651.7444
  22982484.0694  -15697322.96848 -11927724.35646  22982481.8194   22982490.2734
      3263.4844       2542.9704
  23984586.2064  -27281737.22747 -20961696.20745  23984585.7494   23984596.7494
     -2967.3534      -2312.2114
  24044724.3394   -8191894.36647  -5779959.76845  24044721.2254   24044729.9034
      4073.7854       3174.3684
 00  7 15  0 33 29.9990000  0  8G11G25G29G21G20G 1G15G16
  20819738.0294  -35483139.76249 -27002959.52047  20819735.7734   20819741.2164
      -575.3364       -448.3144
  20556216.7894  -33766252.54949 -25989724.13147  20556214.6674   20556219.0974
       172.6664        134.5454
  23981244.6344  -25941639.19247 -20187521.12145  23981243.4304   23981251.4754
     -1664.5634      -1297.0564
  23955204.3714  -33311601.42446 -25631093.04745  23955202.1794   23955214.6074
     -2062.2104      -1606.9024
  21417752.2384  -26898621.19848 -20671009.50147  21417749.9154   21417755.1554
      3394.8274       2645.3174
  22963886.6814  -15795056.15748 -12003879.95446  22963884.3354   22963892.5594
      3256.2674       2537.3474
  24001546.3674  -27192617.72447 -20892252.71345  24001545.6954   24001555.5674
     -2969.6534      -2314.0064
  24021484.3714   -8314018.54847  -5875121.38145  24021481.5434   24021490.7774
      4072.0894       3173.0484
 00  7 15  0 33 59.9990000  0  8G11G25G29G21G20G 1G15G16
  20823087.6934  -35465536.28749 -26989242.57047  20823085.4484   20823091.3124
      -595.9384       -464.3664
  20555294.2474  -33771094.84249 -25993497.35147  20555292.5474   20555297.4774
       152.5914        118.9034
  23990763.3704  -25891617.58147 -20148543.34045  23990761.4744   23990770.3004
     -1667.8204      -1299.5934
  23967014.4784  -33249543.03047 -25582736.07345  23967012.4264   23967022.4804
     -2072.6424      -1615.0424
  21398408.0894  -27000278.28248 -20750222.77147  21398405.4734   21398410.2744
      3384.6994       2637.4294
