     2.10           OBSERVATION DATA    G (GPS)             RINEX VERSION / TYPE
teqc  2000Feb29     CORS/NGS/NOAA       20000717 00:44:34UTCPGM / RUN BY / DATE
HP-UX 10.20|PA-RISC|cc A.10.32.03|=+|=|                     COMMENT
BIT 2 OF LLI FLAGS DATA COLLECTED UNDER A/S CONDITION       COMMENT
ppt1                                                        MARKER NAME
xxx                                                         MARKER NUMBER
CORS/NGS/NOAA       U.S. Coast Guard                        OBSERVER / AGENCY
05402               ASHTECH   Z-XII3    RD00                REC # / TYPE / VERS
11092               ASH700829.3                             ANT # / TYPE
 -2725252.3748 -4295978.5284  3833958.9631                  APPROX POSITION XYZ 
        0.0000        0.0000        0.0000                  ANTENNA: DELTA H/E/N
     1     1                                                WAVELENGTH FACT L1/2
     7    C1    L1    L2    P1    P2    D1    D2            # / TYPES OF OBSERV
    30.0000                                                 INTERVAL
 SNR is mapped to RINEX snr flag value [1-9]                COMMENT
  L1: 1 -> 1;  90 -> 5; 210 -> 9                            COMMENT
  L2: 1 -> 1; 150 -> 5; 250 -> 9                            COMMENT
teqc windowed: delta = 86400.000 sec                        COMMENT
  2000     7    16     0     6    0.0000000     GPS         TIME OF FIRST OBS
                                                            END OF HEADER
 00  7 16  0  6  0.0000000  0  6G15G20G11G25G 1G21
  23474785.2264  -31115348.02547 -23682737.21145  23474783.5284   23474796.8784
     -2858.9294      -2227.7374
  22600536.4834  -22919532.26848 -17577421.14546  22600533.8464   22600538.7504
      3634.1344       2831.7934
  21014918.3164  -35523221.87649 -27350859.77847  21014916.3474   21014921.4014
       275.4364        214.6254
  20945919.9364  -30539449.87249 -23767753.78247  20945918.1914   20945924.1824
       981.0094        764.4204
  24106965.7864  -11544993.00448  -8680659.32146  24106964.0864   24106973.4334
      3507.2684       2732.9304
  23687205.9184  -36149952.99947 -27818338.88045  23687204.4794   23687221.8404
     -1709.7584      -1332.2714
 00  7 16  0  6 30.0000000  0  7G29G15G20G11G25G 1G21
  23779781.5844  -28571121.77648 -21915697.06646  23779779.7424   23779789.2364
     -1665.6014      -1297.8684
  23491120.5494  -31029504.82047 -23615846.45145  23491118.1534   23491132.4284
     -2863.6764      -2231.4314
  22579802.7094  -23028490.81848 -17662323.88546  22579800.0654   22579804.5184
      3630.0334       2828.5964
  21013402.2194  -35531191.10749 -27357069.58847  21013400.0014   21013405.0484
       256.0604        199.5284
  20940371.9294  -30568605.56549 -23790472.44947  20940369.9624   20940375.9644
       962.9684        750.3634
  24086960.5794  -11650123.92548  -8762579.25146  24086958.4074   24086968.0504
      3501.7104       2728.5974
  23696991.1834  -36098531.38147 -27778270.29345  23696989.4374   23697007.4924
     -1718.0974      -1338.7674
 00  7 16  0  7  0.0000000  0  7G29G15G20G11G25G 1G21
  23789276.6814  -28521230.56447 -21876821.00746  23789274.1064   23789283.5594
     -1667.0974      -1299.0284
  23507465.5274  -30943611.53947 -23548916.70145  23507463.4934   23507477.1374
     -2869.1864      -2235.7214
  22559073.7724  -23137416.10248 -17747200.71646  22559071.7144   22559076.4234
      3625.0044       2824.6784
  21011979.0634  -35538669.99249 -27362897.32247  21011976.8564   21011981.7774
       235.8574        183.7864
  20934909.3914  -30597311.34649 -23812840.56447  20934907.3484   20934913.4424
       944.1134        735.6714
  24066968.8744  -11755178.44648  -8844439.67946  24066966.7754   24066976.7094
      3495.3124       2723.6114
  23706808.7084  -36046951.61647 -27738078.46745  23706805.4404   23706822.8804
     -1727.2074      -1345.8684
 00  7 16  0  7 30.0000000  0  7G29G15G20G11G25G 1G21
  23798780.9114  -28471281.80647 -21837900.22946  23798778.8684   23798789.3304
     -1669.8184      -1301.1384
  23523844.9144  -30857542.59047 -23481850.03745  23523842.3464   23523856.3574
     -2875.7204      -2240.8144
  22538377.9094  -23246177.88648 -17831950.13146  22538375.0384   22538380.0974
      3618.7644       2819.8154
  21010673.2444  -35545531.00949 -27368243.59047  21010671.1454   21010676.1744
       214.5064        167.1484
  20929556.3614  -30625439.30749 -23834758.43047  20929554.8584   20929560.9684
       924.1034        720.0794
  24047017.0464  -11860028.00348  -8926140.38546  24047014.8814   24047023.6204
      3487.6864       2717.6694
  23716676.5224  -35995085.84547 -27697663.79245  23716674.3054   23716692.2904
     -1737.4504      -1353.8444
 00  7 16  0  8  0.0000000  0  7G29G15G20G11G25G 1G21
  23808315.0354  -28421180.51347 -21798860.54646  23808313.2394   23808322.9274
     -1667.2454      -1299.1544
  23540275.2794  -30771205.52547 -23414574.44145  23540272.4204   23540284.8444
     -2877.0404      -2241.8444
  22517730.2884  -23354679.56448 -17916496.87146  22517728.0234   22517732.9004
      3617.6974       2818.9844
  21009502.9704  -35551679.73949 -27373034.81447  21009500.9694   21009506.3244
       198.3744        154.5774
  20924332.1494  -30652894.52249 -23856152.05547  20924330.4554   20924336.3704
       909.2974        708.5414
  24027121.5304  -11964577.25748  -9007607.08646  24027119.5474   24027128.5644
      3485.2754       2715.7894
  23726618.7744  -35942838.89347 -27656952.06345  23726617.6484   23726634.5104
     -1742.6544      -1357.9044
 00  7 16  0  8 30.0000000  0  7G29G15G20G11G25G 1G21
  23817824.5974  -28371209.52147 -21759922.13946  23817822.6694   23817832.1444
     -1667.3524      -1299.2334
  23556700.1564  -30684885.40147 -23347312.03945  23556698.0874   23556711.5594
     -2880.8784      -2244.8344
  22497079.5224  -23463202.07948 -18001059.85546  22497077.0324   22497081.7334
      3613.8424       2815.9824
  21008415.1974  -35557399.22549 -27377491.55947  21008413.1154   21008417.8564
       179.5834        139.9354
  20919181.6274  -30679959.89049 -23877241.90547  20919179.7774   20919185.8834
       891.7634        694.8784
  24007229.9504  -12069108.43748  -9089059.69546  24007227.4254   24007236.3984
      3480.2004       2711.8374
  23736581.1094  -35890493.57847 -27616163.69145  23736578.8334   23736596.2634
     -1750.3954      -1363.9374
 00  7 16  0  9  0.0000000  0  7G29G15G20G11G25G 1G21
  23827354.9924  -28321130.10248 -21720899.29146  23827352.5404   23827362.0694
     -1669.1824      -1300.6524
  23573168.2074  -30598345.14947 -23279878.10845  23573165.1984   23573179.6074
     -2886.3154      -2249.0724
  22476470.1694  -23571504.10648 -18085451.02846  22476467.9564   22476472.6664
      3608.3374       2811.6884
  21007453.6574  -35562450.94149 -27381427.97047  21007451.6024   21007456.5174
       159.1874        124.0434
  20914150.9124  -30706395.69749 -23897841.17147  20914149.0464   20914155.1364
       872.6884        680.0154
  23987386.9544  -12173381.63248  -9170311.27546  23987384.4524   23987393.3714
      3473.4334       2706.5634
  23746606.8074  -35837811.28947 -27575112.74645  23746604.2734   23746622.0184
     -1759.7024      -1371.1944
 00  7 16  0  9 30.0000000  0  7G29G15G20G11G25G 1G21
  23836880.6164  -28271071.04148 -21681892.49946  23836878.4394   23836887.8924
     -1672.6524      -1303.3604
  23589653.8634  -30511715.42347 -23212374.47145  23589651.7824   23589664.5664
     -2893.4044      -2254.5984
  22455879.2054  -23679712.03448 -18169768.90346  22455876.5764   22455880.9874
      3601.0174       2805.9864
  21006594.7784  -35566963.83149 -27384944.52347  21006592.6854   21006597.6374
       137.1264        106.8534
  20909215.5214  -30732330.88349 -23918050.34647  20909213.7324   20909219.9244
       851.8714        663.7944
  23967569.4224  -12277524.58348  -9251461.37646  23967567.0274   23967575.9064
      3464.9384       2699.9434
  23756669.8874  -35784920.54747 -27533899.34945  23756668.3694   23756686.5534
     -1770.8444      -1379.8684
 00  7 16  0 10  0.0000000  0  7G29G15G20G11G25G 1G21
  23846404.8844  -28221017.80948 -21642890.12446  23846403.1204   23846412.8234
     -1662.7484      -1295.6444
  23606158.5654  -30424984.25147 -23144791.78345  23606156.3534   23606170.1074
     -2887.1444      -2249.7234
  22435309.0754  -23787809.35848 -18254000.59046  22435306.5774   22435310.6164
      3606.9964       2810.6474
  21005841.7724  -35570923.65749 -27388030.12247  21005839.5464   21005844.4464
       128.3354        100.0024
  20904378.4474  -30757750.95349 -23937858.10347  20904376.4774   20904382.5504
       844.3514        657.9324
  23947777.8334  -12381522.45148  -9332498.43646  23947775.9994   23947786.0884
      3469.8004       2703.7314
  23766778.3294  -35731806.68247 -27492512.08345  23766775.9894   23766794.1764
     -1768.5574      -1378.0944
 00  7 16  0 10 30.0000000  0  7G29G15G20G11G25G 1G21
  23855916.4904  -28171034.73248 -21603942.37746  23855914.3434   23855924.3354
     -1666.5634      -1298.6234
  23622668.6434  -30338218.02147 -23077181.78745  23622666.2994   23622681.5504
     -2894.4674      -2255.4234
  22414748.0084  -23895858.27948 -18338194.56946  22414745.5894   22414749.8364
      3599.1404       2804.5264
  21005180.8694  -35574395.32849 -27390735.33647  21005178.7334   21005183.6054
       105.9394         82.5504
  20899626.6254  -30782720.13649 -23957314.49247  20899625.0444   20899630.8184
       823.1424        641.4064
  23928003.3864  -12485438.62348  -9413471.82346  23928001.2514   23928011.6534
      3460.8584       2696.7644
  23776916.4914  -35678533.91747 -27451001.05045  23776914.6334   23776931.9964
     -1780.0524      -1387.0394
 00  7 16  0 11  0.0000000  0  7G29G15G20G11G25G 1G21
  23865436.0344  -28121010.33448 -21564962.38146  23865433.9744   23865443.8054
     -1664.6614      -1297.1384
  23639207.5714  -30251307.24247 -23009459.14145  23639205.3964   23639220.5104
     -2895.9294      -2256.5634
  22394217.9374  -24003744.98748 -18422262.14846  22394215.2684   22394219.6124
      3597.0244       2802.8764
  21004634.1754  -35577267.84949 -27392973.67147  21004632.0904   21004637.1924
        89.2674         69.5594
  20894982.2584  -30807126.92049 -23976332.66447  20894980.4444   20894986.2974
       807.7214        629.3904
  23908265.7904  -12589161.07948  -9494294.27246  23908263.7344   23908273.6054
      3457.7014       2694.3044
  23787105.6134  -35624991.19647 -27409279.68845  23787102.3994   23787119.6894
     -1785.7294      -1391.4724
 00  7 16  0 11 30.0000000  0  7G29G15G20G11G25G 1G21
  23874969.0554  -28070914.07047 -21525926.56946  23874967.3684   23874976.9554
     -1671.2674      -1302.2734
  23655778.5694  -30164222.94047 -22941601.27445  23655776.9044   23655792.1134
     -2905.8574      -2264.2964
  22373724.8194  -24111436.38448 -18506177.53446  22373722.1824   22373726.2554
      3586.2454       2794.4784
  21004207.4524  -35579510.23449 -27394720.98347  21004205.4114   21004210.6564
        64.0454         49.9054
  20890450.7824  -30830940.10849 -23994888.28347  20890449.0674   20890454.7444
       783.7294        610.6944
  23888570.8274  -12692657.91348  -9574940.91246  23888568.5964   23888577.6594
      3445.9414       2685.1424
  23797350.5054  -35571147.19147 -27367323.52145  23797349.0814   23797366.8124
     -1799.9944      -1402.5854
 00  7 16  0 12  0.0000000  0  7G29G15G20G11G25G 1G21
  23884499.5714  -28020830.07647 -21486900.41946  23884498.2704   23884508.1934
     -1671.2584      -1302.2694
  23672366.6204  -30077052.00047 -22873675.90045  23672364.3644   23672379.8434
     -2909.1094      -2266.8384
  22353252.9844  -24219014.50448 -18590004.65546  22353250.4744   22353255.2584
      3582.0134       2791.1794
  21003884.2524  -35581207.66549 -27396043.64947  21003882.1324   21003887.5914
        45.4634         35.4264
  20886015.9094  -30854244.36249 -24013047.33047  20886014.1404   20886019.7894
       766.3564        597.1574
  23868903.1874  -12796012.89548  -9655477.02646  23868900.7814   23868910.1954
      3440.8084       2681.1414
  23807639.9694  -35517086.17447 -27325198.22045  23807637.0034   23807654.1434
     -1807.6324      -1408.5474
 00  7 16  0 12 30.0000000  0  7G29G15G20G11G25G 1G21
  23894048.7134  -27970649.16547 -21447798.42746  23894046.9314   23894056.8914
     -1671.1044      -1302.1604
  23688990.4084  -29989687.78747 -22805599.91445  23688988.7154   23689004.2784
     -2912.2364      -2269.2704
  22332823.9284  -24326368.75048 -18673657.32646  22332821.7774   22332826.4304
      3577.8584       2787.9424
  21003685.5514  -35582252.19249 -27396857.55247  21003683.4674   21003688.7244
        27.0744         21.0964
  20881698.8294  -30876931.48849 -24030725.49447  20881696.8754   20881702.5074
       749.1204        583.7254
  23849283.2064  -12899116.88948  -9735817.58146  23849280.9084   23849289.6574
      3435.7724       2677.2214
  23817988.0164  -35462700.07147 -27282819.57545  23817984.9634   23818004.3494
     -1815.1844      -1414.4244
 00  7 16  0 13  0.0000000  0  7G29G15G20G11G25G 1G21
  23903576.6524  -27920586.63547 -21408788.54846  23903574.0824   23903583.8404
     -1669.8734      -1301.2064
  23705610.4534  -29902347.33947 -22737542.42845  23705608.8474   23705625.1864
     -2913.9984      -2270.6514
  22312397.8744  -24433712.05648 -18757301.45546  22312395.2874   22312399.9664
      3574.8464       2785.5944
  21003570.0494  -35582859.42349 -27397330.70247  21003567.8964   21003573.2834
         9.8454          7.6724
  20877458.1534  -30899216.10049 -24048089.99247  20877456.3174   20877462.1224
       733.0504        571.2044
  23829669.2174  -13002184.07748  -9816129.46446  23829667.4164   23829676.5904
      3431.8904       2674.1924
  23828358.8504  -35408203.44847 -27240354.82445  23828356.1784   23828374.8864
     -1821.4414      -1419.2964
 00  7 16  0 13 30.0000000  0  7G29G15G20G11G25G 1G21
  23913113.9574  -27870463.70647 -21369731.54445  23913111.6224   23913121.7894
     -1675.2594      -1305.4064
  23722260.4984  -29814853.89247 -22669365.71645  23722258.9884   23722274.3854
     -2922.4384      -2277.2294
  22292007.6664  -24540863.31448 -18840795.92946  22292005.2134   22292010.0104
      3564.9774       2777.9044
  21003571.5434  -35582850.66349 -27397323.86547  21003569.4154   21003574.9314
       -14.0754        -10.9694
  20873327.5004  -30920919.08049 -24065001.27447  20873325.8534   20873331.6904
       710.2484        553.4354
  23810098.3214  -13105034.72948  -9896272.60746  23810095.7544   23810104.1984
      3421.2624       2665.9084
  23838783.4964  -35353417.51847 -27197664.64545  23838781.6484   23838800.0094
     -1834.4504      -1429.4394
 00  7 16  0 14  0.0000000  0  7G29G15G20G11G25G 1G21
  23922635.4084  -27820427.46847 -21330742.07245  23922633.0464   23922643.2214
     -1665.7204      -1297.9744
  23738911.8274  -29727356.75947 -22601186.13845  23738909.1904   23738924.6734
     -2915.9214      -2272.1404
  22271625.7344  -24647967.17348 -18924253.47246  22271623.5384   22271628.4344
      3570.0194       2781.8324
  21003662.2234  -35582373.64449 -27396952.15347  21003660.3094   21003665.5264
       -23.0194        -17.9374
  20869280.3614  -30942188.07049 -24081574.37947  20869278.6014   20869284.3074
       702.4424        547.3534
  23790539.1754  -13207815.40348  -9976361.23546  23790536.9464   23790545.2044
      3425.5474       2669.2524
  23849236.2744  -35298489.56947 -27154863.77445  23849235.0264   23849252.7434
     -1832.5924      -1427.9884
 00  7 16  0 14 30.0000000  0  7G29G15G20G11G25G 1G21
  23932168.2234  -27770332.73147 -21291706.95745  23932165.9814   23932175.2074
     -1672.0734      -1302.9204
  23755589.0454  -29639713.04947 -22532892.34845  23755587.6294   23755602.8274
     -2925.1964      -2279.3694
  22251281.8324  -24754876.45848 -19007559.39246  22251279.4404   22251284.3024
      3559.0794       2773.3084
  21003870.0104  -35581283.99349 -27396103.06047  21003867.7394   21003873.1584
       -47.8724        -37.3034
  20865343.2524  -30962877.76249 -24097696.11347  20865341.4284   20865347.4124
       678.7134        528.8644
  23771021.4594  -13310380.30248 -10056281.72946  23771019.1944   23771027.3114
      3413.9364       2660.2014
  23859744.6974  -35243274.86847 -27111839.44745  23859742.7644   23859760.1884
     -1846.6034      -1438.9034
 00  7 16  0 15  0.0000000  0  7G29G15G20G11G25G 1G21
  23941698.6264  -27720249.52347 -21252680.89345  23941696.8304   23941706.2644
     -1671.0504      -1302.1254
  23772281.4774  -29551994.43547 -22464540.18345  23772279.5254   23772294.9444
     -2926.9444      -2280.7274
  22230961.8404  -24861658.63848 -19090766.26946  22230959.6044   22230964.0294
      3555.4974       2770.5174
  21004180.4374  -35579651.74949 -27394831.16847  21004178.3444   21004184.0424
       -65.2544        -50.8484
  20861503.2984  -30983057.82049 -24113420.76447  20861501.4314   20861507.2344
       662.4004        516.1544
  23751531.8214  -13412798.19648 -10136087.67046  23751529.6474   23751538.2504
      3409.6824       2656.8884
  23870292.4024  -35187842.73947 -27068645.68145  23870289.6914   23870308.0764
     -1853.1464      -1444.0054
 00  7 16  0 15 30.0000000  0  7G29G15G20G11G25G 1G21
  23951249.9324  -27670056.34747 -21213569.17945  23951247.4274   23951257.4694
     -1677.0664      -1306.8074
  23789012.0894  -29464081.79947 -22396036.82745  23789009.1584   23789022.5264
     -2935.7404      -2287.5864
  22210690.0164  -24968190.06448 -19173777.75746  22210687.5694   22210691.7054
      3544.7364       2762.1334
  21004617.2824  -35577356.45949 -27393042.61447  21004615.1424   21004620.5774
       -89.7134        -69.9074
  20857782.8344  -31002607.75549 -24128654.42647  20857780.9994   20857787.0474
       639.0614        497.9684
  23732094.1074  -13514947.37448 -10215684.22046  23732091.6444   23732099.7954
      3398.3924       2648.0874
  23880904.7914  -35132072.13547 -27025188.20345  23880902.1414   23880921.9954
     -1866.8344      -1454.6774
 00  7 16  0 16  0.0000000  0  7G29G15G20G11G25G 1G21
  23960807.1244  -27619831.45047 -21174432.69945  23960805.1664   23960814.8514
     -1678.7424      -1308.1224
  23805761.7004  -29376055.76847 -22327445.08945  23805760.5264   23805773.6764
     -2940.1044      -2290.9914
  22190450.8514  -25074546.98648 -19256653.25346  22190448.5374   22190452.6474
      3538.3034       2757.1174
  21005164.7414  -35574477.35649 -27390799.13447  21005162.5674   21005168.1984
      -109.7124        -85.4894
  20854167.4824  -31021605.89349 -24143458.11347  20854165.6204   20854171.2194
       620.1144        483.2044
  23712691.5084  -13616905.76648 -10295132.09246  23712689.0894   23712697.0964
      3391.4064       2642.6454
  23891566.5834  -35076041.71047 -26981528.29145  23891565.2784   23891584.4224
     -1876.0484      -1461.8434
 00  7 16  0 16 30.0000000  0  7G29G15G20G11G25G 1G21
  23970348.8324  -27569679.45847 -21135352.97245  23970347.7244   23970358.3684
     -1669.5704      -1300.9714
  23822513.8764  -29288022.81447 -22258847.97945  23822511.5614   23822526.5484
     -2933.5624      -2285.8884
  22170225.6004  -25180831.90748 -19339472.63446  22170223.0574   22170227.1304
      3542.5374       2760.4194
  21005803.9254  -35571119.38349 -27388182.50447  21005801.9234   21005807.5824
      -118.9814        -92.7134
  20850637.3784  -31040156.99649 -24157913.46547  20850635.5864   20850640.9964
       611.8794        476.7874
  23693305.7244  -13718777.22248 -10374512.24946  23693303.5324   23693310.8364
      3395.1974       2645.6044
  23902257.2644  -35019855.80547 -26937747.22645  23902255.8174   23902275.7874
     -1874.4644      -1460.6074
 00  7 16  0 17  0.0000000  0  7G29G15G20G11G25G 1G21
  23979899.3554  -27519494.67047 -21096247.71545  23979898.2614   23979907.2274
     -1674.6464      -1304.9314
  23839287.4054  -29199879.57547 -22190164.90445  23839284.2984   23839299.5064
     -2941.1724      -2291.8264
  22150034.5164  -25286936.73848 -19422151.68646  22150031.8964   22150036.0634
      3532.5554       2752.6394
  21006554.2554  -35567177.78149 -27385111.09947  21006552.0394   21006557.8284
      -142.3804       -110.9464
  20847212.2004  -31058155.53949 -24171938.23147  20847210.4134   20847216.1714
       589.4854        459.3364
  23673956.8164  -13820455.29748 -10453741.73046  23673954.5414   23673962.4774
      3384.8194       2637.5154
  23913001.2344  -34963409.39747 -26893763.12645  23912998.6434   23913017.8894
     -1887.1334      -1470.4934
 00  7 16  0 17 30.0000000  0  7G29G15G20G11G25G 1G21
  23989440.0084  -27469359.92047 -21057181.50045  23989437.9984   23989447.2754
     -1670.0414      -1301.3394
  23856064.9704  -29111710.79447 -22121461.95045  23856062.4974   23856077.5254
     -2939.0724      -2290.1844
  22129862.5214  -25392941.97248 -19504753.12146  22129859.9284   22129864.1094
      3532.1444       2752.3184
  21007399.4214  -35562735.70249 -27381649.71847  21007397.1194   21007402.8244
      -156.1104       -121.6444
  20843876.5514  -31075684.35449 -24185596.97047  20843874.7934   20843880.5724
       576.7824        449.4384
  23654629.4204  -13922021.80148 -10532884.27446  23654627.2944   23654635.5284
      3383.9854       2636.8634
  23923777.8124  -34906785.15347 -26849640.45345  23923775.5704   23923791.8194
     -1890.1304      -1472.8234
 00  7 16  0 18  0.0000000  0  7G29G15G20G11G25G 1G21
  23998997.1704  -27419133.54347 -21018043.88745  23998995.1984   23999004.9294
     -1678.1874      -1307.6864
  23872874.2554  -29023377.34647 -22052630.69045  23872872.1484   23872886.2874
     -2949.6474      -2298.4164
  22109736.1854  -25498704.04948 -19587165.09046  22109733.8904   22109738.0414
      3518.8964       2741.9964
  21008366.3654  -35557652.74249 -27377688.93747  21008364.3384   21008369.8284
      -182.5584       -142.2534
  20840657.0734  -31092602.13249 -24198779.58947  20840655.2234   20840661.0504
       551.3394        429.6144
  23635349.7814  -14023334.93748 -10611829.35946  23635347.4704   23635356.0164
      3370.4794       2626.3404
  23934613.5384  -34849841.55247 -26805268.91245  23934611.8444   23934628.7134
     -1905.8974      -1485.1024
 00  7 16  0 18 30.0000000  0  7G29G15G20G11G25G 1G21
  24008558.4904  -27368891.18247 -20978893.80745  24008556.2434   24008565.3354
     -1675.0264      -1305.2244
  23889700.8784  -28934957.00347 -21983731.72145  23889698.2294   23889712.4224
     -2948.8014      -2297.7694
  22089642.9714  -25604296.32948 -19669444.74746  22089640.4374   22089645.0834
      3516.8534       2740.4034
  21009440.5764  -35552005.15649 -27373288.19147  21009438.8274   21009444.3704
      -197.6514       -154.0154
  20837539.1564  -31108985.02549 -24211545.43447  20837537.5574   20837543.3854
       537.2124        418.6054
  23616104.0014  -14124469.77148 -10690635.49646  23616101.7284   23616110.0584
      3368.2214       2624.5774
  23945495.4644  -34792654.65347 -26760707.84245  23945492.7384   23945511.1334
     -1910.2814      -1488.5294
 00  7 16  0 19  0.0000000  0  7G29G15G20G11G25G 1G21
  24018127.1674  -27318606.02347 -20939710.32345  24018125.1884   24018135.0614
     -1675.1684      -1305.3364
  23906547.3424  -28846425.62447 -21914746.20945  23906545.1694   23906560.4034
     -2951.1544      -2299.6034
  22069587.1984  -25709689.85348 -19751569.51846  22069584.3934   22069589.5124
      3511.4724       2736.2114
  21010628.0114  -35545767.69749 -27368427.80547  21010625.9624   21010631.4704
      -216.0684       -168.3644
  20834528.8744  -31124806.76649 -24223874.01947  20834527.1044   20834532.7024
       519.7554        405.0024
  23596898.1294  -14225399.13948 -10769281.55246  23596895.8804   23596903.7294
      3362.6264       2620.2244
  23956428.8504  -34735198.02047 -26715936.63045  23956425.2524   23956444.9604
     -1917.9544      -1494.5004
 00  7 16  0 19 30.0000000  0  7G29G15G20G11G25G 1G21
  24027671.4804  -27268454.72747 -20900631.22745  24027668.5434   24027677.8394
     -1675.5664      -1305.6434
  23923381.1044  -28757961.20147 -21845812.89245  23923378.8564   23923393.3844
     -2953.7574      -2301.6274
  22049535.4124  -25815058.83548 -19833675.17646  22049533.1844   22049537.8434
      3505.7694       2731.7654
  21011893.3614  -35539117.27149 -27363245.63847  21011891.4324   21011896.7674
      -234.6944       -182.8794
  20831591.1934  -31140244.20649 -24235903.14747  20831589.4394   20831595.1274
       502.0534        391.2094
  23577697.6624  -14326298.65648 -10847904.34646  23577695.5924   23577703.0504
      3356.7214       2615.6214
  23967381.2464  -34677648.39347 -26671092.90845  23967378.6324   23967395.1484
     -1925.9844      -1500.7684
 00  7 16  0 20  0.0000000  0  7G29G15G20G11G25G 1G21
  24037226.0564  -27218239.75647 -20861502.42345  24037223.6064   24037233.2234
     -1666.8714      -1298.8684
  23940239.3214  -28669368.71447 -21776779.78845  23940237.5574   23940252.4154
     -2947.2174      -2296.5264
  22029527.1734  -25920203.86148 -19915606.31246  22029524.6124   22029529.5624
      3509.0964       2734.3594
  21013275.1724  -35531857.55249 -27357588.69247  21013273.0894   21013278.0824
      -244.1774       -190.2694
  20828764.2714  -31155100.16249 -24247479.16347  20828762.3494   20828768.0124
       493.4864        384.5324
  23558539.4674  -14426970.68648 -10926349.86046  23558537.3284   23558545.7834
      3359.9484       2618.1364
  23978385.5244  -34619808.41947 -26626022.88045  23978383.9404   23978402.2254
     -1924.7714      -1499.8114
 00  7 16  0 20 30.0000000  0  7G29G15G20G11G25G 1G21
  24046769.0084  -27168090.36447 -20822424.84545  24046767.4634   24046776.2744
     -1676.8084      -1306.6074
  23957097.9684  -28580779.54547 -21707749.25645  23957095.2964   23957110.0484
     -2959.1214      -2305.8124
  22009537.7824  -26025251.56448 -19997461.60446  22009535.2684   22009539.4934
      3493.6934       2722.3574
  21014747.9284  -35524118.38349 -27351558.14647  21014745.8804   21014750.9524
      -272.2034       -212.1074
  20826022.9394  -31169504.21749 -24258703.03347  20826021.2664   20826026.8074
       466.3844        363.4134
  23539400.5514  -14527543.68648 -11004718.19346  23539398.4204   23539407.3664
      3344.5734       2606.1534
  23989423.6694  -34561807.62947 -26580827.55445  23989421.5544   23989440.7924
     -1942.3034      -1513.4684
 00  7 16  0 21  0.0000000  0  7G29G15G20G11G25G 1G21
  24056318.4524  -27117906.78447 -20783320.62145  24056316.3404   24056326.0074
     -1669.5414      -1300.9554
  23973973.0344  -28492096.18647 -21638645.32945  23973971.2974   23973986.4064
     -2953.8594      -2301.7044
  21989585.3144  -26130100.23548 -20079161.81046  21989582.8734   21989587.1734
      3495.4444       2723.7194
  21016330.9134  -35515801.35649 -27345077.31647  21016328.5754   21016333.7424
      -283.0784       -220.5834
  20823386.8494  -31183357.60849 -24269497.80547  20823385.0604   20823390.6464
       456.4204        355.6494
  23520300.5264  -14627917.44548 -11082931.27746  23520298.3294   23520306.2044
      3346.3044       2607.5034
  24000511.1134  -34503546.34747 -26535429.29445  24000509.6044   24000528.0074
     -1942.6124      -1513.7074
 00  7 16  0 21 30.0000000  0  7G29G15G20G11G25G 1G21
  24065866.5104  -27067729.95247 -20744221.74545  24065864.9434   24065873.8984
     -1672.2604      -1303.0614
  23990858.0804  -28403361.58247 -21569501.48045  23990856.5764   23990872.1674
     -2958.4414      -2305.2804
  21969663.4134  -26234788.43348 -20160736.96646  21969661.4174   21969665.6724
      3487.0994       2717.2184
  21018015.2404  -35506948.18049 -27338178.70247  21018013.1664   21018018.5824
      -303.8374       -236.7574
  20820847.3684  -31196701.35049 -24279895.42947  20820845.7754   20820851.1764
       436.5254        340.1464
  23501229.6964  -14728132.28148 -11161020.54046  23501227.5344   23501236.0224
      3338.0324       2601.0564
  24011640.3644  -34445066.01847 -26489860.34845  24011637.3304   24011656.0754
     -1952.8464      -1521.7024
 00  7 16  0 22  0.0000000  0  8G29G15G20G11G25G 1G16G21
  24075408.2444  -27017582.30747 -20705145.43845  24075407.1684   24075416.4034
     -1669.8404      -1301.1764
  24007748.9844  -28314601.02347 -21500337.42745  24007746.5724   24007763.2114
     -2957.7904      -2304.7664
  21949768.9394  -26339336.75748 -20242203.12346  21949766.4704   21949770.6344
      3483.8864       2714.7124
  21019797.4524  -35497582.85449 -27330881.01847  21019795.3554   21019800.6394
      -319.4314       -248.9084
  20818400.5094  -31209559.09549 -24289914.35747  20818398.8254   20818404.5164
       421.8134        328.6824
  23482184.8774  -14828210.55848 -11239003.39246  23482182.8684   23482191.2804
      3335.0094       2598.6974
  24600942.3774   -6438957.67857  -4430497.57645  24600938.9934   24600946.1664
      4064.3894       3167.0564
  24022805.0164  -34386389.55347 -26444138.55845  24022804.0324   24022822.7214
     -1957.7834      -1525.5454
 00  7 16  0 22 30.0000000  0  8G29G15G20G11G25G 1G16G21
  24084948.1914  -26967449.74647 -20666080.91745  24084947.0874   24084956.0214
     -1672.2294      -1303.0384
  24024646.5874  -28225802.38047 -21431143.69945  24024644.3644   24024660.9964
     -2961.9714      -2308.0384
  21929903.9164  -26443728.77248 -20323547.47846  21929901.1384   21929905.2434
      3475.6744       2708.3134
  21021679.4284  -35487692.11549 -27323173.92747  21021677.2634   21021682.6124
      -339.9154       -264.8694
  20816049.2874  -31221916.70749 -24299543.57947  20816047.3904   20816052.7054
       402.1614        313.3714
  23463169.5784  -14928137.50048 -11316868.29646  23463167.5764   23463175.2694
      3326.9064       2592.3884
  24577745.8624   -6560857.19147  -4525484.12745  24577743.0954   24577749.4304
      4062.3474       3165.4674
  24034009.8374  -34327503.33547 -26398253.28745  24034008.1314   24034028.1644
     -1967.8224      -1533.3514
 00  7 16  0 23  0.0000000  0  8G29G15G20G11G25G 1G16G21
  24094503.5824  -26917239.51747 -20626955.91845  24094501.8884   24094510.1494
     -1670.4704      -1301.6734
  24041567.0804  -28136874.68947 -21361849.39745  24041566.0214   24041581.7404
     -2961.8554      -2307.9334
  21910086.0734  -26547869.02048 -20404695.63646  21910083.6644   21910087.5494
      3471.6714       2705.1944
  21023678.8244  -35477183.84649 -27314985.64047  21023676.8884   21023682.2344
      -356.0014       -277.4054
  20813810.6444  -31233681.10649 -24308710.55947  20813808.7114   20813813.9704
       386.8514        301.4394
  23444200.7064  -15027819.63748 -11394542.46046  23444198.6574   23444206.0124
      3323.2524       2589.5404
  24554560.7094   -6682692.09547  -4620420.33745  24554557.9994   24554563.9304
      4064.6304       3167.2374
  24045274.5114  -34268314.28047 -26352132.01045  24045271.6384   24045291.5854
     -1973.4274      -1537.7344
 00  7 16  0 23 30.0000000  0  8G29G15G20G11G25G 1G16G21
  24104035.1744  -26867148.31447 -20587923.72645  24104033.1944   24104042.5734
     -1673.0854      -1303.7044
  24058477.7884  -28048017.24847 -21292609.86245  24058475.6064   24058490.4914
     -2966.0414      -2311.2104
  21890280.0004  -26651952.49348 -20485799.55046  21890277.2454   21890281.1654
      3463.1554       2698.5574
  21025758.9634  -35466256.30549 -27306470.64447  21025756.6954   21025761.5674
      -376.5894       -293.4474
  20811646.9464  -31245050.43049 -24317569.67747  20811645.0374   20811650.6084
       367.0934        286.0434
  23425241.1264  -15127453.52948 -11472179.00546  23425238.6174   23425246.5014
      3314.9714       2583.0854
  24531350.5544   -6804658.31347  -4715458.87645  24531348.4524   24531355.5474
      4062.3834       3165.4954
  24056557.9934  -34209019.88247 -26305928.66045  24056555.4674   24056575.7724
     -1983.5484      -1545.6174
 00  7 16  0 24  0.0000000  0  7G29G20G11G25G 1G16G21
  24113574.8624  -26817018.14847 -20548861.06245  24113573.0984   24113582.2284
     -1673.2824      -1303.8564
  21870514.6584  -26755818.98748 -20566734.40847  21870512.2324   21870516.2794
      3456.9404       2693.7184
  21027948.0044  -35454752.46449 -27297506.58847  21027945.5994   21027950.5894
      -394.6984       -307.5584
  20809588.4324  -31255867.60149 -24325998.54447  20809586.5394   20809592.0154
       349.7284        272.5134
  23406320.4634  -15226880.73348 -11549654.50346  23406318.1914   23406325.7194
      3309.1554       2578.5534
  24508146.4954   -6926596.13147  -4810475.28545  24508144.0334   24508150.6124
      4062.4294       3165.5234
  24067891.5204  -34149462.50947 -26259520.38945  24067889.1694   24067907.9044
     -1991.2674      -1551.6244
 00  7 16  0 24 30.0000000  0  7G29G20G11G25G 1G16G21
  24123124.3404  -26766836.29847 -20509758.26245  24123121.9354   24123131.1324
     -1673.6194      -1304.1254
  21850793.3894  -26859453.62748 -20647488.62147  21850790.9654   21850795.7424
      3450.6324       2688.8014
  21030248.3274  -35442661.17149 -27288084.77547  21030246.2594   21030251.4934
      -412.7984       -321.6614
  20807637.4764  -31266120.23849 -24333987.51047  20807635.4454   20807640.7524
       332.4304        259.0324
  23387441.9394  -15326087.97748 -11626958.61846  23387439.6484   23387446.4894
      3303.2684       2573.9704
  24484950.1374   -7048491.41147  -4905458.55345  24484948.1134   24484955.2964
      4062.4474       3165.5414
  24079276.0854  -34089629.92047 -26212897.71245  24079274.4054   24079294.3624
     -1999.0114      -1557.6674
 00  7 16  0 24 59.9990000  0  7G29G20G11G25G 1G16G21
  24132676.8944  -26716636.30647 -20470641.20145  24132674.9084   24132683.5264
     -1673.4564      -1304.0014
  21831111.7364  -26962882.56148 -20728082.54147  21831108.9904   21831113.9594
      3444.6074       2684.1084
  21032655.1954  -35430015.91749 -27278231.30947  21032652.9814   21032657.8494
      -430.5594       -335.5034
  20805787.1064  -31275840.57449 -24341561.70847  20805785.3294   20805791.0164
       315.3954        245.7594
  23368600.8464  -15425103.55148 -11704113.38546  23368598.2654   23368605.0374
      3297.7034       2569.6324
  24461757.4544   -7170370.65247  -5000429.33045  24461754.9234   24461762.7024
      4062.8244       3165.8314
  24090708.6764  -34029556.55247 -26166087.41845  24090706.8514   24090727.2654
     -2006.2484      -1563.3064
 00  7 16  0 25 29.9990000  0  7G29G20G11G25G 1G16G21
  24142221.5154  -26666474.74447 -20431554.11945  24142219.6794   24142228.5194
     -1671.8524      -1302.7464
  21811456.2744  -27066170.11048 -20808566.27747  21811453.9314   21811458.9574
      3440.0144       2680.5274
  21035155.4274  -35416876.54449 -27267992.80547  21035153.3644   21035158.0874
      -446.7154       -348.0904
  20804026.7804  -31285089.75249 -24348768.78647  20804025.1194   20804030.8844
       299.9724        233.7424
  23349781.3874  -15523993.36048 -11781170.15646  23349779.1184   23349786.6634
      3293.6814       2566.4964
  24438555.4004   -7292300.18747  -5095439.29745  24438553.3594   24438560.1294
      4064.6064       3167.2234
  24102175.4364  -33969298.34147 -26119133.07145  24102172.3924   24102192.7044
     -2012.1144      -1567.8934
 00  7 16  0 25 59.9990000  0  8G29G15G20G11G25G 1G16G21
  24151754.1294  -26616380.11047 -20392519.29145  24151752.4224   24151761.2644
     -1667.8054      -1299.5964
  24143206.8314     262771.71646    185658.39745  24143202.6374   24143218.4954
     -2967.4984      -2312.3384
  21791823.9464  -27169337.70648 -20888956.53347  21791821.5994   21791826.7344
      3437.8164       2678.8164
  21037743.8654  -35403271.76449 -27257391.65047  21037741.7594   21037746.8654
      -460.3574       -358.7214
  20802351.6554  -31293895.27749 -24355630.15947  20802349.8244   20802355.1574
       287.0644        223.6834
  23330982.6654  -15622780.54648 -11858146.96146  23330980.4944   23330988.4764
      3292.0664       2565.2394
  24415338.6424   -7414301.10747  -5190504.90545  24415336.9384   24415343.4824
      4068.8274       3170.5134
  24113670.3864  -33908884.62346 -26072057.56245  24113669.0664   24113687.2334
     -2015.4584      -1570.4934
 00  7 16  0 26 29.9990000  0  7G29G20G11G25G 1G16G21
  24161295.3864  -26566244.22147 -20353452.21045  24161292.9024   24161302.6004
     -1672.6214      -1303.3404
  21772236.4444  -27272274.74348 -20969167.14847  21772233.7914   21772238.4424
      3426.6564       2670.1224
  21040442.1134  -35389094.70949 -27246344.56447  21040439.8454   21040444.5404
      -482.8524       -376.2494
  20800781.0244  -31302149.51749 -24362061.93547  20800779.1184   20800784.3184
       265.2374        206.6734
  23312224.6224  -15721356.26948 -11934959.01346  23312222.4894   23312229.2874
      3281.5954       2557.0784
  24392131.1344   -7536264.04247  -5285540.88345  24392127.9554   24392134.7644
      4064.0874       3166.8234
  24125218.2424  -33848207.68046 -26024776.93745  24125215.5314   24125235.7054
     -2027.5774      -1579.9284
 00  7 16  0 26 59.9990000  0  7G29G20G11G25G 1G16G21
  24170843.3664  -26516069.68947 -20314355.03345  24170841.1684   24170850.3784
     -1674.8824      -1305.1024
  21752691.6834  -27374981.98748 -21049198.71647  21752688.9364   21752693.8174
      3417.9284       2663.3174
  21043247.7854  -35374349.32649 -27234854.61747  21043245.7034   21043250.4654
      -502.7934       -391.7894
  20799314.3064  -31309855.35249 -24368066.35847  20799312.4014   20799317.8784
       245.9734        191.6634
  23293505.6544  -15819723.20848 -12011608.36346  23293503.4674   23293510.0404
      3273.6574       2550.8964
  24368927.1944   -7658190.10547  -5380548.14745  24368925.7544   24368933.2244
      4061.7384       3164.9944
  24136814.3254  -33787270.92247 -25977293.86945  24136812.5414   24136831.8944
     -2037.2874      -1587.4944
 00  7 16  0 27 29.9990000  0  7G29G20G11G25G 1G16G21
  24180368.9314  -26466012.71047 -20275349.48745  24180366.7434   24180375.5194
     -1671.7704      -1302.6864
  21733161.7134  -27477613.36148 -21129171.16947  21733159.1134   21733163.2054
      3414.5844       2660.7144
  21046131.7424  -35359193.28549 -27223044.67547  21046129.7194   21046135.0634
      -517.2174       -403.0294
  20797922.3404  -31317170.21449 -24373766.13647  20797920.4224   20797925.8064
       232.1754        180.9114
  23274796.9424  -15918037.23948 -12088216.47646  23274794.7024   23274802.2914
      3271.0684       2548.8804
  24345704.5204   -7780234.07247  -5475647.27345  24345702.1754   24345708.8274
      4064.9504       3167.4864
  24148429.7224  -33726230.97746 -25929730.43145  24148427.8594   24148449.2854
     -2041.4844      -1590.7534
 00  7 16  0 27 59.9990000  0  7G29G20G11G25G 1G16G21
  24189906.5564  -26415888.55747 -20236291.43845  24189903.6964   24189913.4494
     -1669.1194      -1300.6224
  21713680.9764  -27579981.79948 -21208938.73547  21713678.7164   21713683.1354
      3410.6104       2657.6174
  21049128.7884  -35343443.53249 -27210772.10447  21049126.6574   21049131.9804
      -532.1794       -414.6854
  20796638.8994  -31323910.51549 -24379018.21647  20796637.4114   20796642.8924
       217.8444        169.7454
  23256133.3194  -16016113.40048 -12164639.24846  23256130.8864   23256137.9934
      3267.9514       2546.4474
  24322492.6744   -7902209.65147  -5570693.14745  24322490.0534   24322497.7734
      4067.4684       3169.4594
  24160100.6104  -33664903.94146 -25881943.26245  24160096.8824   24160117.3184
     -2046.2934      -1594.5094
 00  7 16  0 28 29.9990000  0  7G29G20G11G25G 1G16G21
  24199448.6294  -26365741.25947 -20197215.44045  24199447.2684   24199456.3804
     -1668.9464      -1300.4824
  21694243.1374  -27682129.13348 -21288534.01747  21694240.5834   21694244.9374
      3404.2004       2652.6214
  21052230.2154  -35327144.97349 -27198071.88847  21052228.1194   21052233.3614
      -549.4394       -428.1364
  20795457.1424  -31330120.58549 -24383857.09847  20795455.4474   20795461.0014
       201.1654        156.7494
  23237506.7984  -16113994.79348 -12240910.25746  23237504.5334   23237511.5324
      3262.4924       2542.1954
  24299286.4384   -8024159.21947  -5665718.75445  24299283.9844   24299290.4844
      4067.5304       3169.5044
  24171815.7744  -33603333.58046 -25833966.44545  24171814.7014   24171834.4584
     -2053.3874      -1600.0484
 00  7 16  0 28 59.9990000  0  7G29G20G11G25G 1G16G21
  24208992.5614  -26315592.51447 -20158138.36445  24208990.3024   24208998.5004
     -1672.3854      -1303.1634
  21674843.6144  -27784074.53048 -21367971.94047  21674841.3054   21674845.0754
      3394.0414       2644.7074
  21055431.9724  -35310320.74949 -27184962.06647  21055429.6714   21055434.9534
      -570.3314       -444.4154
  20794373.1884  -31335822.63049 -24388300.12647  20794370.9094   20794376.0474
       180.8724        140.9344
  23218913.1314  -16211702.82448 -12317046.18346  23218910.9254   23218918.3754
      3253.2934       2535.0264
  24276083.0694   -8146103.18747  -5760740.00045  24276080.1064   24276086.1734
      4063.9904       3166.7464
  24183575.7494  -33541542.32347 -25785817.47445  24183573.1314   24183592.1234
     -2064.1154      -1608.4094
 00  7 16  0 29 29.9990000  0  8G29G15G20G11G25G 1G16G21
  24218529.5714  -26265469.54247 -20119081.35145  24218528.2234   24218536.7214
     -1670.9644      -1302.0544
  24262068.7014     434852.86146    110725.27245  24262064.7024   24262080.4284
     -2977.2344      -2319.9144
  21655477.2724  -27885843.31348 -21447272.25547  21655474.8334   21655479.0594
      3388.7214       2640.5604
  21058727.8574  -35292999.63549 -27171465.06347  21058725.5604   21058731.0334
      -586.2884       -456.8494
  20793379.0584  -31341045.31849 -24392369.61347  20793377.0864   20793382.1404
       165.4884        128.9484
  23200347.9934  -16309264.53548 -12393068.10246  23200345.6944   23200353.0964
      3249.0074       2531.6884
  24252872.8544   -8268066.94047  -5855776.66645  24252870.7724   24252877.4164
      4065.1494       3167.6504
  24195370.7584  -33479557.91147 -25737518.00945  24195368.7364   24195388.3904
     -2070.0064      -1612.9874
 00  7 16  0 29 59.9990000  0  8G29G15G20G11G25G 1G16G21
  24228048.2254  -26215450.22047 -20080105.13445  24228046.3934   24228055.0704
     -1670.5224      -1301.7084
  24279046.9624     524069.42746    180244.64745  24279044.3784   24279058.9894
     -2977.4734      -2320.0964
  21636130.9794  -27987510.98448 -21526493.78247  21636128.5444   21636132.2884
      3382.1984       2635.4784
  21062103.1974  -35275260.97449 -27157642.69847  21062101.0934   21062106.9394
      -603.2444       -470.0624
  20792460.5854  -31345867.33449 -24396126.90847  20792458.8714   20792464.0614
       149.0924        116.1714
  23181795.6144  -16406757.38648 -12469036.36346  23181793.2144   23181800.6864
      3243.6274       2527.4954
  24229645.3544   -8390126.99147  -5950888.35745  24229642.8794   24229649.7134
      4065.2274       3167.7124
  24207188.3624  -33417459.05447 -25689129.38945  24207186.8784   24207206.4434
     -2076.8074      -1618.2794
 00  7 16  0 30 29.9990000  0  8G29G15G20G11G25G 1G16G21
  24237570.0904  -26165412.10047 -20041114.19245  24237567.5594   24237576.4294
     -1672.8004      -1303.4894
  24296030.0574     613321.75346    249791.83044  24296027.2314   24296043.1604
     -2980.1624      -2322.1974
  21616826.8884  -28088953.35248 -21605539.75147  21616824.2354   21616828.7574
      3373.1034       2628.3904
  21065580.7164  -35256984.08049 -27143400.92647  21065578.8764   21065584.7504
      -622.7284       -485.2444
  20791642.6794  -31350167.57549 -24399477.61847  20791640.4814   20791645.5224
       130.1354        101.3994
  23163279.4164  -16504058.98748 -12544855.60446  23163277.2544   23163284.4644
      3235.6634       2521.2914
  24206423.1414   -8512159.78647  -6045978.80145  24206420.9254   24206426.5654
      4062.7354       3165.7744
  24219050.2784  -33355124.22147 -25640556.90345  24219047.4384   24219066.5514
     -2086.2664      -1625.6634
 00  7 16  0 30 59.9990000  0  7G29G15G20G11G25G 1G16
  24247095.2504  -26115352.93647 -20002106.84045  24247094.1824   24247103.0394
     -1667.4494      -1299.3114
  24313019.9574     702610.30946    319367.21844  24313020.3724   24313032.2354
     -2975.2334      -2318.3484
  21597566.8874  -28190165.60648 -21684406.41047  21597564.5234   21597568.6064
      3371.5284       2627.1644
  21069161.6824  -35238168.04349 -27128739.04547  21069159.4724   21069164.9454
      -634.5744       -494.4744
  20790923.5254  -31353944.33949 -24402420.43247  20790921.7524   20790926.8244
       118.8224         92.5864
  23144800.7144  -16601166.22948 -12620523.40646  23144798.2114   23144805.5214
      3235.2774       2520.9894
  24183207.8434   -8634161.49747  -6141045.03445  24183205.6844   24183210.3754
      4067.7504       3169.6724
 00  7 16  0 31 29.9990000  0  7G29G15G20G11G25G 1G16
  24256619.2054  -26065302.82047 -19963106.68345  24256617.5404   24256626.5884
     -1672.1184      -1302.9594
  24330012.7774     791902.74046    388945.63544  24330011.2364   24330025.8934
     -2980.4324      -2322.4154
  21578345.3974  -28291175.63148 -21763115.49147  21578342.8804   21578347.3814
      3359.6204       2617.8854
  21072838.8794  -35218844.40849 -27113681.63747  21072836.7584   21072842.0094
      -656.5674       -511.6124
  20790298.9194  -31357228.37649 -24404979.29647  20790296.8874   20790301.6784
        97.3014         75.8154
  23126352.4694  -16698108.99348 -12696063.05246  23126350.1654   23126358.1554
      3224.7314       2512.7724
  24159991.8974   -8756159.98347  -6236108.74045  24159989.4614   24159995.2474
      4062.5934       3165.6594
 00  7 16  0 31 59.9990000  0  7G29G15G20G11G25G 1G16
  24266140.4494  -26015264.71447 -19924115.85445  24266139.5504   24266148.7004
     -1667.9184      -1299.6874
  24347004.9794     881193.76446    458522.96644  24347002.6644   24347017.3874
     -2976.5254      -2319.3654
  21559162.5664  -28391984.28048 -21841667.64747  21559159.8654   21559164.3094
      3356.8144       2615.6964
  21076611.8374  -35199017.91049 -27098232.38447  21076609.7284   21076614.6884
      -669.4094       -521.6194
  20789766.0834  -31360024.03049 -24407157.64247  20789764.4294   20789769.3804
        84.9634         66.2004
  23107935.6334  -16794890.29548 -12771476.87946  23107933.4244   23107941.2034
      3223.2094       2511.5864
  24136776.5374   -8878157.34747  -6331171.58445  24136773.8764   24136779.7634
      4066.4454       3168.6584
 00  7 16  0 32 29.9990000  0  7G29G15G20G11G25G 1G16
  24275669.8724  -25965196.43447 -19885101.37345  24275667.3814   24275675.5334
     -1666.0664      -1298.2464
  24364004.1454     970523.43646    528130.38844  24364001.5904   24364014.8904
     -2974.9614      -2318.1464
  21540026.3894  -28492546.96048 -21920028.14047  21540023.6584   21540027.7564
      3351.2584       2611.3694
  21080488.1764  -35178647.97249 -27082359.66947  21080486.1044   21080491.0384
      -684.7584       -533.5784
  20789335.3504  -31362290.18249 -24408923.40147  20789333.5274   20789338.2284
        70.0254         54.5624
  23089557.4384  -16891467.39848 -12846731.59746  23089555.1664   23089562.3124
      3219.1524       2508.4234
  24113569.1814   -9000109.47847  -6426199.18845  24113566.8024   24113571.5674
      4067.6574       3169.5934
 00  7 16  0 32 59.9990000  0  7G29G15G20G11G25G 1G16
  24285170.6234  -25915268.27947 -19846196.16045  24285168.8484   24285177.4784
     -1666.4504      -1298.5314
  24380977.4684    1059719.11346    597633.37544  24380975.6254   24380988.5574
     -2975.3804      -2318.4834
  21520903.9604  -28593031.95048 -21998328.08247  21520901.5234   21520906.1264
      3343.7234       2605.4954
  21084434.8404  -35157906.46049 -27066197.41447  21084432.9754   21084438.2204
      -702.0444       -547.0494
  20788972.3074  -31364197.66549 -24410409.67547  20788970.4444   20788975.2634
        53.1644         41.4254
  23071185.7294  -16988010.17748 -12921959.58146  23071183.3854   23071190.4384
      3213.0374       2503.6594
  24090339.6784   -9122185.78347  -6521323.53545  24090337.1704   24090342.8284
      4066.7894       3168.9284
 00  7 16  0 33 29.9990000  0  7G29G15G20G11G25G 1G16
  24294688.6134  -25865251.34247 -19807221.77145  24294686.0144   24294694.8604
     -1670.9674      -1302.0554
  24397968.1924    1149007.30046    667208.45244  24397965.9984   24397980.6574
     -2980.0294      -2322.1024
  21501840.9054  -28693207.88148 -22076387.21047  21501838.6934   21501842.8504
      3331.7984       2596.2054
  21088496.2944  -35136566.17749 -27049568.59147  21088494.1984   21088498.9794
      -723.5684       -563.8204
  20788720.8674  -31365519.22149 -24411439.40647  20788718.9294   20788723.8754
        32.0904         25.0024
  23052864.3424  -17084289.65248 -12996982.39646  23052862.1274   23052869.3654
      3202.7244       2495.6244
  24067130.1724   -9244154.93047  -6616364.36545  24067126.8524   24067132.4774
      4061.6294       3164.9054
 00  7 16  0 33 59.9990000  0  7G29G15G20G11G25G 1G16
  24304203.2024  -25815244.05447 -19768254.99745  24304201.5714   24304210.8124
     -1664.5934      -1297.0914
  24414957.0434    1238287.11546    736777.03044  24414955.4264   24414970.9904
     -2973.6574      -2317.1364
  21482818.4754  -28793171.15048 -22154280.64347  21482816.1114   21482820.1384
      3330.7084       2595.3564
  21092651.9274  -35114727.16949 -27032551.14547  21092649.6404   21092654.3034
      -734.1054       -572.0324
  20788561.9284  -31366353.85549 -24412089.70347  20788560.1094   20788564.9534
        21.9224         17.0794
  23034574.0834  -17180404.03948 -13071876.57246  23034571.8804   23034579.1814
      3203.2594       2496.0424
  24043920.5544   -9366114.68547  -6711397.91745  24043918.5304   24043925.2534
      4067.3834       3169.3964
 00  7 16  0 34 29.9990000  0  7G29G15G20G11G25G 1G16
  24313704.6244  -25765315.02247 -19729349.08345  24313702.7764   24313711.6594
     -1665.6974      -1297.9514
  24431932.1884    1327487.69446    806283.86844  24431930.8554   24431943.8614
     -2974.7864      -2317.9994
  21463824.2404  -28892988.12148 -22232060.05147  21463821.6064   21463825.5614
      3322.0394       2588.5994
  21096888.7484  -35092459.92449 -27015200.00147  21096886.8104   21096891.6054
      -752.1104       -586.0624
  20788482.2134  -31366771.67249 -24412415.20847  20788480.5404   20788485.4394
         4.2834          3.3344
  23016302.4734  -17276421.77348 -13146695.41446  23016300.3874   23016307.5224
      3196.2344       2490.5654
  24020701.9324   -9488131.38747  -6806475.80245  24020699.0034   24020705.5584
      4065.4354       3167.8694
 00  7 16  0 34 59.9990000  0  7G29G15G20G11G25G 1G16
  24323215.4254  -25715341.76547 -19690408.76645  24323212.8224   24323220.8414
     -1670.5514      -1301.7344
  24448912.7964    1416729.44246    875822.74044  24448911.4584   24448922.9064
     -2979.3844      -2321.5984
  21444881.3844  -28992534.08648 -22309628.29247  21444878.5644   21444882.7674
      3309.6234       2578.9254
  21101230.7774  -35069643.38649 -26997420.84347  21101228.6064   21101233.5434
      -773.7214       -602.9004
  20788505.1404  -31366650.83749 -24412320.97547  20788503.3164   20788508.1654
       -17.0384        -13.2794
  22998073.1034  -17372219.90148 -13221343.12846  22998070.8274   22998076.8574
      3185.5624       2482.2474
  23997496.3774   -9610081.72847  -6901501.97645  23997492.8694   23997499.9634
      4059.8634       3163.5294
 00  7 16  0 35 29.9990000  0  6G29G20G11G25G 1G16
  24332725.1954  -25665363.78747 -19651464.75045  24332723.1114   24332731.9154
     -1664.3894      -1296.9334
  21425982.6454  -29091846.26548 -22387014.34947  21425980.0844   21425984.1164
      3308.1184       2577.7514
  21105669.0694  -35046318.95149 -26979245.91747  21105666.8584   21105671.9814
      -784.3144       -611.1544
  20788623.2214  -31366031.96249 -24411838.65047  20788621.1504   20788625.8514
       -27.2534        -21.2394
  22979877.5814  -17467837.85148 -13295850.46346  22979875.0814   22979880.9314
      3185.9104       2482.5234
  23974294.9964   -9732002.96747  -6996505.48845  23974292.0134   23974298.9154
      4065.1724       3167.6664
 00  7 16  0 35 59.9990000  0  6G29G20G11G25G 1G16
  24342231.7374  -25615404.15747 -19612535.05345  24342229.5864   24342238.2224
     -1662.7314      -1295.6384
  21407124.1734  -29190945.51848 -22464234.47847  21407122.0094   21407126.4384
      3302.0374       2573.0134
  21110199.6234  -35022511.64049 -26960694.73747  21110197.4274   21110202.3824
      -799.3544       -622.8744
  20788830.2554  -31364939.49149 -24410987.31447  20788828.7224   20788833.7294
       -41.9904        -32.7204
  22961711.3344  -17563298.25048 -13370235.02646  22961709.1424   22961715.6684
      3181.7104       2479.2474
  23951095.3324   -9853917.08147  -7091503.47545  23951093.2414   23951098.7444
      4065.9724       3168.2884
 00  7 16  0 36 29.9990000  0  6G29G20G11G25G 1G16
  24351726.2664  -25565507.95947 -19573654.81845  24351724.1674   24351732.9414
     -1663.2884      -1296.0814
  21388298.7124  -29289875.05748 -22541322.40147  21388296.0274   21388300.7044
      3293.7354       2566.5474
  21114813.0964  -34998268.42549 -26941803.88847  21114810.9254   21114815.2824
      -816.4474       -636.1934
  20789119.6894  -31363419.66849 -24409803.01147  20789117.9424   20789123.1064
       -58.8124        -45.8294
  22943567.4844  -17658646.05848 -13444531.83746  22943565.0474   22943571.7534
      3175.3864       2474.3204
  23927889.3914   -9975867.45947  -7186529.71845  23927886.1734   23927892.3404
      4064.5594       3167.1884
 00  7 16  0 36 59.9990000  0  6G29G20G11G25G 1G16
  24361227.3514  -25515581.26247 -19534750.75745  24361225.7834   24361233.9064
     -1660.5324      -1293.9244
  21369523.2404  -29388538.74548 -22618203.20247  21369520.9864   21369525.3024
      3288.5384       2562.4974
  21119526.8594  -34973497.05449 -26922501.49147  21119524.6454   21119528.9224
      -830.3244       -647.0064
  20789507.9004  -31361380.24149 -24408213.80647  20789506.1244   20789510.9804
       -72.4024        -56.4194
  22925461.9064  -17753787.51648 -13518667.87946  22925459.8724   22925466.4844
      3172.1364       2471.7894
  23904694.7454  -10097758.95947  -7281510.08145  23904692.0244   23904697.0224
      4066.2724       3168.5274
 00  7 16  0 37 29.9990000  0  6G29G20G11G25G 1G16
  24370703.5184  -25465786.91147 -19495949.75345  24370701.2364   24370708.5214
     -1661.6594      -1294.8034
  21350768.5584  -29487097.13548 -22695001.94047  21350766.0004   21350770.4824
      3279.4654       2555.4284
  21124309.5534  -34948361.74949 -26902915.52147  21124307.4704   21124312.1814
      -847.9424       -660.7354
  20789963.6794  -31358985.22549 -24406347.53947  20789961.6814   20789966.7134
       -89.7804        -69.9594
  22907365.0364  -17848885.07148 -13592769.72046  22907363.0324   22907369.4914
      3165.1334       2466.3324
  23881479.2094  -10219752.55647  -7376570.01845  23881476.9704   23881482.4754
      4064.1144       3166.8434
 00  7 16  0 37 59.9990000  0  6G29G20G11G25G 1G16
  24380180.7454  -25415975.16047 -19457135.19745  24380179.7774   24380187.6374
     -1657.5254      -1291.5814
  21332062.9194  -29585398.10948 -22771600.12947  21332060.3214   21332064.4654
      3275.5594       2552.3864
  21129189.9934  -34922715.13749 -26882931.12947  21129187.9464   21129192.5854
      -860.2574       -670.3304
  20790515.4844  -31356085.56449 -24404088.03547  20790513.6844   20790518.4264
      -101.8694        -79.3804
  22889305.6224  -17943788.62948 -13666720.38546  22889303.5744   22889310.0824
      3163.4074       2464.9864
  23858273.2544  -10341697.03447  -7471591.63645  23858270.9654   23858277.5894
      4067.1434       3169.2014
 00  7 16  0 38 29.9990000  0  6G29G20G11G25G 1G16
  24389654.7654  -25366191.15747 -19418342.31245  24389653.1964   24389661.2624
     -1662.3874      -1295.3714
  21313397.3654  -29683484.33748 -22848030.96747  21313395.0734   21313399.1554
      3262.5534       2542.2494
  21134159.2894  -34896604.18349 -26862584.91347  21134156.8014   21134161.3914
      -881.4764       -686.8654
  20791154.3714  -31352727.65749 -24401471.47047  20791152.6554   20791157.5564
      -122.8964        -95.7634
  22871274.2164  -18038543.08448 -13740554.87246  22871272.4824   22871279.1774
      3152.6284       2456.5874
  23835070.2704  -10463635.67747  -7566608.72345  23835067.4904   23835073.5944
      4061.1464       3164.5244
 00  7 16  0 38 59.9990000  0  6G29G20G11G25G 1G16
  24399128.7764  -25316403.06147 -19379546.19545  24399126.8394   24399135.0514
     -1660.5194      -1293.9174
  21294780.0444  -29781322.33548 -22924268.34347  21294777.1184   21294781.1334
      3256.2544       2537.3424
  21139221.5824  -34869999.27449 -26841853.81047  21139219.3894   21139224.3204
      -895.9374       -698.1334
  20791886.6224  -31348881.10349 -24398474.13447  20791884.8414   20791889.5504
      -137.1834       -106.8974
  22853277.7774  -18133116.85248 -13814248.56546  22853275.5344   22853281.8444
      3148.6014       2453.4514
  23811873.7414  -10585535.48247  -7661595.55045  23811870.6704   23811876.1344
      4061.8874       3165.1054
 00  7 16  0 39 29.9990000  0  5G20G11G25G 1G16
  21276219.2544  -29878855.78648 -23000268.42147  21276216.7044   21276220.9884
      3247.4004       2530.4414
  21144388.3734  -34842848.18849 -26820697.11047  21144386.2644   21144390.9374
      -912.7344       -711.2224
  20792721.6844  -31344493.16149 -24395054.95547  20792719.7104   20792724.3184
      -153.8584       -119.8894
  22835325.3254  -18227455.76248 -13887759.27446  22835322.9814   22835329.5174
      3142.1414       2448.4194
  23788694.1014  -10707340.96847  -7756508.87745  23788691.2204   23788697.1834
      4060.0014       3163.6414
 00  7 16  0 39 59.9990000  0  5G20G11G25G 1G16
  21257690.0274  -29976226.05248 -23076141.38247  21257687.8174   21257692.3074
      3244.0614       2527.8444
  21149631.5734  -34815296.34549 -26799228.13947  21149629.2854   21149633.7844
      -923.9504       -719.9614
  20793632.2124  -31339708.57249 -24391326.70547  20793630.3814   20793634.6984
      -164.9354       -128.5214
  22817390.1744  -18321702.99648 -13961198.54846  22817388.1544   22817395.5334
      3141.2024       2447.6864
  23765505.9954  -10829193.75447  -7851459.03245  23765503.8674   23765509.1994
      4063.7134       3166.5264
 00  7 16  0 40 29.9990000  0  5G20G11G25G 1G16
  21239201.2944  -30073387.75248 -23151851.87947  21239198.7874   21239203.3074
      3237.9154       2523.0544
  21154958.5574  -34787302.90349 -26777415.06047  21154956.3224   21154960.5684
      -937.7714       -730.7314
  20794626.4864  -31334486.01649 -24387257.17547  20794624.2484   20794628.3534
      -178.6654       -139.2184
  22799481.2564  -18415815.66648 -14034532.96546  22799479.2164   22799486.2274
      3137.5384       2444.8304
  23742317.0604  -10951049.80947  -7946411.72145  23742315.1264   23742320.9614
      4064.6464       3167.2514
 00  7 16  0 40 59.9990000  0  5G20G11G25G 1G16
  21220749.8054  -30170352.41348 -23227408.83747  21220747.5004   21220751.5144
      3230.4594       2517.2434
  21160366.5944  -34758883.11349 -26755269.76747  21160364.3794   21160368.8064
      -952.8394       -742.4724
  20795700.2434  -31328840.04049 -24382857.70647  20795698.2774   20795703.0034
      -193.6344       -150.8844
  22781596.0894  -18509806.82748 -14107772.70546  22781593.7744   22781600.0094
      3132.6684       2441.0354
  23719126.4984  -11072920.51047  -8041375.83745  23719123.9514   23719129.3504
      4064.2194       3166.9254
