     2              OBSERVATION DATA                        RINEX VERSION / TYPE
ASHCAN V.  1.90     SOPAC / SCIGN       20000119 20:18:07UTCPGM / RUN BY / DATE
                                                            COMMENT
     SCIGN - Southern California Integrated GPS Network     COMMENT
                                                            COMMENT
      SOPAC - Scripps Orbit and Permanent Array Center      COMMENT
    IGPP - Institute of Geophysics and Planetary Physics    COMMENT
         SIO - Scripps Institution of Oceanography          COMMENT
        UCSD - University of California, San Diego          COMMENT
                                                            COMMENT
                email: archive@lox.ucsd.edu                 COMMENT
                    ftp://lox.ucsd.edu                      COMMENT
                    http://lox.ucsd.edu                     COMMENT
                                                            COMMENT
DHLG DURMID_HILL__                                          MARKER NAME
PFJ                 SOPAC / SCIGN                           OBSERVER / AGENCY
LP02767             ASHTECH Z-XII3      CC00      1D02      REC # / TYPE / VERS
CR12656             ASH700936D_M    SNOW                    ANT # / TYPE
 -2319099.1300 -4799846.5600  3490090.4600                  APPROX POSITION XYZ
        0.1214        0.0000        0.0000                  ANTENNA: DELTA H/E/N
     1     1                                                WAVELENGTH FACT L1/2
     5    L1    L2    C1    P1    P2                        # / TYPES OF OBSERV
  2000     1     6     0     0   30.000000                  TIME OF FIRST OBS
  2000     1     6    23    59   30.000000                  TIME OF LAST OBS
    30                                                      INTERVAL
                                                            END OF HEADER
 00  1  6  0  0 30.0000000  0  9  2 24  7 26 16  8  4  9  5           .000000000
 -19076129.674 9 -14839016.00148  22000142.670    22000142.0294   22000150.2574
 -11308087.404 9  -8486658.27346  23008072.538    23008072.1344   23008082.4284
 -16769998.538 9 -13049188.16748  21374344.884    21374344.1904   21374351.8574
  -1888826.103 9  -1447212.36046  24373948.777    24373948.8374   24373958.7084
  -1154044.939 9   -515279.68244          .000            .0004   25334852.1654
 -23646132.415 9 -18411079.01949  20382715.463    20382714.9004   20382722.1444
 -21971635.098 9 -17093709.38048  20827378.400    20827378.5164   20827385.7034
 -20869515.073 9 -15946927.12148  21782876.248    21782876.0194   21782883.6154
  -5430945.965 8  -4213004.85545  24360911.067    24360910.3934   24360921.2954
 00  1  6  0  1  0.0000000  0  9  2 24  7 26 16  8  4  9  5           .000000041
 -19033991.038 9 -14806180.70348  22008161.393    22008160.7674   22008168.9954
 -11412230.205 9  -8567808.26146  22988254.621    22988254.2934   22988264.5434
 -16718529.237 9 -13009082.21948  21384139.155    21384138.4694   21384146.1064
  -1816175.397 9  -1390601.49946  24387773.789    24387773.9054   24387783.8054
  -1213100.006 9   -561296.62045  25323599.385    25323598.3184   25323608.4654
 -23588749.227 9 -18366364.85049  20393635.126    20393634.5414   20393641.7954
 -22028227.703 9 -17137807.45548  20816609.095    20816609.2324   20816616.3994
 -20925601.476 9 -15990630.75248  21772203.302    21772203.0784   21772210.6854
  -5514351.713 8  -4277996.05045  24345039.307    24345038.7314   24345049.4534
 00  1  6  0  1 30.0000000  0  9  2 24  7 26 16  8  4  9  5           .000000005
 -18991603.264 9 -14773151.27748  22016227.528    22016226.9134   22016235.1284
 -11516202.312 9  -8648825.25346  22968469.270    22968468.9104   22968479.0944
 -16666849.100 9 -12968811.98548  21393973.586    21393972.8714   21393980.5224
  -1743409.475 9  -1333900.85845  24401620.760    24401620.8194   24401630.6594
  -1271942.772 8   -607148.01246  25312402.004    25312401.2194   25312412.2284
 -23530796.448 9 -18321206.84349  20404663.150    20404662.5764   20404669.8294
 -22084241.917 9 -17181454.83948  20805949.892    20805950.0414   20805957.1874
 -20981173.534 9 -16033933.59848  21761628.205    21761627.9994   21761635.5894
  -5597737.072 9  -4342971.33845  24329171.459    24329170.8864   24329181.7184
 00  1  6  0  2  0.0000000  0  9  2 24  7 26 16  8  4  9  5          -.000000029
 -18948948.558 9 -14739913.85548  22024344.419    22024343.8144   22024352.0754
 -11619974.250 9  -8729686.24046  22948721.930    22948721.6314   22948731.8444
 -16614959.307 9 -12928378.38348  21403847.856    21403847.1854   21403854.8554
  -1670528.591 9  -1277110.62645  24415489.569    24415489.6394   24415499.4724
  -1330588.140 8   -652845.59845  25301242.159    25301241.2454   25301252.6044
 -23472267.515 9 -18275599.88549  20415800.861    20415800.2864   20415807.5324
 -22139676.247 9 -17224650.37148  20795401.054    20795401.1934   20795408.3144
 -21036220.834 9 -16076827.54748  21751153.033    21751152.7904   21751160.4144
  -5681092.706 9  -4407923.45546  24313309.304    24313308.7574   24313319.6264
 00  1  6  0  2 30.0000000  0  9  2 24  7 26 16  8  4  9  5          -.000000044
 -18906004.525 9 -14706450.97248  22032516.415    22032515.8174   22032524.0594
 -11723519.803 9  -8810370.84146  22929017.706    22929017.4424   22929027.6114
 -16562897.906 9 -12887811.05248  21413754.814    21413754.1374   21413761.7964
  -1597533.806 8  -1220231.64845  24429380.040    24429380.1024   24429390.0224
  -1389048.094 8   -698398.72345  25290117.509    25290117.0564   25290127.9894
 -23413176.440 9 -18229554.89149  20427045.496    20427044.9214   20427052.1674
 -22194546.030 9 -17267405.98848  20784959.658    20784959.7924   20784966.9074
 -21090749.885 9 -16119317.66148  21740776.475    21740776.2344   21740783.8274
  -5764432.863 9  -4472863.52446  24297450.080    24297449.5364   24297460.3544
 00  1  6  0  3  0.0000000  0  9  2 24  7 26 16  8  4  9  5          -.000000038
 -18862777.786 9 -14672767.80048  22040742.200    22040741.5924   22040749.8244
 -11826842.195 9  -8890881.56746  22909355.935    22909355.6644   22909365.8204
 -16510692.126 9 -12847131.22648  21423689.277    21423688.6094   21423696.2484
  -1524446.798 8  -1163280.80645  24443288.010    24443288.0934   24443298.0334
  -1447332.026 8   -743814.73145  25279026.344    25279025.7954   25279036.9674
 -23353552.368 9 -18183094.57849  20438391.533    20438390.9764   20438398.2364
 -22248895.473 9 -17309756.15348  20774617.271    20774617.4224   20774624.5324
 -21144779.725 9 -16161418.78948  21730494.890    21730494.6624   21730502.2154
  -5847778.220 9  -4537807.64446  24281589.849    24281589.2364   24281600.0914
 00  1  6  0  3 30.0000000  0  9  2 24  7 26 16  8  4  9  5          -.000000025
 -18819273.932 9 -14638868.69648  22049020.703    22049020.1214   22049028.3614
 -11929956.708 9  -8971230.30146  22889733.710    22889733.4384   22889743.5734
 -16458362.771 9 -12806355.10148  21433647.201    21433646.5054   21433654.1634
  -1451298.083 8  -1106281.89345  24457207.805    24457207.7584   24457217.9434
  -1505462.593 7   -789111.13445  25267964.392    25267963.8534   25267974.6144
 -23293412.854 9 -18136232.61949  20449835.740    20449835.1744   20449842.4254
 -22302744.060 9 -17351716.03648  20764370.209    20764370.3364   20764377.4604
 -21198331.352 9 -16203147.27648  21720304.349    21720304.1164   21720311.6684
  -5931164.200 9  -4602783.41646  24265721.833    24265721.2414   24265732.0394
 00  1  6  0  4  0.0000000  0  9  2 24  7 26 16  8  4  9  5          -.000000013
 -18775484.195 9 -14604746.82948  22057353.645    22057353.0324   22057361.2814
 -12032876.401 9  -9051427.26847  22870148.556    22870148.3074   22870158.3424
 -16405911.338 9 -12765483.85548  21443628.324    21443627.6664   21443635.3574
  -1378109.380 8  -1049251.82545  24471135.212    24471135.1644   24471145.3264
  -1563435.575 7   -834284.68245  25256932.154    25256931.7704   25256942.7664
 -23232767.401 9 -18088976.42549  20461376.200    20461375.6344   20461382.8994
 -22356082.610 9 -17393278.49548  20754220.209    20754220.3424   20754227.4424
 -21251429.317 9 -16244522.27148  21710200.086    21710199.8514   21710207.3544
  -6014620.919 9  -4667814.33946  24249840.296    24249839.7264   24249850.4694
 00  1  6  0  4 30.0000000  0  9  2 24  7 26 16  8  4  9  5          -.000000009
 -18731414.965 9 -14570407.17348  22065739.735    22065739.1264   22065747.3794
 -12135613.582 9  -9131482.02047  22850598.158    22850597.9114   22850607.8614
 -16353324.478 9 -12724507.08248  21453635.288    21453634.6084   21453642.3154
  -1304889.419 8   -992197.40645  24485068.575    24485068.5804   24485078.6594
  -1621233.965 7   -879322.27945  25245933.342    25245932.9034   25245944.0494
 -23171623.463 9 -18041331.79949  20473011.517    20473010.9394   20473018.2154
 -22408911.886 9 -17434444.11348  20744167.088    20744167.2224   20744174.3054
 -21304073.622 9 -16285543.76048  21700182.176    21700181.9374   21700189.4354
  -6098154.230 9  -4732904.98046  24233944.270    24233943.7004   24233954.3674
 00  1  6  0  5  0.0000000  0  9  2 24  7 26 16  8  4  9  5          -.000000020
 -18687079.400 9 -14535859.99248  22074176.528    22074175.9264   22074184.1624
 -12238175.870 9  -9211400.50747  22831080.997    22831080.7824   22831090.6434
 -16300575.985 9 -12683404.36448  21463672.966    21463672.2994   21463679.9774
  -1231639.147 8   -935119.37045  24499007.617    24499007.7104   24499017.6304
  -1678857.481 7   -924223.62944  25234967.835    25234967.5764   25234978.7694
 -23109976.562 9 -17993295.26049  20484742.515    20484741.9384   20484749.2144
 -22461220.488 9 -17475204.01948  20734213.048    20734213.1734   20734220.2384
 -21356255.501 9 -16326204.91848  21690252.272    21690252.0414   21690259.5344
  -6181752.720 9  -4798046.43446  24218035.825    24218035.2144   24218045.8324
 00  1  6  0  5 30.0000000  0  9  2 24  7 26 16  8  4  9  5          -.000000047
 -18642482.916 9 -14501109.49047  22082662.978    22082662.3614   22082670.5614
 -12340554.654 9  -9291176.02646  22811598.859    22811598.6304   22811608.3514
 -16247638.829 9 -12642154.63048  21473746.608    21473745.9354   21473753.6204
  -1158348.832 8   -878010.11145  24512954.278    24512954.4754   24512964.3604
  -1736288.097 7   -968974.63744  25224039.194    25224038.7614   25224049.6254
 -23047806.387 9 -17944850.96949  20496573.085    20496572.5084   20496579.7634
 -22512981.022 9 -17515536.85548  20724363.270    20724363.4124   20724370.4744
 -21407977.637 9 -16366507.82348  21680409.872    21680409.6254   21680417.0894
  -6265403.116 9  -4863228.37346  24202117.475    24202116.8044   24202127.3474
 00  1  6  0  6  0.0000000  0  9  2 24  7 26 16  8  4  9  5          -.000000078
 -18597628.922 9 -14466158.33847  22091198.409    22091197.7824   22091205.9824
 -12442722.861 9  -9370787.49346  22792156.752    22792156.5294   22792166.1714
 -16194500.198 9 -12600747.90948  21483858.516    21483857.8454   21483865.5754
  -1084995.705 8   -820851.92645  24526912.948    24526913.1414   24526923.1844
  -1793490.403 7  -1013547.75554  25213154.162    25213153.3774           .0005
 -22985102.060 9 -17895990.46049  20508505.334    20508504.7574   20508512.0194
 -22564186.884 9 -17555437.48148  20714619.094    20714619.2384   20714626.3014
 -21459218.411 9 -16406435.66048  21670659.045    21670658.8154   21670666.2434
  -6349073.806 9  -4928426.15346  24186195.265    24186194.6664   24186205.0844
 00  1  6  0  6 30.0000000  0  9  2 24  7 26 16  8  4  9  5          -.000000102
 -18552525.849 9 -14431013.09647  22099781.271    22099780.6304   22099788.8594
 -12544672.197 9  -9450228.42546  22772756.306    22772756.0994   22772765.6424
 -16141181.281 9 -12559200.70048  21494004.772    21494004.1014   21494011.8414
  -1011565.525 8   -763633.69445  24540886.315    24540886.5384   24540896.6684
  -1850460.59716  -1057939.75354  25202313.174    25202313.4415           .0005
 -22921864.890 9 -17846714.74549  20520538.998    20520538.4174   20520545.6694
 -22614839.009 9 -17594906.62048  20704980.295    20704980.4304   20704987.4674
 -21509966.913 9 -16445979.89648  21661001.896    21661001.6714   21661009.0684
  -6432731.026 9  -4993613.47445  24170275.670    24170275.0474   24170285.3224
 00  1  6  0  7  0.0000000  0  9  2 24  7 26 16  8  4  9  5          -.000000115
 -18507166.367 9 -14395668.05747  22108412.884    22108412.2644   22108420.4964
 -12646415.226 9  -9529508.61546  22753395.144    22753394.9034   22753404.3904
 -16087698.139 9 -12517525.52848  21504182.249    21504181.5954   21504189.3284
   -938052.328 9   -706350.79445  24554875.550    24554875.6934   24554885.9164
  -1907211.657 7  -1102161.03354  25191513.591    25191513.7724           .0005
 -22858104.178 9 -17797031.07649  20532672.289    20532671.7074   20532678.9514
 -22664935.225 9 -17633942.58748  20695447.296    20695447.4304   20695454.4434
 -21560226.790 9 -16485143.38448  21651437.745    21651437.5124   21651444.8844
  -6516370.813 9  -5058787.24445  24154359.388    24154358.8264   24154368.9524
 00  1  6  0  7 30.0000000  0  9  2 24  7 26 16  8  4  9  5          -.000000111
 -18461542.405 9 -14360116.92447  22117094.856    22117094.2144   22117102.4434
 -12747959.514 9  -9608633.95946  22734071.824    22734071.5904   22734081.0294
 -16034067.709 9 -12475735.58648  21514387.800    21514387.1304   21514394.8444
   -864468.170 9   -649012.57745  24568878.246    24568878.2804   24568888.5854
  -1963726.477 7  -1146198.49254  25180758.479    25180757.9754           .0005
 -22793833.769 9 -17746950.24249  20544902.560    20544901.9904   20544909.2034
 -22714477.126 9 -17672546.62048  20686019.755    20686019.8874   20686026.8844
 -21610007.264 9 -16523933.32048  21641964.825    21641964.6004   21641971.9264
  -6599999.722 9  -5123952.58845  24138445.227    24138444.6934   24138454.7474
 00  1  6  0  8  0.0000000  0  9  2 24  7 26 16  8  4  9  5          -.000000091
 -18415639.968 9 -14324348.80947  22125829.775    22125829.1374   22125837.3584
 -12849318.305 9  -9687614.78047  22714783.791    22714783.5934   22714793.0274
 -15980327.511 9 -12433860.11448  21524614.258    21524613.5804   21524621.2504
   -790832.051 9   -591633.86845  24582890.741    24582890.9084   24582901.1224
  -2020019.674 8  -1190063.27244  25170045.985    25170045.3224   25170057.8294
 -22729077.463 9 -17696490.79049  20557225.272    20557224.6804   20557231.8994
 -22763471.453 9 -17710723.97048  20676696.417    20676696.5414   20676703.5224
 -21659306.196 9 -16562348.02848  21632583.505    21632583.2744   21632590.5914
  -6683622.787 9  -5189113.37845  24122532.191    24122531.6384   24122541.6824
 00  1  6  0  8 30.0000000  0  9  2 24  7 26 16  8  4  9  5          -.000000059
 -18369449.643 9 -14288356.36147  22134619.518    22134618.8824   22134627.1124
 -12950518.058 9  -9766471.68247  22695526.022    22695525.8354   22695535.2044
 -15926481.587 9 -12391902.25748  21534860.780    21534860.0974   21534867.8034
   -717167.807 9   -534233.26246  24596908.751    24596908.9344   24596919.2204
  -2076114.510 8  -1233773.42344  25159371.255    25159371.2704   25159382.4194
 -22663845.637 9 -17645660.79749  20569638.409    20569637.8364   20569645.0794
 -22811914.494 9 -17748471.74948  20667477.987    20667478.1034   20667485.0764
 -21708140.894 9 -16600400.99548  21623290.541    21623290.3284   21623297.6054
  -6767259.796 9  -5254285.02345  24106616.527    24106616.0874   24106625.9854
 00  1  6  0  9  0.0000000  0  9  2 24  7 26 16  8  4  9  5          -.000000023
 -18322974.595 9 -14252142.05247  22143463.421    22143462.7604   22143471.0004
 -13051542.921 9  -9845192.32947  22676301.550    22676301.3334   22676310.7174
 -15872515.489 9 -12349850.75448  21545130.206    21545129.5074   21545137.2444
   -643490.520 9   -476822.48246  24610929.213    24610929.4084   24610939.6784
  -2132002.627 8  -1277322.47544  25148735.792    25148735.5654   25148746.6294
 -22598148.065 9 -17594467.88749  20582140.227    20582139.6414   20582146.8984
 -22859819.483 9 -17785800.26748  20658361.908    20658362.0244   20658368.9754
 -21756511.861 9 -16638092.61348  21614085.770    21614085.5604   21614092.8084
  -6850937.783 8  -5319488.58945  24090693.048    24090692.5304   24090702.5414
 00  1  6  0  9 30.0000000  0  9  2 24  7 26 16  8  4  9  5           .000000006
 -18276227.714 9 -14215715.92747  22152359.056    22152358.4114   22152366.6854
 -13152367.605 9  -9923756.97947  22657115.166    22657114.9564   22657124.3714
 -15818425.849 9 -12307702.98948  21555423.125    21555422.4524   21555430.1944
   -569819.753 9   -419416.80946  24624948.438    24624948.5534   24624958.8844
  -2187692.900 8  -1320717.41654  25138138.134    25138137.4204           .0005
 -22531976.995 9 -17542906.02149  20594732.143    20594731.5844   20594738.8284
 -22907194.302 9 -17822715.66348  20649346.722    20649346.8454   20649353.7794
 -21804410.886 9 -16675416.48648  21604970.859    21604970.6504   21604977.8994
  -6934662.870 9  -5384728.82145  24074760.550    24074760.1114   24074770.0854
 00  1  6  0 10  0.0000000  0  9  2 24  7 26 16  8  4  9  5           .000000027
 -18229222.328 9 -14179088.36447  22161303.888    22161303.2494   22161311.5094
 -13252982.536 9 -10002158.21447  22637968.766    22637968.5614   22637977.9604
 -15764196.646 9 -12265446.47648  21565742.608    21565741.9274   21565749.6314
   -496145.532 9   -362008.41346  24638968.258    24638968.3274   24638978.6954
  -2243199.680 8  -1363969.37444  25127575.537    25127574.6934   25127586.4684
 -22465325.071 9 -17490969.46249  20607415.619    20607415.0534   20607422.3004
 -22954050.241 9 -17859226.74248  20640430.300    20640430.4274   20640437.3234
 -21851822.986 9 -16712360.93648  21595948.623    21595948.3964   21595955.6324
  -7018420.565 8  -5449994.45045  24058821.861    24058821.3064   24058831.2954
 00  1  6  0 10 30.0000000  0  9  2 24  7 26 16  8  4  9  5           .000000031
 -18181982.799 9 -14142278.34947  22170293.291    22170292.6564   22170300.9114
 -13353369.750 9 -10080381.99047  22618865.694    22618865.4754   22618874.9264
 -15709809.109 9 -12223066.58648  21576092.226    21576091.5334   21576099.2314
   -422462.672 9   -304593.30146  24652989.703    24652989.8204   24653000.1784
  -2298524.365 8  -1407079.34354  25117047.536    25117046.5304   25117057.4325
 -22398179.558 9 -17438648.29049  20620192.985    20620192.4084   20620199.6544
 -23000390.440 9 -17895335.94448  20631612.033    20631612.1624   20631619.0344
 -21898728.420 9 -16748910.58248  21587022.756    21587022.5354   21587029.7754
  -7102200.787 8  -5515277.60345  24042878.928    24042878.3724   24042888.2754
 00  1  6  0 11  0.0000000  0  9  2 24  7 26 16  8  4  9  5           .000000017
 -18134513.451 9 -14105289.26047  22179326.429    22179325.7924   22179334.0314
 -13453507.323 9 -10158411.24547  22599810.153    22599809.9274   22599819.3564
 -15655264.708 9 -12180564.46448  21586471.680    21586470.9974   21586478.6764
   -348762.385 9   -247164.60846  24667014.533    24667014.6814   24667024.9524
  -2353654.993 8  -1450038.21144  25106556.429    25106555.9614   25106565.5934
 -22330538.064 9 -17385940.63749  20633064.759    20633064.1674   20633071.3974
 -23046205.277 9 -17931035.77148  20622893.724    20622893.8584   20622900.7154
 -21945107.139 9 -16785049.79948  21578197.126    21578196.8954   21578204.1174
  -7185993.932 8  -5580570.79745  24026933.495    24026932.9814   24026942.8694
 00  1  6  0 11 30.0000000  0  9  2 24  7 26 16  8  4  9  5          -.000000006
 -18086803.068 9 -14068112.34347  22188405.393    22188404.7774   22188412.9934
 -13553399.716 9 -10236249.43147  22580801.211    22580800.9874   22580810.4164
 -15600561.886 9 -12137938.90248  21596881.296    21596880.6114   21596888.2674
   -275034.130 9   -189714.12846  24681044.674    24681044.7784   24681055.0934
  -2408595.617 8  -1492849.00944  25096101.488    25096100.7814   25096110.9194
 -22262396.562 9 -17332843.36948  20646031.631    20646031.0604   20646038.2924
 -23091466.144 9 -17966303.93549  20614280.825    20614280.9604   20614287.8044
 -21990954.940 9 -16820775.31948  21569472.591    21569472.3754   21569479.5684
  -7269779.915 8  -5645858.36845  24010989.434    24010988.9294   24010998.7674
 00  1  6  0 12  0.0000000  0  9  2 24  7 26 16  8  4  9  5          -.000000029
 -18038836.074 9 -14030735.47847  22197533.256    22197532.6284   22197540.8624
 -13653052.561 9 -10313900.94547  22561837.884    22561837.6454   22561847.0904
 -15545713.018 9 -12095199.53648  21607318.704    21607318.0354   21607325.6804
   -201271.917 9   -132237.19446  24695081.220    24695081.4014   24695091.7214
  -2463330.570 9  -1535499.41844  25085685.695    25085684.8624   25085694.8544
 -22193769.736 9 -17279367.92448  20659090.918    20659090.3394   20659097.5894
 -23136159.139 9 -18001129.60049  20605775.994    20605776.1184   20605782.9534
 -22036283.288 9 -16856096.07148  21560846.842    21560846.6174   21560853.7974
  -7353563.582 9  -5711144.15145  23995045.868    23995045.3464   23995055.1394
 00  1  6  0 12 30.0000000  0  9  2 24  7 26 16  8  4  9  5          -.000000049
 -17990590.454 9 -13993141.50247  22206714.127    22206713.4924   22206721.7224
 -13752460.010 9 -10391361.22347  22542921.226    22542921.0304   22542930.4064
 -15490731.164 9 -12052356.53948  21617781.422    21617780.7424   21617788.4134
   -127490.049 8    -74744.92545  24709121.529    24709121.7714   24709132.1114
  -2517839.179 9  -1577973.47545  25075312.982    25075312.1124   25075321.9874
 -22124672.922 9 -17225526.25548  20672239.599    20672238.9974   20672246.2544
 -23180265.480 9 -18035498.13549  20597382.786    20597382.9284   20597389.7424
 -22081102.732 9 -16891020.27148  21552317.938    21552317.7314   21552324.9014
  -7437368.938 9  -5776446.83245  23979098.160    23979097.6274   23979107.3284
 00  1  6  0 13  0.0000000  0  9  2 24  7 26 16  8  4  9  5          -.000000061
 -17942059.108 9 -13955324.87747  22215949.304    22215948.6594   22215956.9234
 -13851634.016 9 -10468639.58747  22524048.989    22524048.7954   22524058.1794
 -15435619.320 9 -12009412.25548  21628268.848    21628268.1814   21628275.8404
    -53688.749 8    -17237.53245  24723165.522    24723165.7484   24723176.0504
  -2572105.848 9  -1620259.12345  25064986.275    25064985.6724   25064995.6614
 -22055120.580 9 -17171329.63148  20685474.937    20685474.3544   20685481.6304
 -23223778.970 9 -18069404.70949  20589102.423    20589102.5614   20589109.3504
 -22125436.488 9 -16925566.01448  21543881.462    21543881.2514   21543888.4144
  -7521208.269 9  -5841775.99146  23963143.955    23963143.4314   23963153.0844
 00  1  6  0 13 30.0000000  0  9  2 24  7 26 16  8  4  9  5          -.000000064
 -17893248.117 9 -13917290.35147  22225237.692    22225237.0794   22225245.3464
 -13950578.174 9 -10545738.84247  22505220.516    22505220.2804   22505229.7304
 -15380383.315 9 -11966371.22548  21638779.911    21638779.2654   21638786.9104
     20119.866 8     40275.55445  24737210.932    24737211.0654   24737221.3164
  -2626128.822 9  -1662354.79245  25054705.900    25054705.2994   25054715.5934
 -21985106.813 9 -17116773.45548  20698798.160    20698797.5714   20698804.8374
 -23266706.790 9 -18102854.91849  20580933.505    20580933.6364   20580940.4034
 -22169294.442 9 -16959741.00648  21535535.565    21535535.3394   21535542.4834
  -7605067.279 9  -5907120.46046  23947185.934    23947185.4294   23947195.1134
 00  1  6  0 14  0.0000000  0  9  2 24  7 26 16  8  4  9  5          -.000000074
 -17844163.188 9 -13879042.36647  22234578.270    22234577.6224   22234585.9004
 -14049304.876 9 -10622668.63347  22486433.393    22486433.1474   22486442.5654
 -15325018.966 9 -11923230.18448  21649315.460    21649314.7814   21649322.4264
     93924.883 8     97785.84545  24751255.620    24751255.7924   24751266.2154
  -2679880.703 9  -1704239.23745  25044477.158    25044476.5804   25044486.8574
 -21914616.308 9 -17061845.79348  20712212.046    20712211.4444   20712218.7234
 -23309057.880 9 -18135855.72649  20572874.326    20572874.4654   20572881.2144
 -22212659.348 9 -16993531.79448  21527283.449    21527283.2224   21527290.3664
  -7688942.387 9  -5972477.48246  23931224.904    23931224.3694   23931234.0904
 00  1  6  0 14 30.0000000  0  9  2 24  7 26 16  8  4  9  5          -.000000087
 -17794810.383 9 -13840585.64547  22243969.814    22243969.1614   22243977.4264
 -14147805.537 9 -10699422.29147  22467689.260    22467689.0434   22467698.4114
 -15269510.705 9 -11879977.01048  21659878.388    21659877.6794   21659885.3094
    167737.541 8    155302.07345  24765301.661    24765302.0394   24765312.4454
  -2733349.430 9  -1745903.05345  25034302.242    25034301.5444   25034311.9744
 -21843631.939 9 -17006533.31048  20725719.888    20725719.3234   20725726.5944
 -23350826.029 9 -18168402.29949  20564926.081    20564926.2084   20564932.9364
 -22255507.833 9 -17026920.18848  21519129.630    21519129.4074   21519136.5244
  -7772803.235 9  -6037823.40646  23915266.614    23915266.0864   23915275.7804
 00  1  6  0 15  0.0000000  0  9  2 24  7 26 16  8  4  9  5          -.000000106
 -17745200.552 9 -13801928.64447  22253410.262    22253409.6054   22253417.8804
 -14246065.719 9 -10775988.55047  22448990.889    22448990.6774   22449000.0244
 -15213849.793 9 -11836604.87648  21670470.284    21670469.5964   21670477.2764
    241565.033 8    212829.86845  24779350.628    24779350.8324   24779361.3914
  -2786519.096 9  -1787333.82945  25024184.306    25024183.7094   25024194.0154
 -21772132.111 9 -16950819.16148  20739325.904    20739325.3444   20739332.6074
 -23392003.184 9 -18200488.35249  20557090.321    20557090.4434   20557097.1924
 -22297826.236 9 -17059895.52748  21511076.673    21511076.4424   21511083.6014
  -7856622.365 9  -6103136.83446  23899316.224    23899315.7584   23899325.3944
 00  1  6  0 15 30.0000000  0  9  2 24  7 26 16  8  4  9  5          -.000000124
 -17695310.341 9 -13763053.17747  22262904.097    22262903.4334   22262911.6884
 -14344063.443 9 -10852350.30447  22430342.533    22430342.2974   22430351.6024
 -15158039.107 9 -11793116.04148  21681090.619    21681089.9444   21681097.6444
    315396.602 8    270360.85145  24793400.416    24793400.5764   24793411.1724
  -2839387.708 9  -1828530.01145  25014123.649    25014122.9934   25014133.2924
 -21700108.150 9 -16894696.60448  20753031.616    20753031.0554   20753038.3194
 -23432598.735 9 -18232121.21549  20549365.200    20549365.3314   20549372.0744
 -22339604.648 9 -17092450.10648  21503126.452    21503126.2364   21503133.3884
  -7940405.362 9  -6168422.12146  23883372.719    23883372.2264   23883381.8314
 00  1  6  0 16  0.0000000  0  9  2 24  7 26 16  8  4  9  5          -.000000132
 -17645122.705 9 -13723945.94247  22272454.517    22272453.8614   22272462.0724
 -14441789.103 9 -10928500.05847  22411745.869    22411745.6514   22411754.9154
 -15102091.553 9 -11749520.54748  21691737.073    21691736.4034   21691744.0924
    389240.035 8    327901.05845  24807452.339    24807452.4994   24807463.2084
  -2891956.068 9  -1869492.25645  25004120.087    25004119.3984   25004129.8064
 -21627583.396 9 -16838183.81348  20766832.659    20766832.0814   20766839.3494
 -23472618.851 9 -18263305.67949  20541749.527    20541749.6734   20541756.4134
 -22380843.283 9 -17124584.07148  21495278.924    21495278.6984   21495285.8484
  -8024179.317 9  -6233700.37146  23867430.973    23867430.4724   23867440.0344
 00  1  6  0 16 30.0000000  0  9  2 24  7 26 16  8  4  9  5          -.000000125
 -17594641.968 9 -13684610.31847  22282060.718    22282060.0614   22282068.2714
 -14539228.307 9 -11004426.60547  22393203.792    22393203.5384   22393212.7424
 -15046031.847 9 -11705837.66448  21702404.875    21702404.1884   21702411.8724
    463086.142 8    385443.34645  24821504.920    24821505.0194   24821515.6594
  -2944264.199 9  -1910251.71945  24994165.998    24994165.4104   24994175.8624
 -21554590.567 9 -16781306.29348  20780722.712    20780722.1554   20780729.4154
 -23512072.446 9 -18294048.70749  20534241.768    20534241.9204   20534248.6324
 -22421578.931 9 -17156326.10648  21487527.123    21487526.8954   21487534.0734
  -8107968.883 9  -6298990.78646  23851486.270    23851485.7804   23851495.2314
 00  1  6  0 17  0.0000000  0  9  2 24  7 26 16  8  4  9  5          -.000000115
 -17543869.144 9 -13645047.09547  22291722.519    22291721.8424   22291730.0634
 -14636394.737 9 -11080140.59647  22374713.502    22374713.2794   22374722.4494
 -14989876.694 9 -11662080.40548  21713090.801    21713090.1404   21713097.8194
    536913.881 8    442971.35545  24835553.914    24835553.9144   24835564.7074
  -2996335.973 9  -1950827.02745  24984256.959    24984256.3304   24984266.8924
 -21481140.116 9 -16724072.18648  20794699.891    20794699.3294   20794706.5904
 -23550974.325 9 -18324361.82249  20526838.964    20526839.0854   20526845.7974
 -22461822.742 9 -17187684.88748  21479868.918    21479868.6864   21479875.8694
  -8191806.575 9  -6364318.73046  23835532.366    23835531.8454   23835541.2924
 00  1  6  0 17 30.0000000  0  9  2 24  7 26 16  8  4  9  5          -.000000100
 -17492793.248 9 -13605247.71547  22301441.993    22301441.2934   22301449.4774
 -14733309.443 9 -11155658.45647  22356271.146    22356270.9264   22356280.0374
 -14933639.789 9 -11618259.44348  21723792.387    21723791.7124   21723799.4104
    610719.642 8    500482.22245  24849598.715    24849598.2714   24849609.6394
  -3048195.584 8  -1991236.97945  24974388.369    24974387.7024   24974398.1904
 -21407253.369 9 -16666498.10948  20808760.051    20808759.4964   20808766.7524
 -23589337.245 9 -18354254.97049  20519538.689    20519538.8194   20519545.5254
 -22501574.770 9 -17218660.46248  21472304.341    21472304.1234   21472311.2724
  -8275708.349 9  -6429696.60546  23819566.299    23819565.7484   23819575.2484
 00  1  6  0 18  0.0000000  0  9  2 24  7 26 16  8  4  9  5          -.000000087
 -17441445.223 9 -13565236.28247  22311213.178    22311212.4594   22311220.6604
 -14829997.684 9 -11230999.84547  22337871.918    22337871.7134   22337880.8364
 -14877317.162 9 -11574371.67948  21734510.271    21734509.6024   21734517.2844
    684507.618 8    557979.23045  24863640.195    24863639.8604   24863650.9824
  -3099851.653 8  -2031488.30845  24964558.552    24964557.7374   24964568.3094
 -21332943.288 9 -16608594.15948  20822900.776    20822900.2164   20822907.4664
 -23627138.911 9 -18383710.77549  20512345.232    20512345.3594   20512352.0734
 -22540836.324 9 -17249253.85148  21464833.123    21464832.8954   21464840.0354
  -8359649.795 9  -6495105.39446  23803592.629    23803592.0464   23803601.5974
 00  1  6  0 18 30.0000000  0  9  2 24  7 26 16  8  4  9  5          -.000000083
 -17389838.430 9 -13525023.21147  22321033.618    22321032.9214   22321041.1704
 -14926463.507 9 -11306167.93147  22319514.967    22319514.7714   22319523.8724
 -14820882.580 9 -11530396.67748  21745249.422    21745248.7484   21745256.4634
    758271.143 8    615457.19145  24877677.115    24877676.7324   24877687.8524
  -3151285.254 8  -2071566.36145  24954771.034    24954770.2324   24954780.6294
 -21258188.837 9 -16550343.95248  20837126.078    20837125.5284   20837132.7834
 -23664363.264 9 -18412716.72849  20505261.600    20505261.7334   20505268.4574
 -22579592.353 9 -17279453.33048  21457458.127    21457457.8914   21457465.0064
  -8443603.519 9  -6560523.75846  23787616.604    23787616.0564   23787625.4754
 00  1  6  0 19  0.0000000  0  9  2 24  7 26 16  8  4  9  5          -.000000082
 -17337964.480 9 -13484601.97447  22330904.919    22330904.2064   22330912.4374
 -15022697.416 9 -11381155.29647  22301202.209    22301201.9994   22301211.1074
 -14764315.859 9 -11486318.71348  21756013.659    21756012.9864   21756020.7164
    832014.846 8    672919.68945  24891710.192    24891709.9474   24891720.9884
  -3202453.146 8  -2111437.30345  24945034.085    24945033.3534   24945043.5974
 -21182975.973 9 -16491736.53848  20851438.613    20851438.0604   20851445.3364
 -23701002.321 9 -18441266.60649  20498289.387    20498289.5294   20498296.2434
 -22617813.459 9 -17309235.98348  21450184.877    21450184.6564   21450191.7474
  -8527541.676 9  -6625929.98746  23771643.550    23771642.9944   23771652.4924
 00  1  6  0 19 30.0000000  0  9  2 24  7 26 16  8  4  9  5          -.000000074
 -17285828.937 9 -13443976.89247  22340825.954    22340825.3084   22340833.5384
 -15118680.073 9 -11455946.88847  22282937.254    22282937.0544   22282946.1154
 -14707601.853 9 -11442125.97148  21766805.909    21766805.2344   21766813.0104
    905738.477 8    730366.53645  24905739.428    24905739.2854   24905750.1954
  -3253337.765 8  -2151087.56245  24935350.945    24935350.2174   24935360.4654
 -21107320.723 9 -16432784.40548  20865835.339    20865834.7834   20865842.0634
 -23737049.327 9 -18469355.14449  20491429.865    20491429.9984   20491436.7214
 -22655505.054 9 -17338606.03048  21443012.408    21443012.1924   21443019.2644
  -8611445.668 9  -6691309.59546  23755677.033    23755676.4984   23755685.9484
 00  1  6  0 20  0.0000000  0  9  2 24  7 26 16  8  4  9  5          -.000000060
 -17233449.334 9 -13403161.64547  22350793.445    22350792.8184   22350801.0534
 -15214392.879 9 -11530528.21147  22264723.653    22264723.4334   22264732.4694
 -14650737.187 9 -11397815.83948  21777626.886    21777626.2334   21777634.0054
    979426.505 9    787785.65545  24919761.915    24919761.9074   24919772.5064
  -3303921.677 8  -2190503.48645  24925725.100    24925724.3604   24925734.3164
 -21031221.405 9 -16373486.25248  20880316.584    20880316.0284   20880323.3184
 -23772514.878 9 -18496990.60449  20484680.996    20484681.1204   20484687.8244
 -22692679.023 9 -17367572.73148  21435938.432    21435938.2194   21435945.2524
  -8695306.645 9  -6756655.68446  23739718.700    23739718.0954   23739727.6484
 00  1  6  0 20 30.0000000  0  9  2 24  7 26 16  8  4  9  5          -.000000044
 -17180813.472 9 -13362146.70547  22360809.734    22360809.1044   22360817.3584
 -15309819.953 9 -11604886.86747  22246564.396    22246564.2044   22246573.1814
 -14593739.663 9 -11353402.17648  21788473.195    21788472.5444   21788480.2994
   1053070.354 9    845170.34945  24933776.056    24933776.0254   24933786.7184
  -3354201.317 8  -2229682.31945  24916156.981    24916156.3844   24916166.3374
 -20954683.305 9 -16313846.18748  20894881.316    20894880.7654   20894888.0484
 -23807429.200 9 -18524196.53249  20478037.007    20478037.1304   20478043.8244
 -22729335.166 9 -17396135.93248  21428962.963    21428962.7284   21428969.7834
  -8779161.981 9  -6821997.36646  23723761.453    23723760.8824   23723770.3654
 00  1  6  0 21  0.0000000  0  9  2 24  7 26 16  8  4  9  5          -.000000027
 -17127921.155 9 -13320931.93847  22370874.782    22370874.1564   22370882.4044
 -15404962.916 9 -11679024.14447  22228459.174    22228458.9884   22228467.9964
 -14536626.503 9 -11308898.40448  21799341.535    21799340.8604   21799348.5904
   1126662.992 9    902515.12345  24947780.423    24947780.4514   24947791.1494
  -3404194.927 8  -2268638.26145  24906643.180    24906642.7014   24906652.7144
 -20877722.564 9 -16253876.79248  20909526.467    20909525.9164   20909533.1974
 -23841802.878 9 -18550981.17949  20471495.848    20471495.9884   20471502.6684
 -22765487.642 9 -17424306.66348  21422083.346    21422083.1014   21422090.1654
  -8863031.991 9  -6887350.48646  23707801.424    23707800.8514   23707810.2904
 00  1  6  0 21 30.0000000  0  9  2 24  7 26 16  8  4  9  5          -.000000024
 -17074772.997 9 -13279517.80947  22380988.568    22380987.9444   22380996.2054
 -15499832.867 9 -11752948.67747  22210405.944    22210405.7364   22210414.7034
 -14479410.287 9 -11264314.33448  21810229.417    21810228.7234   21810236.4704
   1200192.136 9    959810.42245  24961772.558    24961772.5454   24961783.5524
  -3453918.338 8  -2307383.65145  24897180.766    24897180.3514   24897190.4394
 -20800340.698 9 -16193579.24848  20924251.750    20924251.1824   20924258.4754
 -23875630.415 9 -18577340.26649  20465058.674    20465058.8054   20465065.4854
 -22801135.573 9 -17452084.24748  21415299.734    21415299.4974   21415306.5414
  -8946935.598 9  -6952729.78746  23691835.021    23691834.4254   23691843.8034
 00  1  6  0 22  0.0000000  0  9  2 24  7 26 16  8  4  9  5          -.000000041
 -17021350.292 9 -13237889.74247  22391154.551    22391153.9574   22391162.2264
 -15594436.213 9 -11826665.46447  22192403.474    22192403.2794   22192412.2344
 -14422106.318 9 -11219661.87948  21821134.031    21821133.3444   21821141.0844
   1273668.737 9   1017064.77245  24975754.757    24975754.7444   24975765.9154
  -3503356.201 8  -2345906.57945  24887772.866    24887772.4744   24887782.6424
 -20722503.590 9 -16132926.96848  20939063.719    20939063.1184   20939070.4334
 -23908894.264 9 -18603260.11749  20458728.735    20458728.8674   20458735.5344
 -22836257.399 9 -17479451.87448  21408616.276    21408616.0534   21408623.0534
  -9030877.094 9  -7018138.62846  23675861.353    23675860.7434   23675870.0834
 00  1  6  0 22 30.0000000  0  9  2 24  7 26 16  8  4  9  5           .000000037
 -16967665.552 9 -13196057.50547  22401370.444    22401369.8344   22401378.1064
 -15688805.773 9 -11900200.06847  22174445.489    22174445.2714   22174454.2094
 -14364741.701 9 -11174962.17048  21832050.140    21832049.4374   21832057.1644
   1347070.148 8   1074260.51345  24989722.735    24989722.6854   24989733.9744
  -3552542.831 7  -2384233.70645  24878413.036    24878412.5444   24878422.8324
 -20644230.503 9 -16071934.96648  20953958.593    20953958.0174   20953965.3184
 -23941590.644 9 -18628737.78649  20452506.823    20452506.9444   20452513.5984
 -22870867.020 9 -17506420.38748  21402030.301    21402030.0734   21402037.0424
  -9114883.922 9  -7083598.36746  23659875.273    23659874.6704   23659883.9734
 00  1  6  0 23  0.0000000  0  9  2 24  7 26 16  8  4  9  5          -.000000035
 -16913677.299 9 -13153988.76047  22411644.126    22411643.4924   22411651.7724
 -15782904.125 9 -11973523.35147  22156539.100    22156538.8574   22156547.7874
 -14307278.983 9 -11130186.01948  21842984.922    21842984.2374   21842991.9424
   1420424.087 8   1131419.28245  25003681.575    25003681.6114   25003692.8654
  -3601449.848 7  -2422342.93945  24869106.400    24869105.6564   24869116.6714
 -20565486.286 9 -16010575.85148  20968943.127    20968942.5734   20968949.8474
 -23973657.149 9 -18653724.64249  20446404.729    20446404.8684   20446411.5104
 -22904932.405 9 -17532964.81548  21395547.856    21395547.6114   21395554.5814
  -9198886.544 9  -7149054.82946  23643890.005    23643889.4164   23643898.6014
 00  1  6  0 23 30.0000000  0  9  2 24  7 26 16  8  4  9  5          -.000000092
 -16859350.108 9 -13111655.89847  22421982.242    22421981.6254   22421989.8834
 -15876686.140 9 -12046600.12947  22138692.876    22138692.6424   22138701.5474
 -14249687.950 9 -11085309.87748  21853944.127    21853943.4404   21853951.1594
   1493776.546 8   1188576.86445  25017640.161    25017640.1084   25017651.6104
  -3650029.170 7  -2460196.82845  24859862.250    24859861.3264   24859871.7764
 -20486230.453 9 -15948818.07148  20984025.047    20984024.4524   20984031.7404
 -24005048.505 9 -18678185.41649  20440431.138    20440431.2644   20440437.9044
 -22938417.212 9 -17559056.84348  21389175.865    21389175.6324   21389182.6014
  -9282835.326 9  -7214469.33646  23627915.031    23627914.4464   23627923.5794
 00  1  6  0 24  0.0000000  0  9  2 24  7 26 16  8  4  9  5          -.000000122
 -16804701.093 9 -13069072.27347  22432381.637    22432381.0364   22432389.2844
 -15970142.521 9 -12119423.15647  22120908.595    22120908.3744   22120917.3114
 -14191970.095 9 -11040334.91748  21864927.442    21864926.7864   21864934.4294
   1567135.549 8   1245739.56345  25031600.015    25031599.9944   25031611.4874
  -3698283.123 7  -2497797.14145  24850679.919    24850678.9534   24850689.2534
 -20406478.525 9 -15886673.72548  20999201.321    20999200.7564   20999208.0354
 -24035776.109 9 -18702128.98049  20434583.861    20434583.9824   20434590.5984
 -22971336.266 9 -17584708.02848  21382911.566    21382911.3284   21382918.2584
  -9366718.019 9  -7279832.35346  23611952.627    23611952.0664   23611961.1394
 00  1  6  0 24 30.0000000  0  9  2 24  7 26 16  8  4  9  5          -.000000122
 -16749748.675 9 -13026252.22847  22442838.757    22442838.1664   22442846.4244
 -16063269.599 9 -12191989.58247  22103187.051    22103186.8234   22103195.7164
 -14134124.241 9 -10995260.21548  21875935.147    21875934.4964   21875942.1244
   1640482.354 8   1302892.74045  25045557.568    25045557.6204   25045569.0664
  -3746225.444 8  -2535154.62645  24841556.539    24841555.7094   24841565.6904
 -20326277.761 9 -15824179.63848  21014463.034    21014462.4604   21014469.7704
 -24065859.614 9 -18725570.65049  20428859.146    20428859.2854   20428865.8754
 -23003704.807 9 -17609930.24048  21376752.008    21376751.7734   21376758.7254
  -9450543.431 9  -7345150.73246  23596001.117    23596000.5394   23596009.5904
 00  1  6  0 25  0.0000000  0  9  2 24  7 26 16  8  4  9  5          -.000000101
 -16694515.250 9 -12983213.21647  22453349.352    22453348.7304   22453356.9734
 -16156068.398 9 -12264300.19847  22085527.953    22085527.7184   22085536.5784
 -14076170.723 9 -10950101.62448  21886963.320    21886962.6614   21886970.3174
   1713811.819 8   1360032.39745  25059511.811    25059511.7314   25059523.3004
  -3793841.023 8  -2572257.55145  24832495.404    24832494.9414   24832504.8024
 -20245654.306 9 -15761356.18348  21029805.159    21029804.5894   21029811.9054
 -24095322.778 9 -18748528.94149  20423252.452    20423252.5864   20423259.1724
 -23035529.378 9 -17634728.58048  21370695.986    21370695.7454   21370702.6894
  -9534325.352 9  -7410435.22646  23580057.865    23580057.2664   23580066.2634
 00  1  6  0 25 30.0000000  0  9  2 24  7 26 16  8  4  9  5          -.000000081
 -16639018.929 9 -12939969.35147  22463909.947    22463909.2894   22463917.5994
 -16248543.529 9 -12336358.60447  22067930.456    22067930.2204   22067939.0364
 -14018110.632 9 -10904859.98948  21898011.833    21898011.1524   21898018.7914
   1787111.741 8   1417149.02945  25073460.442    25073460.4044   25073471.7834
  -3841119.135 8  -2609097.49645  24823498.461    24823498.1704   24823507.8614
 -20164610.314 9 -15698205.03448  21045227.307    21045226.7334   21045234.0724
 -24124183.927 9 -18771018.12949  20417760.334    20417760.4794   20417767.0674
 -23066795.912 9 -17659092.08748  21364746.082    21364745.8644   21364752.8064
  -9618084.008 9  -7475701.58846  23564119.033    23564118.4504   23564127.4724
 00  1  6  0 26  0.0000000  0  9  2 24  7 26 16  8  4  9  5          -.000000066
 -16583253.522 9 -12896515.80647  22474521.739    22474521.1124   22474529.4004
 -16340691.120 9 -12408161.78347  22050395.254    22050395.0294   22050403.8094
 -13959944.302 9 -10859535.57148  21909080.508    21909079.8204   21909087.4264
   1860363.265 8   1474227.96745  25087399.894    25087399.7354   25087411.2894
  -3888058.808 8  -2645673.74845  24814566.025    24814565.7844   24814575.6324
 -20083155.279 9 -15634733.59448  21060727.695    21060727.1324   21060734.4714
 -24152443.887 9 -18793038.86549  20412382.618    20412382.7524   20412389.3404
 -23097489.573 9 -17683009.20348  21358905.279    21358905.0584   21358911.9944
  -9701824.901 9  -7540954.11746  23548183.568    23548182.9824   23548191.9284
 00  1  6  0 26 30.0000000  0  9  2 24  7 26 16  8  4  9  5          -.000000065
 -16527207.982 9 -12852843.97547  22485186.873    22485186.2394   22485194.5864
 -16432511.902 9 -12479710.30747  22032922.213    22032922.0064   22032930.7514
 -13901669.530 9 -10814126.65248  21920169.790    21920169.1134   21920176.7674
   1933559.543 8   1531263.82245  25101328.550    25101328.4924   25101340.3954
  -3934654.457 8  -2681981.92145  24805699.034    24805698.6034   24805708.6324
 -20001283.315 9 -15570937.27548  21076307.424    21076306.8564   21076314.1974
 -24180093.231 9 -18814583.79949  20407121.137    20407121.2544   20407127.8324
 -23127595.356 9 -17706468.22948  21353176.386    21353176.1444   21353183.0584
  -9785551.931 9  -7606195.82646  23532250.742    23532250.1634   23532259.0574
 00  1  6  0 27  0.0000000  0  9  2 24  7 26 16  8  4  9  5          -.000000068
 -16470877.232 9 -12808949.89447  22495906.293    22495905.6684   22495913.9824
 -16524005.522 9 -12551003.89747  22015511.425    22015511.2094   22015519.9124
 -13843284.625 9 -10768631.91948  21931280.063    21931279.3914   21931287.0274
   2006700.568 8   1588256.60445  25115246.959    25115246.8174   25115258.8054
  -3980908.999 8  -2718024.30845  24796896.949    24796896.6264   24796906.6494
 -19918972.344 9 -15506798.86748  21091970.702    21091970.1334   21091977.4654
 -24207135.394 9 -18835655.60249  20401975.182    20401975.2974   20401981.8734
 -23157110.128 9 -17729466.72748  21347559.884    21347559.6424   21347566.5594
  -9869250.837 9  -7671415.63146  23516323.289    23516322.6994   23516331.5624
 00  1  6  0 27 30.0000000  0  9  2 24  7 26 16  8  4  9  5          -.000000062
 -16414254.438 9 -12764828.25247  22506681.240    22506680.6094   22506688.9644
 -16615175.932 9 -12622045.65047  21998162.096    21998161.9004   21998170.6054
 -13784783.335 9 -10723046.49448  21942412.486    21942411.8044   21942419.4764
   2079772.840 8   1645195.81445  25129152.368    25129152.3104   25129164.1864
  -4026844.337 8  -2753817.97645  24788155.771    24788155.3874   24788165.2074
 -19836229.250 9 -15442323.74348  21107716.226    21107715.6624   21107722.9574
 -24233586.266 9 -18856266.66149  20396941.712    20396941.8414   20396948.4074
 -23186050.556 9 -17752017.68548  21342052.650    21342052.4354   21342059.3774
  -9952921.276 9  -7736613.25546  23500401.240    23500400.6814   23500409.4764
 00  1  6  0 28  0.0000000  0  9  2 24  7 26 16  8  4  9  5          -.000000043
 -16357345.857 9 -12720483.91147  22517510.638    22517509.9924   22517518.3774
 -16706038.688 9 -12692847.67847  21980871.395    21980871.2004   21980879.8544
 -13726181.455 9 -10677382.68648  21953564.070    21953563.3744   21953571.0264
   2152770.416 8   1702076.84645  25143043.379    25143043.3734   25143055.3924
  -4072469.254 8  -2789369.80345  24779473.576    24779473.2084   24779482.8304
 -19753079.486 9 -15377531.73048  21123539.119    21123538.5484   21123545.8354
 -24259457.929 9 -18876426.38349  20392018.518    20392018.6494   20392025.2204
 -23214450.517 9 -17774147.50148  21336648.288    21336648.0864   21336655.0014
 -10036574.866 9  -7801797.75146  23484482.452    23484481.8824   23484490.6564
 00  1  6  0 28 30.0000000  0  9  2 24  7 26 16  8  4  9  5          -.000000013
 -16300158.935 9 -12675922.68047  22528392.984    22528392.3684   22528400.7084
 -16796606.859 9 -12763420.15747  21963636.756    21963636.5414   21963645.2004
 -13667478.924 9 -10631640.44748  21964734.777    21964734.0714   21964741.7344
   2225695.450 8   1758901.36145  25156920.745    25156920.7764   25156932.8214
  -4117789.439 8  -2824684.14645  24770849.379    24770849.1684   24770858.6164
 -19669531.613 9 -15312429.50448  21139437.796    21139437.2224   21139444.4744
 -24284761.588 9 -18896143.50549  20387203.364    20387203.4834   20387210.0404
 -23242337.838 9 -17795877.85048  21331341.501    21331341.2804   21331348.1964
 -10120220.572 9  -7866976.10746  23468565.101    23468564.5414   23468573.3074
 00  1  6  0 29  0.0000000  0  9  2 24  7 26 16  8  4  9  5           .000000026
 -16242699.692 9 -12631149.25947  22539327.141    22539326.5294   22539334.8734
 -16886886.911 9 -12833768.14647  21946456.996    21946456.7654   21946465.3914
 -13608691.654 9 -10585832.17948  21975921.628    21975920.9464   21975928.5764
   2298527.762 8   1815653.58645  25170780.571    25170780.5814   25170792.5814
  -4162803.860 8  -2859760.22245  24762283.400    24762283.0294   24762292.4994
 -19585611.163 9 -15247036.95648  21155407.323    21155406.7374   21155414.0004
 -24309506.933 9 -18915425.57749  20382494.516    20382494.6434   20382501.1734
 -23269731.141 9 -17817223.25848  21326128.702    21326128.4684   21326135.4064
 -10203875.548 9  -7932161.68646  23452645.933    23452645.3524   23452654.1954
 00  1  6  0 29 30.0000000  0  9  2 24  7 26 16  8  4  9  5           .000000059
 -16184974.783 9 -12586168.81947  22550311.808    22550311.2144   22550319.5574
 -16976876.391 9 -12903889.72047  21929332.498    21929332.2604   21929340.8364
 -13549820.558 9 -10539958.59448  21987124.408    21987123.7314   21987131.3364
   2371263.998 8   1872330.94945  25184622.028    25184622.0484   25184633.9784
  -4207504.332 8  -2894591.71245  24753777.100    24753776.7174   24753786.2274
 -19501325.573 9 -15181359.88348  21171446.316    21171445.7634   21171452.9984
 -24333686.927 9 -18934267.11249  20377893.218    20377893.3184   20377899.8784
 -23296633.593 9 -17838186.18648  21321009.300    21321009.0934   21321016.0054
 -10287551.387 9  -7997363.52646  23436722.828    23436722.3254   23436731.1084
 00  1  6  0 30  0.0000000  0  9  2 24  7 26 16  8  4  9  5           .000000068
 -16126989.261 9 -12540985.31047  22561346.099    22561345.4864   22561353.8854
 -17066565.975 9 -12973777.62447  21912265.071    21912264.8154   21912273.3474
 -13490861.289 9 -10494016.29848  21998343.995    21998343.2844   21998350.8874
   2443909.120 8   1928937.31745  25198445.999    25198445.9194   25198457.8194
  -4251881.385 8  -2929171.17145  24745332.430    24745331.7934   24745341.4374
 -19416653.692 9 -15115381.80748  21187558.842    21187558.2894   21187565.5404
 -24357280.477 9 -18952651.67449  20373403.503    20373403.6164   20373410.1674
 -23323020.830 9 -17858747.65048  21315987.986    21315987.7894   21315994.6934
 -10371248.057 9  -8062581.60446  23420795.792    23420795.2714   23420804.0824
 00  1  6  0 30 30.0000000  0  9  2 24  7 26 16  8  4  9  5           .000000058
 -16068728.594 9 -12495587.40347  22572432.756    22572432.1214   22572440.5454
 -17155938.157 9 -13043418.20947  21895258.022    21895257.7594   21895266.2874
 -13431797.901 9 -10447992.87348  22009583.398    22009582.7034   22009590.3374
   2516465.422 8   1985474.53145  25212253.193    25212253.0904   25212264.8734
  -4295933.430 9  -2963497.35445  24736949.568    24736948.9664   24736958.7094
 -19331583.284 9 -15049093.19548  21203747.238    21203746.6724   21203753.9524
 -24380272.170 9 -18970567.25449  20369028.301    20369028.4354   20369034.9774
 -23348861.843 9 -17878883.48148  21311070.618    21311070.4034   21311077.2904
 -10454949.163 9  -8127803.15246  23404867.898    23404867.3984   23404876.1384
 00  1  6  0 31  0.0000000  0  9  2 24  7 26 16  8  4  9  5           .000000030
 -16010184.979 9 -12449969.01447  22583573.237    22583572.6084   22583580.9864
 -17244976.305 9 -13112798.51247  21878314.545    21878314.2784   21878322.8024
 -13372630.440 9 -10401888.34648  22020842.563    22020841.8884   22020849.5624
   2588927.411 8   2041938.25245  25226042.523    25226042.4834   25226053.7714
  -4339650.902 8  -2997562.86245  24728630.439    24728629.9064   24728639.5014
 -19246106.299 9 -14982487.76648  21220012.978    21220012.4114   21220019.7254
 -24402661.985 9 -18988013.83349  20364767.649    20364767.7654   20364774.3164
 -23374119.569 9 -17898564.80948  21306264.208    21306263.9704   21306270.8594
 -10538645.071 9  -8193020.66046  23388941.034    23388940.5234   23388949.2174
 00  1  6  0 31 30.0000000  0  9  2 24  7 26 16  8  4  9  5          -.000000008
 -15951365.568 9 -12404135.71647  22594766.253    22594765.5994   22594773.9784
 -17333675.574 9 -13181914.77147  21861435.580    21861435.3434   21861443.8254
 -13313357.607 9 -10355701.72048  22032121.775    22032121.1204   22032128.7704
   2661306.475 8   2098337.33745  25239815.986    25239816.2794   25239827.1664
  -4383031.592 8  -3031365.93145  24720375.277    24720374.6914   24720384.2604
 -19160206.417 9 -14915552.80948  21236359.201    21236358.6354   21236365.9524
 -24424446.139 9 -19004988.46649  20360622.228    20360622.3644   20360628.8984
 -23398788.459 9 -17917787.30148  21301569.813    21301569.5804   21301576.4664
 -10622315.589 9  -8258218.38346  23373019.065    23373018.4764   23373027.1314
 00  1  6  0 32  0.0000000  0  9  2 24  7 26 16  8  4  9  5          -.000000050
 -15892262.031 9 -12358081.03047  22606013.257    22606012.5934   22606020.9834
 -17422028.743 9 -13250761.33547  21844622.464    21844622.2234   21844630.6844
 -13253988.483 9 -10309440.05448  22043419.383    22043418.7094   22043426.3154
   2733602.597 8   2154671.80545  25253573.570    25253573.6344   25253584.9254
  -4426070.468 9  -3064902.58445  24712185.264    24712184.6814   24712194.1124
 -19073900.316 9 -14848301.31648  21252782.721    21252782.1554   21252789.4844
 -24445610.933 9 -19021480.47849  20356594.679    20356594.8034   20356601.3224
 -23422863.964 9 -17936547.41448  21296988.378    21296988.1524   21296995.0244
 -10705943.890 9  -8323383.20046  23357105.061    23357104.4734   23357113.1084
 00  1  6  0 32 30.0000000  0  9  2 24  7 26 16  8  4  9  5          -.000000075
 -15832864.640 9 -12311797.36147  22617316.191    22617315.5584   22617323.9354
 -17510030.150 9 -13319333.81547  21827876.299    21827876.0864   21827884.5324
 -13194532.819 9 -10263110.96248  22054733.478    22054732.7864   22054740.4054
   2805813.228 9   2210939.65645  25267315.023    25267315.1714   25267326.5604
  -4468753.724 9  -3098162.19145  24704062.905    24704062.3834   24704071.5954
 -18987209.190 9 -14780749.80348  21269279.468    21269278.9154   21269286.2684
 -24466161.319 9 -19037493.73349  20352684.082    20352684.2104   20352690.7084
 -23446356.530 9 -17954853.29548  21292517.886    21292517.6474   21292524.5014
 -10789517.910 9  -8388505.73246  23341201.351    23341200.7634   23341209.4084
 00  1  6  0 33  0.0000000  0  9  2 24  7 26 16  8  4  9  5          -.000000084
 -15773195.993 9 -12265302.33247  22628670.809    22628670.1284   22628678.5294
 -17597679.266 9 -13387631.78347  21811197.160    21811196.9424   21811205.3424
 -13135012.188 9 -10216731.24048  22066059.878    22066059.1854   22066066.8154
   2877935.987 8   2267139.01545  25281039.704    25281039.9394   25281051.3154
  -4511078.218 8  -3131142.22245  24696008.708    24696008.3704   24696017.4004
 -18900137.275 9 -14712901.57048  21285848.729    21285848.1844   21285855.4984
 -24486107.749 9 -19053036.36949  20348888.356    20348888.4884   20348894.9884
 -23469291.157 9 -17972724.41348  21288153.556    21288153.3184   21288160.1854
 -10873036.186 9  -8453584.81746  23325308.244    23325307.6864   23325316.2644
 00  1  6  0 33 30.0000000  0  9  2 24  7 26 16  8  4  9  5          -.000000072
 -15713266.732 9 -12218604.22947  22640074.962    22640074.3234   22640082.7194
 -17684982.782 9 -13455660.45147  21794583.799    21794583.5744   21794591.9284
 -13075435.558 9 -10170307.87948  22077396.905    22077396.2264   22077403.8794
   2949967.405 8   2323267.19145  25294747.002    25294747.1224   25294758.5814
  -4553053.124 9  -3163849.83245  24688021.113    24688020.6994   24688029.7084
 -18812694.906 9 -14644764.67448  21302488.434    21302487.8854   21302495.2234
 -24505446.520 9 -19068105.50349  20345208.280    20345208.4154   20345214.9134
 -23491703.130 9 -17990188.26848  21283888.742    21283888.5014   21283895.3504
 -10956491.599 9  -8518614.92046  23309427.104    23309426.5704   23309435.1444
 00  1  6  0 34  0.0000000  0  9  2 24  7 26 16  8  4  9  5          -.000000035
 -15653066.227 9 -12171694.76747  22651530.707    22651530.0824   22651538.4964
 -17771947.065 9 -13523424.78648  21778035.040    21778034.7904   21778043.1494
 -13015805.334 9 -10123842.75748  22088744.164    22088743.4814   22088751.1004
   3021895.655 8   2379314.97245  25308434.580    25308434.6564   25308446.1874
  -4594697.822 9  -3196300.15445  24680096.327    24680095.8954   24680104.4094
 -18724894.496 9 -14576348.78748  21319196.326    21319195.7684   21319203.1104
 -24524191.938 9 -19082712.28849  20341641.118    20341641.2454   20341647.7434
 -23513598.681 9 -18007249.72048  21279722.164    21279721.9154   21279728.7314
 -11039897.304 9  -8583606.30546  23293555.493    23293554.9384   23293563.4544
 00  1  6  0 34 30.0000000  0  9  2 24  7 26 16  8  4  9  5           .000000022
 -15592607.351 9 -12124583.98147  22663035.650    22663035.0374   22663043.4284
 -17858593.927 9 -13590941.78248  21761546.663    21761546.4154   21761554.7744
 -12956124.702 9 -10077338.35748  22100101.013    22100100.3094   22100107.9374
   3093702.617 8   2435268.25245  25322099.040    25322099.0264   25322110.8484
  -4636022.907 9  -3228501.41045  24672232.312    24672231.8694   24672240.3064
 -18636735.620 9 -14507653.57648  21335972.418    21335971.8444   21335979.1854
 -24542382.882 9 -19096887.01649  20338179.462    20338179.5914   20338186.0634
 -23535001.332 9 -18023927.09248  21275649.362    21275649.1154   21275655.9324
 -11123281.117 9  -8648580.62646  23277688.036    23277687.4724   23277695.9154
 00  1  6  0 35  0.0000000  0  9  2 24  7 26 16  8  4  9  5           .000000082
 -15531900.522 9 -12077279.97947  22674587.819    22674587.1804   22674595.5384
 -17944938.806 9 -13658223.45848  21745115.728    21745115.5104   21745123.8254
 -12896397.803 9 -10030797.90748  22111466.585    22111465.9014   22111473.5514
   3165374.445 8   2491116.24245  25335737.918    25335738.0434   25335749.8134
  -4677041.830 8  -3260464.14845  24664426.591    24664426.1834   24664434.6764
 -18548224.751 9 -14438684.08948  21352815.457    21352814.8944   21352822.2514
 -24560021.614 9 -19110631.45349  20334822.916    20334823.0354   20334829.4944
 -23555925.378 9 -18040231.52548  21271667.608    21271667.3814   21271674.1904
 -11206664.189 9  -8713554.35846  23261820.744    23261820.1774   23261828.6074
 00  1  6  0 35 30.0000000  0  9  2 24  7 26 16  8  4  9  5           .000000135
 -15470922.868 9 -12029764.95247  22686191.486    22686190.8374   22686199.2294
 -18030993.887 9 -13725279.31848  21728739.958    21728739.7174   21728748.0124
 -12836613.990 9  -9984213.10248  22122842.998    22122842.3454   22122850.0094
   3236898.759 8   2546849.24645  25349348.722    25349348.8014   25349360.5444
  -4717749.809 8  -3292184.56745  24656680.027    24656679.4364   24656688.0794
 -18459369.102 9 -14369445.93048  21369724.057    21369723.5094   21369730.8894
 -24577094.931 9 -19123935.30849  20331573.968    20331574.0844   20331580.5304
 -23576365.362 9 -18056158.76748  21267777.970    21267777.7244   21267784.5494
 -11290064.959 9  -8778541.88446  23245950.028    23245949.4244   23245957.8594
 00  1  6  0 36  0.0000000  0  9  2 24  7 26 16  8  4  9  5           .000000162
 -15409664.171 9 -11982030.92747  22697848.601    22697847.9774   22697856.3874
 -18116748.861 9 -13792101.32548  21712421.276    21712421.0444   21712429.3114
 -12776757.354 9  -9937571.55247  22134233.348    22134232.6404   22134240.3144
   3308269.873 8   2602462.86245  25362930.180    25362930.3494   25362942.5404
  -4758121.251 8  -3323642.74645  24648997.531    24648996.9954   24649005.7924
