     2.11           OBSERVATION DATA    G (GPS)             RINEX VERSION / TYPE
teqc  2012Jun6      gpsops              20120921 00:08:49UTCPGM / RUN BY / DATE
    30.0000                                                 INTERVAL
     1     1                                                WAVELENGTH FACT L1/2
     7    L1    L2    P1    P2    C1    S1    S2            # / TYPES OF OBSERV
Linux 2.4.21-27.ELsmp|Opteron|gcc -static|Linux x86_64|=+   COMMENT
     2.10           OBSERVATION DATA    GPS                 COMMENT
soc2rnx ver 1.20    gpsops              21-Sep-2012 00:08:49COMMENT
S1, if present, is the SNR for the C/A data stream on L1.   COMMENT
 SNR is mapped to RINEX snr flag value [1,4-9]              COMMENT
    SNR:   >316  >100  >31.6  >10  >3.2    >0 bad=0         COMMENT
L1 & L2:      9     8     7     6     5     4     1         COMMENT
GGN                 USNO                                    OBSERVER / AGENCY
KW-0201             AOAD/M_T        NONE                    ANT # / TYPE
 -1248596.2520 -4819428.2840  3976506.0340                  APPROX POSITION XYZ
        0.0000        0.0000        0.0000                  ANTENNA: DELTA H/E/N
RT920013101         ASHTECH Z-XII3T     IL01-1D04-MCF-12MX  REC # / TYPE / VERS
AMC2                                                        MARKER NAME
40472S004                                                   MARKER NUMBER
                                                            COMMENT
This data is provided as a public service by NASA/JPL.      COMMENT
No warranty is expressed or implied regarding suitability   COMMENT
for use.  For further information, contact:                 COMMENT
Dave Stowers, NASA/JPL m/s 238-600                          COMMENT
4800 Oak Grove Drive, Pasadena CA 91109 USA                 COMMENT
                                                            COMMENT
Forced Modulo Decimation to 30 seconds                      COMMENT
  2012     9    20     0     0    0.0000000     GPS         TIME OF FIRST OBS
                                                            END OF HEADER
 12  9 20  0  0  0.0000000  0  9G05G30G12G25G21G26G15G02G29
 111012537.21748  86503277.54548  21124981.8904   21124983.3004   21124981.7864
       234.000         191.000
 128782894.66848 100350281.01048  24506591.3794   24506596.1784   24506591.8014
       210.000         136.000
 126123246.54848  98277827.37848  24000476.6484   24000482.7314   24000476.5244
       213.000         152.000
 117042505.63448  91201914.08748  22272479.6324   22272485.0854   22272479.5274
       225.000         170.000
 123080616.07448  95906963.00048  23421472.1504   23421473.8994   23421472.4254
       213.000         148.000
 120878810.84948  94191278.25748  23002473.3194   23002478.1154   23002473.2854
       217.000         153.000
 125074507.40348  97460630.80848  23800905.1314   23800910.2374   23800905.2514
       212.000         147.000
 120358756.46948  93786046.15548  22903508.7984   22903510.0154   22903508.9474
       220.000         161.000
 106860967.74948  83268283.87248  20334968.0214   20334969.3044   20334968.1204
       240.000         207.000
 12  9 20  0  0 30.0000000  0  9G05G30G12G25G21G26G15G02G29
 111069546.46748  86547700.34248  21135830.4604   21135831.7494   21135830.1464
       234.000         191.000
 128722171.89048 100302964.65948  24495036.8734   24495041.5944   24495036.5284
       205.000         136.000
 126230691.93248  98361550.88248  24020923.2864   24020929.3804   24020922.6634
       214.000         152.000
 117118010.58648  91260749.04448  22286847.4094   22286853.1684   22286847.6214
       224.000         170.000
 123017022.93548  95857410.05848  23409370.2484   23409372.9934   23409371.2454
       213.000         148.000
 120792627.44148  94124122.48348  22986072.8064   22986077.0614   22986073.1534
       214.000         153.000
 124975052.24448  97383133.43148  23781979.7014   23781984.7214   23781979.5114
       211.000         147.000
 120428474.87048  93840372.15348  22916775.6314   22916777.3454   22916775.9794
       220.000         161.000
 106830593.04248  83244615.30648  20329188.0054   20329189.0784   20329187.8594
       240.000         207.000
 12  9 20  0  1  0.0000000  0  9G05G30G12G25G21G26G15G02G29
 111126976.33648  86592450.89448  21146759.1354   21146760.2144   21146758.8154
       234.000         191.000
 128661952.90548 100256040.89548  24483575.6584   24483582.2594   24483576.9064
       207.000         134.000
 126338174.51548  98445303.36848  24041376.3064   24041382.1374   24041376.2914
       214.000         152.000
 117193884.57748  91319871.57648  22301285.6974   22301291.6304   22301285.8934
       224.000         169.000
 122953498.98448  95807911.03548  23397281.3204   23397284.5444   23397282.7194
       212.000         147.000
 120706786.58848  94057233.63748  22969737.6184   22969742.2044   22969737.6804
       214.000         153.000
 124875666.59448  97305690.24948  23763067.0194   23763072.3194   23763066.7964
       213.000         149.000
 120498306.60248  93894786.45448  22930063.8664   22930065.3144   22930064.1054
       219.000         160.000
 106800636.31348  83221272.43348  20323487.3424   20323488.4264   20323487.1364
       240.000         207.000
 12  9 20  0  1 30.0000000  0  9G05G30G12G25G21G26G15G02G29
 111184824.17148  86637527.13548  21157767.1894   21157768.3724   21157766.9574
       233.000         191.000
 128602239.62848 100209511.17048  24472213.8914   24472218.5524   24472214.0864
       206.000         134.000
 126445691.45248  98529082.62048  24061836.0104   24061841.9554   24061835.9334
       214.000         151.000
 117270124.65048  91379279.37548  22315793.6294   22315799.7454   22315793.7304
       223.000         169.000
 122890044.18948  95758465.86648  23385206.4564   23385209.7024   23385206.8584
       212.000         149.000
 120621292.02848  93990614.62348  22953468.3134   22953472.7384   22953468.2974
       213.000         153.000
 124776353.10548  97228303.25648  23744168.4764   23744173.6564   23744167.9594
       214.000         150.000
 120568251.69548  93949289.09448  22943374.0244   22943375.3064   22943374.2794
       220.000         158.000
 106771099.32448  83198256.62948  20317866.6594   20317867.6254   20317866.4674
       240.000         207.000
 12  9 20  0  2  0.0000000  0  9G05G30G12G25G21G26G15G02G29
 111243087.78548  86682927.35448  21168854.3694   21168855.4894   21168854.0554
       234.000         191.000
 128543034.18148 100163377.15248  24460945.8524   24460951.6604   24460947.0654
       205.000         134.000
 126553239.99848  98612886.50148  24082302.2164   24082307.9674   24082302.1454
       214.000         152.000
 117346727.93648  91438970.18648  22330370.4944   22330377.0434   22330370.8264
       223.000         168.000
 122826658.47748  95709074.53948  23373144.8644   23373147.2784   23373144.7724
       213.000         148.000
 120536147.40248  93924268.28748  22937265.8454   22937270.3304   22937265.8054
       215.000         153.000
 124677114.92048  97150974.95648  23725284.1544   23725288.9574   23725283.5504
       215.000         153.000
 120638309.89948  94003879.85848  22956705.5424   22956707.0644   22956705.9894
       218.000         156.000
 106741983.67748  83175569.14548  20312326.0744   20312327.0034   20312326.0464
       240.000         207.000
 12  9 20  0  2 30.0000000  0  9G05G30G12G25G21G26G15G02G29
 111301765.12248  86728649.95748  21180020.2564   21180021.4444   21180019.9114
       234.000         190.000
 128484338.29648 100117640.19048  24449775.8024   24449780.4534   24449777.6184
       205.000         134.000
 126660817.19848  98696712.70748  24102773.4514   24102779.5034   24102773.5334
       215.000         150.000
 117423691.46048  91498941.70248  22345016.4134   22345022.9444   22345016.4824
       223.000         169.000
 122763341.96748  95659737.12648  23361096.1184   23361098.2364   23361096.4274
       214.000         148.000
 120451356.36948  93858197.48648  22921130.5274   22921134.7484   22921130.8094
       214.000         153.000
 124577955.00048  97073707.64348  23706414.5254   23706419.3674   23706414.5294
       216.000         155.000
 120708480.73548  94058558.40248  22970059.0154   22970059.8844   22970059.2174
       219.000         157.000
 106713290.85248  83153211.13148  20306865.9884   20306866.9364   20306865.8014
       240.000         207.000
 12  9 20  0  3  0.0000000  0 10G05G30G12G25G21G26G18G15G02G29
 111360853.81448  86774693.09748  21191264.4804   21191265.4494   21191264.1324
       233.000         190.000
 128426153.74248 100072301.66348  24438704.8364   24438709.9134   24438705.5704
       206.000         135.000
 126768420.44248  98780559.20148  24123250.1864   24123255.8014   24123249.8514
       212.000         148.000
 117501012.29848  91559191.65048  22359730.1784   22359736.6594   22359730.2484
       223.000         168.000
 122700094.31348  95610453.37248  23349060.0394   23349062.8254   23349061.1104
       213.000         148.000
 120366922.65148  93792405.11548  22905063.5254   22905067.1874   22905063.4174
       214.000         153.000
 129011346.23148 100528287.40848  24550069.1464   24550077.6524   24550070.0764
       198.000         130.000
 124478876.41348  96996503.69848  23687560.5774   23687565.0934   23687560.2884
       218.000         154.000
 120778764.26448  94113324.72648  22983433.2574   22983434.8474   22983433.7414
       218.000         157.000
 106685023.00348  83131184.26948  20301486.7864   20301487.7264   20301486.6124
       241.000         207.000
 12  9 20  0  3 30.0000000  0 10G05G30G12G25G21G26G18G15G02G29
 111420351.56448  86821054.98148  21202586.4894   21202587.4624   21202586.2964
       233.000         189.000
 128368482.31248 100027362.99048  24427731.0054   24427735.3944   24427731.6674
       207.000         136.000
 126876046.78248  98864423.71048  24143730.3404   24143736.5794   24143730.3924
       210.000         147.000
 117578687.47548  91619717.70848  22374511.5984   22374517.8024   22374511.7374
       222.000         168.000
 122636915.45048  95561223.21548  23337037.6554   23337040.0424   23337038.2144
       213.000         149.000
 120282849.85448  93726893.97948  22889064.4364   22889068.5254   22889064.8344
       216.000         153.000
 138913935.71558  90452387.27458  24531531.1375   24531537.8735   24531531.3595
       199.000         133.000
 124379882.54548  96919365.77848  23668722.7354   23668727.0814   23668722.4374
       217.000         158.000
 120849160.12248  94168178.60448  22996829.1324   22996830.3514   22996829.5424
       218.000         155.000
 106657181.24248  83109489.42648  20296188.5994   20296189.6494   20296188.4914
       240.000         208.000
 12  9 20  0  4  0.0000000  0 10G05G30G12G25G21G26G18G15G02G29
 111480256.10048  86867733.84948  21213986.0354   21213986.8794   21213985.7844
       233.000         189.000
 128311326.35748  99982825.97048  24416854.1874   24416859.2504   24416854.7074
       206.000         136.000
 126983693.28748  98948303.92448  24164214.6204   24164220.7204   24164214.8174
       210.000         145.000
 117656714.07048  91680517.57748  22389359.4164   22389366.0924   22389359.6564
       222.000         167.000
 122573805.42248  95512046.68548  23325027.9684   23325030.4164   23325028.9104
       213.000         149.000
 120199141.60348  93661666.91048  22873135.2804   22873139.5884   22873135.6274
       215.000         153.000
 138816636.29448  90376569.83048  24513014.8354   24513021.1584   24513015.5364
       203.000         135.000
 124280976.39648  96842296.20948  23649901.3924   23649905.5864   23649901.2134
       217.000         157.000
 120919668.28948  94223119.97848  23010246.2894   23010247.7434   23010246.7644
       218.000         156.000
 106629767.36248  83088127.99348  20290972.0244   20290972.9564   20290971.9164
       241.000         208.000
 12  9 20  0  4 30.0000000  0 10G05G30G12G25G21G26G18G15G02G29
 111540564.99548  86914727.80248  21225462.4864   21225463.2974   21225462.1844
       233.000         189.000
 128254687.16048  99938691.62148  24406076.3044   24406081.1774   24406076.6274
       208.000         136.000
 127091357.06248  99032197.58848  24184703.5054   24184708.7444   24184703.1624
       209.000         145.000
 117735089.02448  91741588.90348  22404273.7374   22404279.9424   22404273.8264
       221.000         166.000
 122510765.05048  95462924.44348  23313031.7584   23313034.5054   23313032.7394
       213.000         148.000
 120115801.45548  93596726.68248  22857276.1164   22857280.2634   22857276.5364
       214.000         154.000
 138719462.59348  90300850.31448  24494522.8534   24494530.6484   24494523.7384
       204.000         136.000
 124182160.68748  96765297.10848  23631096.8294   23631101.7444   23631096.7274
       218.000         159.000
 120990288.38248  94278148.58148  23023685.0254   23023686.3614   23023685.4674
       217.000         155.000
 106602783.00848  83067101.25848  20285837.0934   20285837.9394   20285837.0164
       241.000         208.000
 12  9 20  0  5  0.0000000  0 10G05G30G12G25G21G26G18G15G02G29
 111601275.72948  86962034.87548  21237015.3594   21237016.2184   21237015.0704
       233.000         189.000
 128198566.78548  99894961.54248  24395395.8324   24395401.7554   24395397.1224
       208.000         137.000
 127199035.13848  99116102.39348  24205193.4984   24205199.1114   24205193.5074
       208.000         143.000
 117813809.43748  91802929.42248  22419253.6644   22419259.8794   22419253.6354
       221.000         166.000
 122447793.04948  95413855.47948  23301048.2724   23301051.2014   23301048.6354
       210.000         149.000
 120032833.17748  93532076.23248  22841487.9114   22841492.0274   22841487.7374
       215.000         154.000
 138622415.85348  90225229.74148  24476054.0004   24476062.5074   24476056.0814
       204.000         136.000
 124083438.91548  96688371.23348  23612310.6504   23612315.1864   23612310.5484
       216.000         157.000
 121061019.98248  94333264.06248  23037144.5174   23037146.6464   23037145.0464
       217.000         156.000
 106576230.02048  83046410.64848  20280784.1304   20280784.9514   20280783.9814
       241.000         208.000
 12  9 20  0  5 30.0000000  0 10G05G30G12G25G21G26G18G15G02G29
 111662386.66948  87009653.79948  21248644.2304   21248645.2464   21248644.0514
       233.000         189.000
 128142967.01648  99851637.14348  24384816.1304   24384821.8724   24384816.8294
       208.000         137.000
 127306724.89348  99200016.30948  24225686.4794   24225692.1484   24225685.8294
       206.000         141.000
 117892872.31448  91864536.80248  22434298.9904   22434305.1124   22434299.1014
       222.000         166.000
 122384889.95748  95364840.21148  23289078.1074   23289081.1334   23289078.2484
       213.000         148.000
 119950240.30048  93467718.26948  22825770.4834   22825775.0734   22825770.4504
       215.000         153.000
 138525497.83948  90149709.46948  24457611.0124   24457619.1064   24457612.0134
       204.000         136.000
 123984813.59548  96611520.51048  23593542.9414   23593547.6434   23593542.5814
       217.000         157.000
 121131863.27448  94388466.58148  23050626.0344   23050627.7864   23050626.0764
       219.000         158.000
 106550109.67548  83026057.16448  20275813.5264   20275814.3374   20275813.3944
       241.000         208.000
 12  9 20  0  6  0.0000000  0 10G05G30G12G25G21G26G18G15G02G29
 111723894.80748  87057582.22448  21260348.8184   21260349.9584   21260348.4854
       233.000         189.000
 128087889.21548  99808719.47548  24374334.5304   24374340.1844   24374335.8574
       207.000         137.000
 127414423.75348  99283937.29148  24246180.7024   24246187.1064   24246180.8554
       206.000         140.000
 117972274.62148  91926408.67248  22449408.7724   22449415.0254   22449408.9034
       222.000         168.000
 122322055.96148  95315878.76248  23277120.9824   23277123.5224   23277121.8474
       214.000         149.000
 119868026.48648  93403655.69648  22810125.8364   22810130.0824   22810125.6644
       216.000         154.000
 138428709.75948  90074290.41748  24439192.9294   24439200.1684   24439193.8614
       205.000         137.000
 123886288.17948  96534747.64848  23574793.7534   23574798.4934   23574793.7834
       216.000         157.000
 121202817.67648  94443755.67948  23064128.2784   23064129.8194   23064128.9954
       218.000         157.000
 106524423.73548  83006042.18248  20270925.5724   20270926.5104   20270925.4264
       241.000         208.000
 12  9 20  0  6 30.0000000  0 10G05G30G12G25G21G26G18G15G02G29
 111785798.27048  87105818.69448  21272128.6494   21272129.7714   21272128.3724
       233.000         189.000
 128033335.82048  99766210.40848  24363953.7294   24363960.5114   24363954.6684
       210.000         139.000
 127522128.73948  99367863.09748  24266677.0144   24266681.6564   24266676.6164
       206.000         138.000
 118052013.38448  91988542.71248  22464582.9484   22464589.0744   22464583.0514
       223.000         167.000
 122259290.80148  95266970.96648  23265177.3884   23265179.7524   23265178.1724
       212.000         150.000
 119786195.37248  93339891.34548  22794553.5304   22794557.7254   22794553.5604
       215.000         155.000
 138332053.62248  89998974.18848  24420799.4024   24420806.7064   24420800.7024
       207.000         139.000
 123787865.79448  96458055.06148  23556064.7064   23556069.3864   23556064.3644
       215.000         156.000
 121273883.00748  94499131.19948  23077651.7414   23077652.7814   23077652.1424
       218.000         157.000
 106499173.80648  82986366.94648  20266120.6774   20266121.6324   20266120.4864
       241.000         208.000
 12  9 20  0  7  0.0000000  0 10G05G30G12G25G21G26G18G15G02G29
 111848094.84148  87154361.47348  21283983.3434   21283984.4604   21283982.9394
       232.000         190.000
 127979308.00848  99724110.90548  24353672.0364   24353678.1844   24353673.2444
       207.000         137.000
 127629837.08448  99451791.48948  24287171.8624   24287178.7044   24287172.8374
       205.000         139.000
 118132085.58948  92050936.56848  22479820.1984   22479826.5014   22479820.3784
       223.000         167.000
 122196594.53548  95218116.87148  23253246.6104   23253249.0094   23253246.8254
       214.000         149.000
 119704750.55048  93276427.98148  22779054.9944   22779059.0854   22779055.2064
       217.000         155.000
 138235530.36948  89923761.47948  24402432.7684   24402439.7044   24402432.8984
       211.000         139.000
 123689549.53148  96381445.17748  23537355.0764   23537359.8934   23537354.9024
       214.000         154.000
 121345059.22448  94554593.13948  23091195.9404   23091197.5994   23091196.5214
       216.000         156.000
 106474361.28648  82967032.54648  20261398.9624   20261399.9634   20261398.8474
       241.000         209.000
 12  9 20  0  7 30.0000000  0 10G05G30G12G25G21G26G18G15G02G29
 111910781.47548  87203208.20648  21295912.0144   21295913.3324   21295911.7634
       232.000         189.000
 127925807.71748  99682422.45348  24343492.0704   24343497.0344   24343492.2484
       206.000         137.000
 127737545.97348  99535720.32148  24307670.0304   24307674.7174   24307669.4634
       206.000         138.000
 118212488.23348  92113587.91648  22495120.5164   22495126.6664   22495120.6144
       221.000         167.000
 122133967.01448  95169316.32348  23241328.8914   23241331.3464   23241329.3424
       216.000         150.000
 119623695.65048  93213268.45648  22763631.0064   22763634.3004   22763631.0544
       217.000         155.000
 138139141.54548  89848653.50448  24384090.1764   24384096.5974   24384090.7054
       210.000         138.000
 123591342.62548  96304920.53448  23518666.7594   23518671.3064   23518666.9894
       212.000         154.000
 121416346.13148  94610141.33648  23104761.6824   23104763.0764   23104761.5834
       217.000         157.000
 106449987.79448  82948040.24848  20256760.8104   20256761.7264   20256760.7014
       241.000         209.000
 12  9 20  0  8  0.0000000  0 10G05G30G12G25G21G26G18G15G02G29
 111973856.17948  87252357.32148  21307914.6654   21307915.9724   21307914.4074
       232.000         189.000
 127872836.67848  99641146.42148  24333411.8914   24333416.6434   24333411.8554
       209.000         137.000
 127845252.62648  99619647.38448  24328165.6314   24328170.9484   24328165.3204
       206.000         138.000
 118293218.26148  92176494.37248  22510482.6424   22510489.2594   22510482.9094
       221.000         166.000
 122071408.23848  95120569.35348  23229424.2654   23229426.2324   23229425.2484
       215.000         151.000
 119543034.23648  93150415.54648  22748281.4594   22748284.6524   22748281.5284
       218.000         155.000
 138042889.03248  89773651.75348  24365774.2804   24365780.8364   24365774.1384
       208.000         138.000
 123493247.66848  96228483.10148  23499999.6024   23500003.8424   23499999.5704
       211.000         152.000
 121487743.47448  94665775.58948  23118347.8894   23118349.3664   23118348.3924
       217.000         157.000
 106426054.79148  82929391.18648  20252206.4934   20252207.4104   20252206.3624
       241.000         209.000
 12  9 20  0  8 30.0000000  0 10G05G30G12G25G21G26G18G15G02G29
 112037316.73548  87301807.10648  21319990.8874   21319992.0844   21319990.5874
       232.000         189.000
 127820396.20548  99600283.79148  24323433.1264   24323435.6614   24323433.4744
       209.000         138.000
 127952954.38948  99703570.65748  24348661.2154   24348666.8884   24348660.6714
       207.000         140.000
 118374272.68448  92239653.61048  22525906.4894   22525913.1844   22525906.7784
       221.000         165.000
 122008918.35748  95071876.06648  23217533.2844   23217534.9334   23217533.6624
       215.000         151.000
 119462769.87148  93087872.02248  22733007.7164   22733010.7114   22733007.5964
       219.000         154.000
 137946773.74448  89698756.94748  24347482.6414   24347490.9164   24347483.8114
       208.000         138.000
 123395267.95248  96152135.47948  23481354.6104   23481358.8754   23481354.2294
       210.000         153.000
 121559251.03448  94721495.71248  23131955.6324   23131957.2674   23131955.8094
       216.000         155.000
 106402564.00048  82911086.70548  20247736.3874   20247737.3024   20247736.2744
       241.000         209.000
 12  9 20  0  9  0.0000000  0 10G05G30G12G25G21G26G18G15G02G29
 112101160.61448  87351555.57648  21332140.0474   21332141.2734   21332139.7474
       233.000         189.000
 127768488.42548  99559836.26448  24313554.5524   24313560.3964   24313555.4894
       207.000         137.000
 128060647.91748  99787487.50148  24369154.2464   24369161.1004   24369154.3274
       210.000         141.000
 118455648.43448  92303063.22648  22541391.8014   22541398.4444   22541391.8894
       220.000         164.000
 121946497.66848  95023236.67148  23205654.2924   23205656.4424   23205655.0114
       216.000         151.000
 119382906.17448  93025640.69648  22717809.7494   22717812.9804   22717809.6984
       217.000         155.000
 137850797.15848  89623970.22848  24329218.5624   24329226.3114   24329220.0964
       209.000         138.000
 123297406.68348  96075880.14748  23462732.2564   23462736.1644   23462731.7734
       212.000         152.000
 121630868.41548  94777301.41548  23145583.9154   23145585.2544   23145584.4174
       215.000         155.000
 106379517.05248  82893128.07748  20243350.5954   20243351.4974   20243350.4884
       241.000         209.000
 12  9 20  0  9 30.0000000  0 10G05G30G12G25G21G26G18G15G02G29
 112165385.81148  87401601.18648  21344361.8204   21344363.0454   21344361.5744
       233.000         190.000
 127717114.45248  99519804.70048  24303778.4094   24303782.2744   24303779.1594
       209.000         137.000
 128168330.72548  99871396.01548  24389646.1624   24389652.6074   24389646.1934
       210.000         142.000
 118537342.48548  92366720.87448  22556937.8214   22556944.1774   22556937.9784
       221.000         164.000
 121884145.73048  94974650.86048  23193789.2474   23193791.3084   23193789.3194
       214.000         151.000
 119303446.70648  92963724.36748  22702688.8034   22702692.5994   22702688.7724
       217.000         158.000
 137754961.04148  89549292.93948  24310982.1374   24310989.9954   24310982.4514
       206.000         137.000
 123199666.95348  95999719.51048  23444132.2254   23444136.8244   23444132.2164
       210.000         153.000
 121702596.03048  94833193.01948  23159233.0584   23159234.9834   23159233.3544
       215.000         155.000
 106356915.45448  82875516.47048  20239049.6764   20239050.5004   20239049.5414
       241.000         209.000
 12  9 20  0 10  0.0000000  0 10G05G30G12G25G21G26G18G15G02G29
 112229989.74348  87451941.90848  21356655.5384   21356656.8194   21356655.2684
       233.000         191.000
 127666276.38148  99480190.70448  24294103.7774   24294108.7284   24294104.6634
       209.000         135.000
 128276000.21648  99955294.12448  24410135.4434   24410142.7964   24410134.8844
       210.000         143.000
 118619351.80648  92430624.17248  22572543.8614   22572550.3314   22572544.1804
       222.000         165.000
 121821862.66748  94926118.69248  23181936.6624   23181939.4604   23181937.2654
       216.000         151.000
 119224395.00448  92902125.77048  22687645.1884   22687649.3164   22687645.5514
       218.000         157.000
 137659267.21948  89474726.53948  24292771.2454   24292778.9404   24292771.9094
       206.000         136.000
 123102051.83148  95923655.95448  23425557.1534   23425561.5134   23425556.0234
       212.000         153.000
 121774433.24348  94889170.02848  23172903.1444   23172905.1514   23172903.9584
       215.000         153.000
 106334760.41648  82858252.83848  20234833.7594   20234834.5044   20234833.6084
       242.000         210.000
 12  9 20  0 10 30.0000000  0 10G05G30G12G25G21G26G18G15G02G29
 112294970.15948  87502575.99148  21369020.9354   21369022.1304   21369020.6114
       233.000         191.000
 127615975.32848  99440995.17148  24284532.2934   24284536.4604   24284532.6044
       207.000         136.000
 128383653.82848 100039179.89048  24430620.2314   24430628.0644   24430620.8374
       209.000         144.000
 118701673.30748  92494770.72548  22588209.3534   22588215.5034   22588209.8174
       221.000         165.000
 121759648.53748  94877640.25548  23170098.2464   23170099.6624   23170098.4604
       216.000         153.000
 119145754.66348  92840847.71348  22672680.8224   22672684.7154   22672680.7634
       217.000         159.000
 137563716.84148  89400271.89748  24274588.3424   24274595.1424   24274589.1054
       204.000         135.000
 123004564.50748  95847692.00548  23407004.9194   23407009.9244   23407005.0694
       212.000         153.000
 121846379.63448  94945232.11148  23186594.3094   23186596.0264   23186594.6874
       213.000         152.000
 106313053.56048  82841338.43548  20230703.0864   20230703.8274   20230702.9124
       242.000         210.000
 12  9 20  0 11  0.0000000  0 10G05G30G12G25G21G26G18G15G02G29
 112360324.52048  87553501.45948  21381457.4714   21381458.6694   21381457.1144
       234.000         190.000
 127566213.10348  99402219.50048  24275063.4154   24275068.3144   24275063.4854
       208.000         137.000
 128491288.13448 100123050.59948  24451102.4874   24451111.0784   24451102.7904
       207.000         142.000
 118784303.96148  92559158.16748  22603933.9204   22603939.5844   22603934.0904
       221.000         165.000
 121697503.05948  94829215.28448  23158272.3484   23158274.1844   23158272.7874
       216.000         152.000
 119067529.19348  92779892.93248  22657795.2294   22657798.8494   22657795.1704
       217.000         159.000
 137468310.71548  89325929.71248  24256433.0254   24256440.1504   24256433.2544
       204.000         134.000
 122907207.81948  95771829.82448  23388478.8244   23388483.0764   23388478.8044
       213.000         154.000
 121918435.25448  95001379.28848  23200306.1174   23200307.8564   23200306.2484
       213.000         153.000
 106291796.37948  82824774.42648  20226658.0434   20226658.6524   20226657.9044
       243.000         210.000
 12  9 20  0 11 30.0000000  0 10G05G30G12G25G21G26G18G15G02G29
 112426050.67048  87604716.63348  21393964.7034   21393966.0814   21393964.3144
       233.000         191.000
 127516991.37048  99363864.97648  24265696.4634   24265700.2254   24265696.8944
       209.000         137.000
 128598900.77848 100206904.41248  24471581.1884   24471588.8124   24471580.7624
       207.000         142.000
 118867240.70148  92623784.13848  22619716.1444   22619722.2064   22619716.2214
       221.000         163.000
 121635426.59948  94780844.10648  23146459.4284   23146461.1634   23146460.2824
       218.000         153.000
 118989722.16948  92719264.22848  22642989.1074   22642992.7874   22642989.0374
       217.000         159.000
 137373050.80148  89251701.42148  24238306.1564   24238311.9674   24238306.2024
       205.000         134.000
 122809985.45548  95696072.30848  23369977.6714   23369982.1544   23369978.0034
       214.000         155.000
 121990600.05548  95057611.57948  23214038.2064   23214040.6294   23214038.6464
       214.000         154.000
 106270990.33448  82808561.95348  20222698.7094   20222699.3474   20222698.6404
       242.000         210.000
 12  9 20  0 12  0.0000000  0 10G05G30G12G25G21G26G18G15G02G29
 112492146.08248  87656219.54248  21406542.1624   21406543.6644   21406541.9234
       233.000         191.000
 127468311.32348  99325932.54648  24256432.9524   24256436.2744   24256433.1684
       207.000         137.000
 128706489.12448 100290739.31448  24492054.7394   24492061.8324   24492054.5224
       206.000         141.000
 118950480.41548  92688646.18648  22635555.9414   22635562.3174   22635556.0794
       220.000         164.000
 121573419.34648  94732526.87048  23134659.7894   23134661.7254   23134660.4904
       216.000         153.000
 118912337.02948  92658964.25948  22628262.9214   22628266.1924   22628263.2034
       217.000         159.000
 137277938.61548  89177588.24648  24220206.4314   24220213.8984   24220206.8354
       204.000         133.000
 122712900.07748  95620421.53348  23351502.9744   23351507.8934   23351503.0764
       212.000         155.000
 122062873.65048  95113928.63948  23227791.9114   23227794.0534   23227792.0374
       214.000         155.000
 106250637.06548  82792702.29248  20218825.4704   20218826.3104   20218825.3114
       243.000         210.000
 12  9 20  0 12 30.0000000  0 10G05G30G12G25G21G26G18G15G02G29
 112558608.37248  87708008.33148  21419189.5984   21419190.9024   21419189.2524
       233.000         190.000
 127420174.82948  99288423.69248  24247272.0434   24247275.9934   24247272.7884
       209.000         136.000
 128814050.49048 100374553.15148  24512523.0734   24512530.8784   24512522.8294
       205.000         140.000
 119034020.06848  92753741.96148  22651453.0584   22651459.4684   22651453.1784
       220.000         163.000
 121511481.24748  94684263.50548  23122872.8914   23122874.7774   23122873.4724
       216.000         154.000
 118835377.38848  92598995.83848  22613617.7014   22613621.1954   22613618.0234
       217.000         157.000
 137182975.52348  89103591.24348  24202135.1364   24202142.0004   24202136.1684
       203.000         135.000
 122615954.87948  95544879.97848  23333054.8654   23333059.1324   23333054.5384
       212.000         154.000
 122135255.93148  95170330.36348  23241565.5484   23241567.4384   23241566.3704
       215.000         154.000
 106230738.04048  82777196.58648  20215038.9674   20215039.6464   20215038.8314
       243.000         211.000
 12  9 20  0 13  0.0000000  0 10G05G30G12G25G21G26G18G15G02G29
 112625435.14848  87760081.13148  21431906.3264   21431907.6264   21431906.0954
       233.000         190.000
 127372582.96048  99251339.19148  24238216.2094   24238220.6304   24238216.5324
       208.000         137.000
 128921581.60948 100458343.47048  24532985.9344   24532993.3584   24532985.9014
       205.000         141.000
 119117856.56948  92819069.02848  22667406.5064   22667413.4624   22667406.8454
       220.000         162.000
 121449612.83748  94636054.44248  23111099.4474   23111102.0244   23111099.9214
       216.000         155.000
 118758846.68548  92539361.65848  22599054.4954   22599057.9064   22599054.6064
       217.000         158.000
 137088162.78648  89029711.42648  24184091.6594   24184100.1304   24184093.7494
       203.000         136.000
 122519152.78348  95469449.94348  23314634.0954   23314638.0974   23314633.9694
       212.000         155.000
 122207746.84448  95226816.75848  23255360.4354   23255361.6824   23255360.6274
       214.000         152.000
 106211294.50048  82762045.80248  20211338.9584   20211339.6314   20211338.8674
       243.000         211.000
 12  9 20  0 13 30.0000000  0 10G05G30G12G25G21G26G18G15G02G29
 112692624.09048  87812436.14148  21444692.0874   21444693.2324   21444691.8194
       234.000         190.000
 127325537.25948  99214680.27848  24229263.5234   24229268.9634   24229264.6504
       210.000         138.000
 129029080.06048 100542108.30548  24553443.4614   24553449.1484   24553442.1474
       201.000         138.000
 119201986.83248  92884625.01348  22683416.3114   22683422.6684   22683416.4384
       220.000         162.000
 121387812.85048  94587898.69648  23099339.1054   23099341.7154   23099339.7054
       216.000         155.000
 118682748.48048  92480064.48048  22584573.1784   22584577.0034   22584573.2984
       216.000         158.000
 136993501.80348  88955949.82648  24166079.5684   24166087.0144   24166080.5874
       206.000         136.000
 122422497.25548  95394134.10848  23296241.2094   23296245.0944   23296241.0574
       213.000         156.000
 122280345.99648  95283387.48048  23269175.6284   23269177.0664   23269175.5634
       214.000         152.000
 106192308.00148  82747251.14948  20207725.8994   20207726.5554   20207725.7544
       243.000         211.000
 12  9 20  0 14  0.0000000  0 10G05G30G12G25G21G26G18G15G02G29
 112760172.89748  87865071.56448  21457546.2754   21457547.2574   21457545.9284
       234.000         190.000
 127279039.36448  99178448.21048  24220415.6054   24220419.3764   24220416.3084
       207.000         138.000
 129136543.45148 100625845.82348  24573892.7104   24573899.6084   24573891.9664
       201.000         137.000
 119286407.79748  92950407.51748  22699480.7494   22699487.5114   22699481.1504
       219.000         162.000
 121326082.11248  94539796.90448  23087592.7644   23087594.9224   23087592.8294
       217.000         157.000
 118607086.24848  92421107.01748  22570175.0824   22570178.5384   22570175.0964
       216.000         158.000
 136898994.10248  88882307.66448  24148096.3304   24148101.9444   24148096.5754
       208.000         138.000
 122325991.51448  95318934.99348  23277876.7154   23277880.3914   23277876.7864
       212.000         154.000
 122353053.37248  95340042.54948  23283011.3334   23283012.4564   23283011.2124
       214.000         152.000
 106173780.14848  82732813.88348  20204200.1214   20204200.7864   20204199.9154
       243.000         211.000
 12  9 20  0 14 30.0000000  0 10G05G30G12G25G21G26G18G15G02G29
 112828079.12448  87917985.50248  21470468.3374   21470469.4204   21470468.0984
       234.000         191.000
 127233090.68348  99142644.11548  24211671.4184   24211677.4324   24211671.4814
       207.000         138.000
 129243969.12348 100709553.93848  24594333.2484   24594341.3284   24594335.2994
       199.000         136.000
 119371116.36748  93016414.12948  22715600.6254   22715606.9824   22715600.6904
       220.000         162.000
 121264420.54748  94491749.02148  23075858.6014   23075861.0514   23075859.4044
       217.000         158.000
 118531863.36148  92362491.89948  22555860.6144   22555864.1594   22555860.5884
       216.000         158.000
 136804641.13948  88808786.09648  24130141.3624   24130147.1234   24130141.9994
       208.000         139.000
 122229638.44248  95243854.85448  23259541.0094   23259545.0894   23259540.8144
       211.000         155.000
 122425868.72848  95396781.74148  23296867.4424   23296868.4624   23296867.9434
       214.000         153.000
 106155712.12148  82718734.92148  20200761.8994   20200762.5944   20200761.7854
       243.000         211.000
 12  9 20  0 15  0.0000000  0 10G05G30G12G25G21G26G18G15G02G29
 112896340.46248  87971176.14648  21483457.9874   21483459.1174   21483457.6794
       233.000         190.000
 127187692.34848  99107268.84748  24203031.8884   24203037.3714   24203032.5054
       207.000         136.000
 129351353.46348 100793229.84948  24614769.0734   24614775.9804   24614769.1924
       202.000         136.000
 119456109.39248  93082642.41048  22731774.2264   22731780.7934   22731774.4304
       219.000         161.000
 121202828.08348  94443754.98848  23064138.1454   23064140.4404   23064138.4604
       219.000         157.000
 118457083.38448  92304221.90848  22541630.2104   22541634.0074   22541630.5684
       217.000         158.000
 136710444.29148  88735386.15048  24112215.7294   24112222.6694   24112216.6694
       211.000         142.000
 122133441.26248  95168896.19548  23241234.7254   23241239.6374   23241234.4814
       211.000         156.000
 122498791.82848  95453604.90448  23310744.0854   23310745.5544   23310744.7544
       214.000         153.000
 106138105.18648  82705015.25248  20197411.3624   20197412.0764   20197411.2664
       243.000         211.000
 12  9 20  0 15 30.0000000  0 10G05G30G12G25G21G26G18G15G02G29
 112964954.17448  88024641.35948  21496514.6624   21496516.0164   21496514.3594
       232.000         190.000
 127142846.04848  99072323.74248  24194498.1494   24194502.2514   24194498.7714
       206.000         137.000
 129458694.35848 100876871.92548  24635195.9574   24635202.8934   24635196.1784
       202.000         137.000
 119541383.79748  93149089.93048  22748001.4594   22748007.9734   22748001.8894
       219.000         160.000
 121141304.98248  94395815.00648  23052430.6144   23052432.5174   23052431.3054
       219.000         158.000
 118382749.79548  92246299.73048  22527485.1264   22527488.6464   22527485.3414
       217.000         158.000
 136616404.69848  88662108.74848  24094320.9084   24094326.6974   24094321.4754
       214.000         142.000
 122037402.94848  95094061.32448  23222959.2484   23222963.7864   23222958.7454
       211.000         157.000
 122571822.48848  95510511.86248  23324641.8554   23324642.7664   23324642.7354
       213.000         152.000
 106120960.99648  82691656.16448  20194148.9624   20194149.6574   20194148.8084
       243.000         212.000
 12  9 20  0 16  0.0000000  0 10G05G30G12G25G21G26G18G15G02G29
 113033918.21948  88078379.56948  21509638.1484   21509639.3564   21509637.9084
       233.000         189.000
 127098552.60448  99037809.43548  24186068.5454   24186074.3294   24186069.3494
       204.000         136.000
 129565989.06648 100960477.97948  24655614.1764   24655621.3794   24655613.4374
       202.000         137.000
 119626936.50348  93215754.31248  22764281.8864   22764287.8114   22764281.8344
       219.000         158.000
 121079851.16948  94347929.02248  23040736.0224   23040738.3274   23040736.7614
       219.000         158.000
 118308865.98248  92188728.04148  22513425.3844   22513429.0644   22513425.7214
       219.000         158.000
 136522524.07948  88588955.22148  24076455.3364   24076461.2504   24076456.3784
       212.000         142.000
 121941526.68848  95019352.74048  23204714.8954   23204719.0694   23204714.4554
       213.000         158.000
 122644960.64248  95567502.59748  23338560.1104   23338560.9244   23338560.4754
       212.000         151.000
 106104280.91248  82678658.71848  20190974.8624   20190975.4914   20190974.7914
       243.000         212.000
 12  9 20  0 16 30.0000000  0 10G05G30G12G25G21G26G18G15G02G29
 113103230.17848  88132388.87348  21522827.8154   21522829.0154   21522827.4584
       233.000         189.000
 127054813.89948  99003727.37448  24177746.3434   24177751.4594   24177746.5864
       204.000         134.000
 129673234.79948 101044045.89348  24676023.1764   24676028.3864   24676022.2984
       204.000         135.000
 119712764.36048  93282633.09748  22780613.9294   22780620.5634   22780614.2424
       218.000         158.000
 121018466.95248  94300097.26248  23029055.0744   23029056.8764   23029055.1614
       218.000         157.000
 118235435.41448  92131509.52748  22499452.1534   22499455.4964   22499452.1364
       218.000         160.000
 136428803.45148  88515926.35148  24058620.9994   24058627.2704   24058621.6394
       212.000         144.000
 121845815.70648  94944772.92948  23186501.4524   23186505.6164   23186501.6814
       213.000         159.000
 122718205.95948  95624576.82548  23352497.7584   23352498.9974   23352497.6714
       212.000         150.000
 106088066.19248  82666023.88948  20187889.2194   20187889.8894   20187889.1374
       243.000         211.000
 12  9 20  0 17  0.0000000  0 10G05G30G12G25G21G26G18G15G02G29
 113172887.55748  88186667.34748  21536082.9574   21536084.2984   21536082.6874
       232.000         189.000
 127011631.05748  98970078.47048  24169527.8794   24169533.6024   24169528.6444
       205.000         135.000
 129780429.01748 101127573.67448  24696419.8124   24696427.5044   24696420.9694
       203.000         134.000
 119798864.26448  93349723.87148  22796998.2114   22797005.2724   22796998.5464
       215.000         158.000
 120957152.13048  94252319.57648  23017386.9314   23017388.8124   23017387.3534
       219.000         158.000
 118162461.50148  92074646.83648  22485565.9134   22485568.5994   22485565.8164
       222.000         160.000
 136335244.49548  88443023.46248  24040816.8824   24040823.3334   24040817.7524
       214.000         144.000
 121750273.03948  94870324.27848  23168320.0394   23168324.2834   23168319.9194
       214.000         159.000
 122791558.43848  95681734.57548  23366456.0824   23366457.6454   23366455.8924
       212.000         150.000
 106072318.20448  82653752.74748  20184892.3614   20184893.0574   20184892.1834
       243.000         211.000
 12  9 20  0 17 30.0000000  0 10G05G30G12G25G21G26G18G15G02G29
 113242888.14448  88241213.24748  21549403.7244   21549405.1064   21549403.4624
       232.000         189.000
 126969004.98148  98936863.43048  24161415.7054   24161422.1514   24161417.2834
       202.000         134.000
 129887568.89948 101211059.15248  24716808.0194   24716815.6224   24716808.1154
       204.000         134.000
 119885233.10448  93417024.18448  22813433.9144   22813440.2654   22813434.0704
       216.000         157.000
 120895906.80448  94204596.04848  23005732.4424   23005734.4434   23005732.8954
       218.000         159.000
 118089947.64748  92018142.64048  22471766.9024   22471769.9314   22471767.0764
       220.000         160.000
 136241848.51248  88370247.56648  24023044.6134   24023049.9274   24023045.0444
       212.000         143.000
 121654902.00148  94796009.35948  23150171.8444   23150175.7594   23150171.4404
       215.000         160.000
 122865017.90448  95738975.69248  23380435.5434   23380436.2684   23380434.9764
       214.000         149.000
 106057038.06248  82641846.15548  20181984.7454   20181985.3094   20181984.5384
       243.000         211.000
 12  9 20  0 18  0.0000000  0 10G05G30G12G25G21G26G18G15G02G29
 113313229.29148  88296024.51748  21562789.2504   21562790.5834   21562788.9654
       233.000         188.000
 126926937.59848  98904083.72448  24153411.8844   24153417.0294   24153411.7484
       204.000         134.000
 129994652.00648 101294500.34548  24737186.4424   24737194.1004   24737185.3114
       203.000         135.000
 119971867.71248  93484531.58148  22829919.9444   22829926.7374   22829920.2314
       216.000         156.000
 120834731.19648  94156926.85148  22994091.0624   22994093.2794   22994091.6524
       219.000         159.000
 118017897.24948  91961999.56748  22458055.6974   22458058.9244   22458055.9234
       221.000         160.000
 136148616.85148  88297599.70048  24005303.3064   24005308.9134   24005303.2854
       213.000         143.000
 121559705.82048  94721830.68548  23132056.2664   23132060.0014   23132055.9554
       215.000         160.000
 122938584.07848  95796299.95348  23394434.4164   23394435.4964   23394434.8844
       216.000         150.000
 106042227.38348  82630305.38048  20179166.3094   20179166.9144   20179166.1864
       243.000         212.000
 12  9 20  0 18 30.0000000  0 10G05G30G12G25G21G26G18G15G02G29
 113383908.71848  88351099.38148  21576239.2014   21576240.3364   21576238.8994
       233.000         187.000
 126885429.60448  98871739.90648  24145512.8164   24145518.1814   24145513.0894
       206.000         135.000
 130101675.54148 101377895.13748  24757552.1954   24757559.9424   24757551.7054
       205.000         135.000
 120058765.05448  93552243.73148  22846455.9944   22846462.9494   22846456.2394
       216.000         155.000
 120773625.65148  94109312.25348  22982462.9504   22982464.8414   22982463.6634
       219.000         158.000
 117946313.73248  91906220.30348  22444433.6824   22444436.9504   22444433.6574
       220.000         161.000
 136055550.81748  88225080.90248  23987592.9874   23987598.2374   23987593.1614
       212.000         143.000
 121464687.15948  94647790.34748  23113975.0424   23113978.3584   23113974.6534
       215.000         160.000
 123012256.86848  95853707.31548  23408453.9884   23408454.8254   23408454.6594
       217.000         151.000
 106027887.48148  82619131.44648  20176437.5334   20176438.1154   20176437.3134
       243.000         212.000
 12  9 20  0 19  0.0000000  0 10G05G30G12G25G21G26G18G15G02G29
 113454924.15448  88406436.06548  21589752.9924   21589754.2004   21589752.7084
       233.000         187.000
 126844482.24548  98839832.92348  24137720.0944   24137725.5134   24137721.0664
       206.000         134.000
 130208636.69748 101461241.32648  24777906.1884   24777913.1984   24777905.4344
       206.000         136.000
 120145921.94048  93620158.13148  22863041.3204   22863047.8194   22863041.9804
       216.000         154.000
 120712589.67448  94061751.85248  22970848.0374   22970850.0594   22970848.8574
       220.000         159.000
 117875200.38148  91850807.40248  22430901.1784   22430904.5184   22430901.1974
       221.000         162.000
 135962651.68648  88152692.18048  23969913.9014   23969919.6884   23969914.5984
       214.000         144.000
 121369849.31548  94573890.88048  23095927.9874   23095931.1704   23095927.8064
       216.000         159.000
 123086035.93748  95911197.48848  23422493.8284   23422494.5954   23422494.4584
       217.000         151.000
 106014019.70048  82608325.40048  20173798.6904   20173799.1984   20173798.5384
       244.000         212.000
 12  9 20  0 19 30.0000000  0 10G05G30G12G25G21G26G18G15G02G29
 113526273.23448  88462032.73848  21603330.2634   21603331.3114   21603330.0224
       232.000         187.000
 126804096.96248  98808363.93448  24130036.4224   24130040.5624   24130036.1364
       205.000         135.000
 130315533.01348 101544537.01648  24798247.6744   24798254.5654   24798247.3054
       206.000         135.000
 120233335.30048  93688272.36848  22879675.7184   22879682.2844   22879675.8864
       213.000         154.000
 120651623.38748  94014245.76048  22959246.4334   22959248.8004   22959246.8574
       219.000         160.000
 117804560.65548  91795763.57048  22417458.9564   22417462.2494   22417458.8804
       221.000         163.000
 135869921.06548  88080434.74248  23952267.8844   23952273.7344   23952268.6884
       213.000         142.000
 121275195.80348  94500135.06948  23077916.0094   23077919.0044   23077915.8064
       215.000         160.000
 123159921.31648  95968770.50148  23436553.8964   23436554.4764   23436553.8794
       217.000         152.000
 106000625.53248  82597888.39948  20171249.8034   20171250.3964   20171249.7124
       244.000         213.000
 12  9 20  0 20  0.0000000  0 10G05G30G12G25G21G26G18G15G02G29
 113597953.26748  88517887.30048  21616970.5484   21616971.6564   21616970.2534
       232.000         186.000
 126764274.68448  98777333.69348  24122458.1354   24122460.9264   24122458.2674
       208.000         134.000
 130422361.82148 101627780.10448  24818576.6034   24818584.1404   24818576.3604
       203.000         135.000
 120321001.91648  93756583.95848  22896358.1274   22896364.5934   22896358.3134
       212.000         152.000
 120590726.99648  93966794.14748  22947657.9524   22947660.4144   22947658.4014
       219.000         159.000
 117734397.85548  91741091.35448  22404107.1784   22404110.4444   22404107.5134
       222.000         164.000
 135777360.27148  88008309.66548  23934654.4504   23934659.7764   23934655.1334
       212.000         142.000
 121180729.47248  94426525.10248  23059939.2054   23059942.2534   23059938.8774
       215.000         159.000
 123233912.79348  96026426.19248  23450633.9234   23450634.6144   23450633.8744
       217.000         151.000
 105987705.65548  82587820.98148  20168791.1424   20168791.8254   20168791.0274
       244.000         213.000
 12  9 20  0 20 30.0000000  0 10G05G30G12G25G21G26G18G15G02G29
 113669961.91848  88573997.93248  21630673.3024   21630674.3314   21630672.9854
       232.000         186.000
 126725016.75848  98746743.18548  24114987.4124   24114990.6464   24114987.9144
       211.000         137.000
 130529120.34948 101710968.39848  24838891.6764   24838898.8604   24838892.4244
       204.000         135.000
 120408918.72548  93825090.51448  22913088.0924   22913095.0814   22913088.0364
       212.000         153.000
 120529900.94848  93919397.31848  22936083.2914   22936085.2534   22936083.5964
       219.000         159.000
 117664715.32048  91686793.36448  22390847.3104   22390849.8064   22390847.5134
       224.000         163.000
 135684970.50548  87936317.86248  23917073.5144   23917078.0704   23917073.8364
       212.000         142.000
 121086453.58048  94353063.51648  23041998.7644   23042002.1974   23041998.5964
       214.000         159.000
 123308010.17448  96084164.37048  23464733.7264   23464734.7644   23464734.4874
       215.000         150.000
 105975261.55648  82578124.29148  20166423.0554   20166423.7554   20166422.8924
       244.000         213.000
 12  9 20  0 21  0.0000000  0 10G05G30G12G25G21G26G18G15G02G29
 113742296.89648  88630362.85048  21644438.0564   21644439.3124   21644437.8444
       232.000         186.000
 126686323.96848  98716593.02548  24107624.9674   24107627.8614   24107625.3364
       209.000         136.000
 130635806.04448 101794099.95948  24859194.6064   24859201.4354   24859194.3804
       207.000         137.000
 120497082.50548  93893789.50648  22929865.1414   22929872.1494   22929865.2554
       212.000         152.000
 120469144.83448  93872054.99448  22924521.7224   22924523.9674   22924522.2904
       220.000         159.000
 117595516.42948  91632872.23548  22377679.2014   22377681.8794   22377679.2654
       221.000         164.000
 135592752.96248  87864460.25448  23899524.6044   23899528.9344   23899525.3334
       212.000         142.000
 120992371.16248  94279752.68948  23024095.2434   23024098.5894   23024094.9524
       215.000         158.000
 123382213.34948  96141985.01048  23478853.9634   23478855.4784   23478854.7724
       213.000         148.000
 105963294.63448  82568799.42548  20164145.8814   20164146.5104   20164145.7324
       244.000         213.000
 12  9 20  0 21 30.0000000  0 10G05G30G12G25G21G26G18G15G02G29
 113814955.91248  88686980.26248  21658264.6014   21658265.9934   21658264.3534
       232.000         186.000
 126648197.66848  98686884.30848  24100368.9114   24100372.1434   24100369.8254
       209.000         139.000
 130742416.25448 101877172.68748  24879481.5934   24879488.4574   24879481.1754
       203.000         136.000
 120585490.19448  93962678.53648  22946688.7814   22946695.2844   22946689.0884
       212.000         153.000
 120408459.16848  93824767.56248  22912973.3764   22912975.1304   22912974.1114
       220.000         160.000
 117526804.41748  91579330.51148  22364603.4514   22364606.3304   22364603.4204
       222.000         164.000
 135500709.28148  87792738.14748  23882008.7654   23882014.2424   23882009.1924
       212.000         142.000
 120898485.32748  94206595.05048  23006229.0544   23006232.5624   23006228.7534
       214.000         157.000
 123456521.91448  96199887.75648  23492994.6284   23492995.5894   23492994.9864
       212.000         148.000
 105951805.99848  82559847.25148  20161959.5454   20161960.3064   20161959.3984
       244.000         213.000
 12  9 20  0 22  0.0000000  0 10G05G30G12G25G21G26G18G15G02G29
 113887936.67148  88743848.38648  21672152.4414   21672153.6844   21672152.1774
       232.000         186.000
 126610638.89348  98657617.79548  24093221.8464   24093226.0654   24093222.3134
       207.000         137.000
 130848948.26148 101960184.48848  24899753.6224   24899761.3614   24899753.4914
       202.000         135.000
 120674138.58848  94031755.13048  22963558.0584   22963565.0104   22963558.1784
       210.000         153.000
 120347843.79148  93777534.90248  22901438.5784   22901440.5804   22901439.4994
       219.000         159.000
 117458582.52648  91526170.70048  22351620.5974   22351623.9364   22351621.0514
       221.000         165.000
 135408840.33848  87721152.19748  23864525.9424   23864532.0614   23864526.9764
       210.000         140.000
 120804799.31148  94133593.11748  22988400.9554   22988404.1524   22988400.6684
       213.000         157.000
 123530936.04048  96257872.78648  23507155.4784   23507156.6154   23507154.9134
       210.000         149.000
 105940796.92248  82551268.76648  20159864.6064   20159865.3434   20159864.4504
       244.000         213.000
 12  9 20  0 22 30.0000000  0 10G05G30G12G25G21G26G18G15G02G29
 113961236.10948  88800964.82748  21686101.0384   21686102.0344   21686100.7434
       233.000         186.000
 126573648.39248  98628794.10348  24086182.1994   24086187.8524   24086183.1584
       207.000         138.000
 130955399.87948 102043133.61648  24920009.7994   24920017.2414   24920010.9504
       200.000         134.000
 120763024.56848  94101016.86348  22980472.8944   22980479.9944   22980472.8674
       210.000         153.000
 120287299.02948  93730357.24848  22889916.9644   22889919.0324   22889917.5404
       220.000         159.000
 117390854.07448  91473395.37348  22338732.4454   22338736.0224   22338732.5784
       222.000         165.000
 135317147.72348  87649703.62348  23847078.2394   23847083.1314   23847078.0884
       213.000         141.000
 120711316.55248  94060749.55948  22970611.3784   22970615.3624   22970610.9284
       212.000         156.000
 123605455.59948  96315939.94848  23521335.2014   23521337.6374   23521335.3354
       207.000         147.000
 105930268.76348  82543065.01448  20157861.2054   20157861.8714   20157861.0884
       245.000         213.000
 12  9 20  0 23  0.0000000  0 10G05G30G12G25G21G26G18G15G02G29
 114034852.35048  88858328.12348  21700109.9634   21700110.9034   21700109.6944
       233.000         186.000
 126537227.49148  98600414.26648  24079251.9404   24079256.8764   24079252.2994
       204.000         138.000
 131061768.00448 102126017.72148  24940252.8654   24940259.3834   24940251.7294
       196.000         134.000
 120852145.01448  94170461.29048  22997431.6534   22997439.2164   22997431.7224
       209.000         152.000
 120226824.77248  93683234.53248  22878409.1384   22878411.2694   22878409.9174
       219.000         160.000
 117323622.34848  91421007.09548  22325938.5754   22325942.0494   22325938.6284
       221.000         167.000
 135225632.82448  87578393.53748  23829663.1374   23829667.9794   23829663.1814
       213.000         142.000
 120618039.87748  93988066.59948  22952860.9654   22952865.0724   22952860.6754
       213.000         156.000
 123680080.17948  96374088.93848  23535536.4964   23535538.4804   23535536.0344
       206.000         146.000
 105920222.49548  82535236.76548  20155949.4674   20155950.1034   20155949.3514
       245.000         213.000
 12  9 20  0 23 30.0000000  0 10G05G30G12G25G21G26G18G15G02G29
 114108782.98748  88915936.40448  21714178.3874   21714179.2574   21714178.2264
       233.000         186.000
 126501377.16748  98572479.00448  24072429.5434   24072433.6794   24072430.3574
       205.000         138.000
 131168050.45548 102208835.01948  24960477.4274   24960484.2254   24960476.4254
       197.000         131.000
 120941496.77448  94240085.96348  23014434.4154   23014441.7484   23014434.7414
       208.000         152.000
 120166421.15648  93636166.86248  22866914.9004   22866916.7094   22866915.2504
       219.000         161.000
 117256890.60048  91369008.41548  22313240.1634   22313243.4604   22313239.9854
       222.000         166.000
 135134296.86648  87507222.88448  23812282.4354   23812287.0864   23812282.4444
       213.000         142.000
 120524972.24348  93915546.52648  22935151.1434   22935154.7424   22935150.8774
       215.000         158.000
 123754809.84548  96432319.79548  23549756.1054   23549758.7094   23549756.5544
       204.000         145.000
 105910659.32548  82527784.95248  20154129.6964   20154130.2464   20154129.5084
       244.000         213.000
 12  9 20  0 24  0.0000000  0 10G05G30G12G25G21G26G18G15G02G29
 114183025.58648  88973787.77048  21728306.2294   21728307.2364   21728305.8244
       232.000         185.000
 126466098.17148  98544988.96248  24065715.8164   24065720.7474   24065716.2194
       205.000         138.000
 131274244.09148 102291583.13848  24980685.6034   24980692.2784   24980685.1354
       200.000         131.000
 121031076.63148  94309888.39248  23031480.3364   23031488.5434   23031480.7854
       207.000         150.000
 120106088.26348  93589154.29148  22855433.8314   22855435.8014   22855434.3084
       220.000         161.000
 117190662.00848  91317401.79448  22300637.1674   22300640.2974   22300637.3194
       223.000         166.000
 135043140.79748  87436192.40148  23794935.6374   23794939.8964   23794936.2264
       216.000         143.000
 120432117.08848  93843192.00848  22917481.4044   22917484.7404   22917481.0924
       216.000         159.000
 123829644.35248  96490632.33848  23563997.0324   23563999.6304   23563997.2794
       206.000         146.000
 105901580.95148  82520710.90648  20152402.1584   20152402.7154   20152402.0334
       244.000         213.000
 12  9 20  0 24 30.0000000  0 10G05G30G12G25G21G26G18G15G02G29
 114257577.80148  89031880.39448  21742492.8874   21742493.9534   21742492.6384
       232.000         184.000
 126431391.76848  98517945.10248  24059111.2214   24059116.6074   24059111.6574
       203.000         137.000
 131380347.04548 102374260.61448  25000876.5774   25000882.7014   25000876.6124
       198.000         131.000
 121120881.44848  94379866.10948  23048569.8414   23048577.5914   23048569.8804
       207.000         150.000
 120045826.36448  93542197.04348  22843966.4774   22843968.2614   22843967.0434
       220.000         160.000
 117124939.91248  91266189.83848  22288130.5014   22288133.6734   22288130.4884
       222.000         166.000
 134952166.24248  87365303.32948  23777624.5024   23777628.7324   23777624.4124
       214.000         143.000
 120339477.35348  93771005.36648  22899852.6314   22899856.0404   22899852.2064
       216.000         161.000
 123904583.46248  96549026.42848  23578257.8904   23578259.9064   23578258.4734
       207.000         146.000
