     2.10           OBSERVATION DATA    G (GPS)             RINEX VERSION / TYPE
teqc  2000Feb29     CORS/NGS/NOAA       20000919 00:43:44UTCPGM / RUN BY / DATE
HP-UX 10.20|PA-RISC|cc A.10.32.03|=+|=|                     COMMENT
BIT 2 OF LLI FLAGS DATA COLLECTED UNDER A/S CONDITION       COMMENT
ppt1                                                        MARKER NAME
xxx                                                         MARKER NUMBER
CORS/NGS/NOAA       U.S. Coast Guard                        OBSERVER / AGENCY
05402               ASHTECH   Z-XII3    RD00                REC # / TYPE / VERS
11092               ASH700829.3                             ANT # / TYPE
 -2725252.3706 -4295978.5064  3833958.9487                  APPROX POSITION XYZ 
        0.0000        0.0000        0.0000                  ANTENNA: DELTA H/E/N
     1     1                                                WAVELENGTH FACT L1/2
     7    C1    L1    L2    P1    P2    D1    D2            # / TYPES OF OBSERV
    30.0000                                                 INTERVAL
 SNR is mapped to RINEX snr flag value [1-9]                COMMENT
  L1: 1 -> 1;  90 -> 5; 210 -> 9                            COMMENT
  L2: 1 -> 1; 150 -> 5; 250 -> 9                            COMMENT
teqc windowed: delta = 86400.000 sec                        COMMENT
  2000     9    18     0     0   30.0000000     GPS         TIME OF FIRST OBS
                                                            END OF HEADER
 00  9 18  0  0 30.0000000  0  9G 3G31G20G13G27G19G 1G22G28
  23804540.6804   -8548223.04647  -6619809.80145  23804538.0554   23804556.0604
      2388.2524       1860.9724
  24127890.6234   -3735494.50347  -1187440.96545  24127887.3624   24127907.3874
      3899.1324       3038.2644
  23529622.9154  -32122672.61447 -24462052.97945  23529620.1784   23529642.5904
     -2686.0074      -2092.9754
  21222995.3264  -34090332.77448 -26025432.72947  21222993.2024   21223004.4594
      2671.6464       2081.7964
  21717923.7924  -30665782.93448 -22683939.01747  21717921.1754   21717935.3944
      2499.2994       1947.5014
  20548748.8714  -39897621.56748 -30092114.23847  20548746.5304   20548758.7104
      1131.7684        881.8974
  20791664.0704  -42872177.31949 -33102686.88647  20791661.3734   20791673.7564
        73.2564         57.0834
  23506442.9414  -15757987.28547 -11952595.34145  23506439.9744   23506456.1344
     -2425.4054      -1889.9134
  21289800.9734  -30377464.78949 -23647901.32147  21289798.0664   21289809.4174
      -317.1064       -247.0974
 00  9 18  0  1  0.0000000  0  9G 3G31G20G13G27G19G 1G22G28
  23790961.2894   -8619575.44347  -6675408.95345  23790959.6584   23790977.5304
      2375.7004       1851.1844
  24105656.5554   -3852324.10246  -1278476.57845  24105653.3404   24105674.6134
      3896.6754       3036.3524
  23544987.1464  -32041935.39847 -24399141.34445  23544984.5454   23545007.2694
     -2689.2524      -2095.5064
  21207787.7664  -34170250.94448 -26087706.61047  21207785.4604   21207796.8844
      2663.4644       2075.4254
  21703691.6384  -30740572.23148 -22742216.28647  21703689.2734   21703703.0744
      2493.8514       1943.2574
  20542329.8864  -39931354.65748 -30118399.75347  20542327.4334   20542339.6404
      1124.2924        876.0704
  20791297.8834  -42874101.31049 -33104186.11447  20791295.2504   20791307.6754
        62.1844         48.4554
  23520329.4674  -15685011.34547 -11895730.11845  23520326.3934   23520339.5004
     -2432.5534      -1895.5244
  21291676.5674  -30367606.32349 -23640219.46747  21291673.9424   21291685.5374
      -332.9574       -259.4434
 00  9 18  0  1 30.0000000  0  9G 3G31G20G13G27G19G 1G22G28
  23777452.4924   -8690573.37147  -6730731.90945  23777449.4424   23777466.9044
      2358.1764       1837.5424
  24083434.8634   -3969102.30546  -1369472.16945  24083432.4864   24083453.6734
      3889.2744       3030.5804
  23560365.3224  -31961127.51147 -24336174.63545  23560361.7264   23560384.5634
     -2697.2394      -2101.7324
  21192621.4684  -34249947.69548 -26149807.87647  21192619.4144   21192630.7414
      2650.3584       2065.2114
  21689486.7144  -30815222.34448 -22800385.09647  21689484.0014   21689497.8594
      2483.5504       1935.2314
  20535948.4524  -39964888.92048 -30144530.32447  20535945.9734   20535958.3394
      1112.0044        866.4964
  20790990.5684  -42875716.76549 -33105444.90247  20790988.0534   20791000.2004
        46.2264         36.0214
  23534250.2384  -15611850.09147 -11838720.80845  23534247.5044   23534263.4104
     -2444.2994      -1904.6544
  21293639.1414  -30357295.52749 -23632185.12547  21293636.4024   21293647.4404
      -353.7214       -275.6284
 00  9 18  0  2  0.0000000  0  9G 3G31G20G13G27G19G 1G22G28
  23764037.7714   -8761065.21947  -6785660.48745  23764034.5294   23764052.7784
      2339.3104       1822.8334
  24061250.6494   -4085676.58746  -1460308.88245  24061247.9974   24061270.2514
      3880.4454       3023.7214
  23575784.0734  -31880102.42247 -24273038.65845  23575781.2884   23575804.0464
     -2706.3594      -2108.8284
  21177526.5914  -34329271.70248 -26211618.71847  21177524.4514   21177536.2754
      2635.9334       2053.9714
  21675335.4864  -30889584.24748 -22858329.33647  21675333.1144   21675347.1864
      2471.9834       1926.2164
  20529633.3874  -39998075.41848 -30170389.92147  20529630.7554   20529642.9664
      1098.4434        855.9294
  20790770.5934  -42876874.07449 -33106346.70447  20790767.8574   20790779.8494
        28.9364         22.5474
  23548235.7704  -15538355.52947 -11781451.74845  23548232.1924   23548246.0274
     -2457.3434      -1914.8414
  21295715.4264  -30346384.91949 -23623683.35847  21295712.5844   21295723.8284
      -375.6744       -292.7334
 00  9 18  0  2 30.0000000  0  9G 3G31G20G13G27G19G 1G22G28
  23750712.4434   -8831086.42947  -6840222.30245  23750709.7424   23750728.0514
      2330.6894       1816.1154
  24039099.5604   -4202081.27347  -1551013.46545  24039096.6094   24039117.3664
      3881.8384       3024.7914
  23591236.3964  -31798900.43847 -24209764.85045  23591232.3994   23591255.7634
     -2705.1024      -2107.8544
  21162495.8734  -34408258.92848 -26273167.13747  21162493.7124   21162505.3924
      2631.8204       2050.7664
  21661231.7074  -30963695.91848 -22916078.60147  21661229.4374   21661244.1584
      2470.7544       1925.2594
  20523376.4784  -40030952.61248 -30196008.51247  20523374.3314   20523386.5064
      1095.2684        853.4554
  20790630.1554  -42877610.19049 -33106920.30647  20790627.6104   20790639.9154
        22.0434         17.1764
  23562276.3804  -15464568.73247 -11723954.94845  23562273.2874   23562288.6044
     -2459.8994      -1916.8134
  21297898.0334  -30334913.77849 -23614744.84047  21297895.3224   21297906.8274
      -387.1344       -301.6624
 00  9 18  0  3  0.0000000  0  9G 3G31G20G13G27G19G 1G22G28
  23737451.8504   -8900776.84947  -6894526.36845  23737448.7154   23737467.1334
      2318.1384       1806.3344
  24016954.0284   -4318455.13347  -1641694.04345  24016951.8194   24016974.7754
      3879.2834       3022.8054
  23606694.7974  -31717666.48147 -24146466.09245  23606691.6654   23606715.4524
     -2707.6194      -2109.8254
  21147502.5604  -34487049.16148 -26334562.04647  21147500.5654   21147512.1204
      2623.7264       2044.4614
  21647149.9934  -31037699.36548 -22973743.53847  21647147.4184   21647161.5794
      2465.6814       1921.3084
  20517152.1864  -40063663.05948 -30221497.15447  20517149.7254   20517162.5234
      1088.2774        848.0094
  20790543.4254  -42878066.82949 -33107276.14247  20790540.8304   20790553.0554
        11.2714          8.7844
  23576345.0614  -15390634.05947 -11666343.07045  23576342.3324   23576356.6644
     -2466.2744      -1921.7864
  21300160.3624  -30323026.09449 -23605481.78147  21300157.8674   21300169.1714
      -402.4914       -313.6264
 00  9 18  0  3 30.0000000  0  9G 3G31G20G13G27G19G 1G22G28
  23724262.2844   -8970085.29747  -6948532.77945  23724259.9334   23724277.2824
      2306.3904       1797.1774
  23994823.8004   -4434746.24647  -1732310.15045  23994822.4534   23994843.7064
      3877.5194       3021.4324
  23622168.3874  -31636354.65547 -24083106.65345  23622165.8024   23622188.9414
     -2709.1294      -2110.9944
  21132556.1644  -34565592.78049 -26395764.80347  21132554.0664   21132565.5404
      2616.5204       2038.8454
  21633097.5314  -31111545.77048 -23031286.10647  21633095.0914   21633108.8854
      2461.4664       1918.0254
  20510968.9134  -40096158.17648 -30246818.03247  20510966.3864   20510978.9784
      1082.1024        843.1984
  20790519.4334  -42878194.70349 -33107375.80747  20790516.8754   20790528.5294
         1.3084          1.0204
  23590451.1594  -15316506.45147 -11608580.94945  23590448.3774   23590462.6014
     -2471.5004      -1925.8554
  21302510.7254  -30310674.70449 -23595857.35847  21302508.1144   21302519.5994
      -416.9284       -324.8774
 00  9 18  0  4  0.0000000  0  9G 3G31G20G13G27G19G 1G22G28
  23711159.5244   -9038944.70247  -7002189.27845  23711156.2024   23711173.4064
      2289.7244       1784.1934
  23972724.9064   -4550886.57047  -1822808.79045  23972720.7874   23972741.3684
      3870.7084       3016.1204
  23637667.9984  -31554902.97647 -24019638.23745  23637665.6354   23637688.4564
     -2715.4794      -2115.9534
  21117669.7174  -34643822.59049 -26456723.04447  21117667.6584   21117678.9794
      2604.3314       2029.3464
  21619086.7254  -31185170.75448 -23088656.14247  21619084.5834   21619098.3524
      2452.3944       1910.9534
  20504838.3434  -40128373.66849 -30271921.03847  20504835.8684   20504848.6574
      1071.1174        834.6384
  20790569.8994  -42877928.69149 -33107168.56947  20790567.2384   20790579.1144
       -13.5044        -10.5204
  23604606.0144  -15242122.96347 -11550619.16345  23604602.4414   23604615.8914
     -2481.6914      -1933.8044
  21304961.6144  -30297796.45749 -23585822.41647  21304958.8104   21304970.2574
      -436.1174       -339.8274
 00  9 18  0  4 30.0000000  0  9G 3G31G20G13G27G19G 1G22G28
  23698139.1814   -9107364.11447  -7055502.90945  23698136.1964   23698153.8044
      2273.3514       1771.4364
  23950649.6134   -4666884.22847  -1913196.26945  23950647.3124   23950668.4514
      3864.1214       3010.9854
  23653191.4314  -31473325.58447 -23956071.86145  23653189.1324   23653212.9654
     -2721.3874      -2120.5454
  21102840.7014  -34721748.87749 -26517444.77847  21102838.5984   21102849.9664
      2592.4264       2020.0724
  21605116.6944  -31258585.86348 -23145862.64047  21605114.3184   21605127.9034
      2443.6514       1904.1424
  20498758.9164  -40160321.47649 -30296815.46647  20498756.5364   20498768.9284
      1060.4204        826.3014
  20790693.2684  -42877279.68949 -33106662.90647  20790690.6124   20790702.6654
       -28.0624        -21.8624
  23618806.4324  -15167498.78447 -11492470.04845  23618803.0184   23618817.0284
     -2491.6314      -1941.5394
  21307509.8214  -30284404.74949 -23575387.43547  21307507.4184   21307518.5414
      -454.9444       -354.4984
 00  9 18  0  5  0.0000000  0  9G 3G31G20G13G27G19G 1G22G28
  23685196.7754   -9175368.90247  -7108493.46845  23685194.8334   23685212.5804
      2263.6234       1763.8554
  23928598.4784   -4782763.61747  -2003491.59945  23928596.0484   23928616.3054
      3864.3844       3011.1934
  23668733.3154  -31391653.04647 -23892431.34245  23668731.0024   23668755.0964
     -2720.2624      -2119.6714
  21088064.7054  -34799396.98849 -26577949.74647  21088062.6204   21088073.9014
      2587.3744       2016.1344
  21591180.8114  -31331818.87248 -23202927.24047  21591178.1984   21591192.3114
      2441.8474       1902.7364
  20492725.2174  -40192029.28348 -30321522.81847  20492722.5844   20492735.0544
      1056.6854        823.3904
  20790884.1354  -42876274.82149 -33105879.93747  20790881.8374   20790894.2034
       -35.6684        -27.7934
  23633046.1504  -15092663.44147 -11434156.40145  23633043.3054   23633057.0744
     -2494.2944      -1943.6014
  21310150.6744  -30270528.90349 -23564575.21647  21310147.8824   21310159.2284
      -466.8284       -363.7594
 00  9 18  0  5 29.9990000  0  9G 3G31G20G13G27G19G 1G22G28
  23672322.8894   -9243024.72247  -7161212.08845  23672320.2354   23672337.9224
      2246.4534       1750.4734
  23906556.7014   -4898587.76847  -2093743.90445  23906554.4464   23906575.3144
      3857.0624       3005.4944
  23684279.3954  -31309960.61447 -23828775.33045  23684277.2554   23684301.4284
     -2726.5224      -2124.5584
  21073329.0794  -34876833.01149 -26638289.44747  21073326.7894   21073338.6244
      2574.7644       2006.3084
  21577266.5364  -31404937.47848 -23259902.69247  21577264.0764   21577278.5414
      2432.4754       1895.4324
  20486723.1204  -40223566.93048 -30346097.57947  20486720.7954   20486733.4804
      1045.4374        814.6234
  20791130.1954  -42874983.50149 -33104873.72647  20791127.5684   20791139.8654
       -50.8614        -39.6314
  23647312.1624  -15017692.13347 -11375736.80445  23647309.7094   23647323.1744
     -2504.4664      -1951.5414
  21312869.5414  -30256241.05749 -23553441.93847  21312866.9354   21312878.4064
      -486.2064       -378.8584
 00  9 18  0  5 59.9990000  0  9G 3G31G20G13G27G19G 1G22G28
  23659544.1574   -9310173.46047  -7213535.58745  23659541.5394   23659559.3234
      2232.9694       1739.9754
  23884557.0294   -5014200.52047  -2183831.47345  23884555.2734   23884574.7624
      3853.3484       3002.5904
  23699860.2404  -31228085.16347 -23764976.70345  23699858.0554   23699881.8914
     -2728.9664      -2126.4544
  21058663.7304  -34953899.40249 -26698341.15447  21058661.7674   21058673.5014
      2565.8744       1999.3804
  21563403.5494  -31477786.25848 -23316667.89847  21563401.1414   21563415.7024
      2426.9594       1891.1334
  20480784.5324  -40254776.50548 -30370416.70947  20480782.0954   20480794.6664
      1038.0204        808.8474
  20791461.4154  -42873244.82249 -33103518.98147  20791458.7004   20791470.6044
       -62.2194        -48.4804
  23661635.3624  -14942422.92147 -11317084.96945  23661632.4364   23661645.6594
     -2510.7164      -1956.4154
  21315697.1494  -30241381.78349 -23541863.41047  21315694.4924   21315706.1004
      -501.6174       -390.8654
 00  9 18  0  6 29.9990000  0  9G 3G31G20G13G27G19G 1G22G28
  23646837.5804   -9376951.64847  -7265570.33945  23646834.5124   23646851.8304
      2222.8974       1732.1244
  23862570.9304   -5129736.00147  -2273858.83345  23862568.2214   23862589.6954
      3853.0224       3002.3464
  23715448.3214  -31146173.60747 -23701149.96545  23715445.8794   23715469.1534
     -2727.7814      -2125.5294
  21044042.8544  -35030733.38349 -26758211.72947  21044040.7574   21044052.2684
      2560.3834       1995.1034
  21549565.8504  -31550503.94148 -23373330.94447  21549563.5434   21549577.9864
      2424.8814       1889.5144
  20474881.5954  -40285798.23448 -30394589.46247  20474878.9844   20474891.3474
      1034.0764        805.7754
  20791850.4564  -42871199.43649 -33101925.23247  20791847.8254   20791859.7164
       -70.1334        -54.6474
  23675987.2924  -14867002.20047 -11258315.24845  23675984.2954   23675997.5484
     -2513.3694      -1958.4824
  21318606.4094  -30226094.36449 -23529951.30547  21318603.8204   21318615.4754
      -513.5744       -400.1814
 00  9 18  0  6 59.9990000  0  9G 3G31G20G13G27G19G 1G22G28
  23634207.8334   -9443317.69447  -7317283.87845  23634205.2974   23634222.5444
      2203.6014       1717.0814
  23840608.2674   -5245151.01147  -2363792.26645  23840605.7644   23840626.0914
      3843.4434       2994.8794
  23731050.6034  -31064188.70047 -23637266.04145  23731047.6134   23731071.5274
     -2735.7244      -2131.7114
  21029473.6504  -35107293.37449 -26817868.80347  21029471.6664   21029482.9884
      2545.6924       1983.6534
  21535761.3384  -31623050.95848 -23429861.00447  21535758.8824   21535772.4614
      2413.6814       1880.7884
  20469021.6064  -40316592.88048 -30418585.28047  20469019.0004   20469030.9714
      1020.9854        795.5694
  20792305.0794  -42868807.37649 -33100061.34047  20792302.8204   20792315.3094
       -87.2204        -67.9614
  23690375.2164  -14791392.19547 -11199397.90545  23690372.0414   23690384.2814
     -2525.1994      -1967.7134
  21321604.0934  -30210340.87849 -23517675.99947  21321601.5474   21321613.4064
      -534.5894       -416.5594
 00  9 18  0  7 29.9990000  0  9G 3G31G20G13G27G19G 1G22G28
  23621664.7684   -9509227.25647  -7368641.74545  23621662.7164   23621680.0704
      2187.2734       1704.3604
  23818676.1044   -5360400.23447  -2453596.50745  23818673.4644   23818694.3724
      3836.7374       2989.6514
  23746673.3094  -30982091.26547 -23573294.45245  23746669.6454   23746693.9814
     -2740.5864      -2135.5104
  21014965.4214  -35183535.34049 -26877278.06347  21014963.1724   21014974.6944
      2534.0094       1974.5484
  21521995.9324  -31695385.62248 -23486225.58747  21521993.5964   21522007.2484
      2405.5284       1874.4364
  20463212.1434  -40347119.26648 -30442371.99947  20463209.7014   20463222.1454
      1010.9564        787.7564
  20792834.6494  -42866026.24149 -33097894.28847  20792832.1574   20792844.6584
      -101.3044        -78.9374
  23704806.0414  -14715554.17847 -11140303.02545  23704803.2164   23704816.3144
     -2533.8874      -1974.4704
  21324698.5684  -30194081.41849 -23505006.45147  21324695.7774   21324707.3394
      -552.5144       -430.5264
 00  9 18  0  7 59.9990000  0  9G 3G31G20G13G27G19G 1G22G28
  23609205.9624   -9574700.83447  -7419659.85045  23609202.9914   23609220.9624
      2176.6794       1696.1014
  23796772.3444   -5475503.08847  -2543286.71545  23796770.0814   23796791.3864
      3835.8124       2988.9334
  23762312.6044  -30899906.84847 -23509255.08045  23762310.7434   23762333.7024
     -2739.3164      -2134.5234
  21000513.2434  -35259480.57949 -26936456.09247  21000511.0884   21000522.8694
      2528.1104       1969.9534
  21508266.9064  -31767530.61048 -23542442.37247  21508264.4754   21508278.3154
      2403.2144       1872.6314
  20457449.7434  -40377400.24448 -30465967.52447  20457447.3584   20457459.9284
      1006.8274        784.5404
  20793434.2854  -42862878.31649 -33095441.41147  20793431.4344   20793443.7704
      -109.4964        -85.3204
  23719275.6274  -14639513.23147 -11081049.80945  23719273.0684   23719285.4224
     -2536.4974      -1976.5074
  21327884.1614  -30177340.34349 -23491961.56447  21327881.5004   21327893.3114
      -564.5074       -439.8734
 00  9 18  0  8 29.9990000  0  9G 3G31G20G13G27G19G 1G22G28
  23596818.5994   -9639790.65047  -7470378.94445  23596816.8204   23596834.3444
      2161.1494       1683.9984
  23774888.7384   -5590510.68447  -2632902.69345  23774886.0994   23774905.6044
      3829.8764       2984.3084
  23777958.0914  -30817692.52647 -23445192.41545  23777955.8814   23777979.7004
     -2743.0544      -2137.4264
  20986107.8964  -35335181.42349 -26995443.66747  20986105.8584   20986117.4074
      2517.1704       1961.4304
  21494564.1594  -31839540.17848 -23598553.64847  21494561.5894   21494575.5694
      2395.9544       1866.9764
  20451723.9404  -40407490.33348 -30489414.31947  20451721.3844   20451733.8754
       997.7294        777.4494
  20794092.4334  -42859417.36049 -33092744.61747  20794089.6354   20794102.1944
      -122.6514        -95.5714
  23733772.5454  -14563327.02847 -11021683.52645  23733770.0704   23733782.8804
     -2544.0904      -1982.4364
  21331150.9064  -30160173.70549 -23478585.05847  21331148.5414   21331160.2664
      -581.3864       -453.0264
 00  9 18  0  8 59.9990000  0  9G 3G31G20G13G27G19G 1G22G28
  23584529.1994   -9704378.06647  -7520706.52845  23584526.2014   23584543.4404
      2151.0414       1676.1274
  23753043.3504   -5705303.20047  -2722351.10445  23753039.8344   23753060.0134
      3829.3554       2983.8984
  23793631.2154  -30735334.55647 -23381017.83845  23793627.9784   23793651.7334
     -2741.0374      -2135.8654
  20971772.0334  -35410519.21449 -27054148.35247  20971769.6644   20971780.6514
      2511.7274       1957.1864
  21480908.4474  -31911298.15748 -23654468.88347  21480906.1244   21480920.6124
      2394.2314       1865.6324
  20446055.9604  -40437273.61148 -30512622.02447  20446053.6804   20446066.6404
       994.1664        774.6744
  20794832.6704  -42855526.63349 -33089712.96247  20794830.0734   20794842.7884
      -130.3554       -101.5714
  23748319.5254  -14486881.79947 -10962115.25345  23748316.7274   23748329.6804
     -2545.9884      -1983.8994
  21334520.6344  -30142467.14349 -23464787.82647  21334518.0794   21334529.7204
      -592.7094       -461.8484
 00  9 18  0  9 29.9990000  0  9G 3G31G20G13G27G19G 1G22G28
  23572318.9904   -9768534.70447  -7570698.47045  23572317.1634   23572334.3084
      2131.2964       1660.7384
  23731225.1174   -5819950.77647  -2811686.56345  23731222.5254   23731244.0344
      3819.0674       2975.8964
  23809316.0174  -30652909.15947 -23316790.70045  23809312.0274   23809336.2784
     -2748.7064      -2141.8324
  20957490.4644  -35485566.67449 -27112626.79147  20957488.3524   20957499.5874
      2496.6274       1945.4214
  21467287.4054  -31982878.14448 -23710245.42947  21467284.8544   21467299.1464
      2382.9644       1856.8524
  20440433.4024  -40466823.92149 -30535648.21947  20440430.8774   20440443.3794
       981.0514        764.4544
  20795641.0814  -42851279.12249 -33086403.30147  20795638.5694   20795651.1774
      -147.6014       -115.0104
  23762901.1904  -14410252.74147 -10902403.73045  23762898.3454   23762910.0634
     -2557.4654      -1992.8674
  21337978.6804  -30124295.78549 -23450628.41747  21337976.0564   21337987.7404
      -613.5134       -478.0624
 00  9 18  0  9 59.9990000  0  9G 3G31G20G13G27G19G 1G22G28
  23560203.1644   -9832210.01047  -7620315.36645  23560200.4654   23560217.3684
      2113.9904       1647.2614
  23709446.4064   -5934402.22947  -2900869.24445  23709443.7274   23709464.4944
      3811.3924       2969.9134
  23825022.2134  -30570370.85647 -23252475.61545  23825019.4994   23825043.5454
     -2753.5904      -2145.6424
  20943273.7604  -35560273.39049 -27170839.71847  20943271.7924   20943283.6724
      2484.0354       1935.6084
  21453709.4074  -32054232.05348 -23765845.80947  21453706.8124   21453721.0864
      2374.1914       1850.0164
  20434863.2204  -40496093.73349 -30558455.85647  20434860.8554   20434873.2964
       970.4844        756.2234
  20796526.6504  -42846626.41049 -33082777.89847  20796524.0284   20796536.4084
      -162.3194       -126.4804
  23777526.4124  -14333394.58147 -10842513.32845  23777523.7034   23777535.7504
     -2566.3384      -1999.7774
  21341533.8424  -30105613.23149 -23436070.54147  21341531.1614   21341542.5804
      -631.7364       -492.2634
 00  9 18  0 10 29.9990000  0  9G 3G31G20G13G27G19G 1G22G28
  23548160.7544   -9895486.95947  -7669621.84345  23548158.8594   23548175.8754
      2105.0614       1640.3004
  23687689.9664   -6048739.01847  -2989962.55845  23687687.9494   23687705.7274
      3811.7934       2970.2274
  23840734.4194  -30487807.28647 -23188140.84645  23840730.5934   23840756.4124
     -2750.0594      -2142.8934
  20929106.4594  -35634722.68949 -27228852.06047  20929104.5144   20929116.0684
      2479.8204       1932.3234
  21440158.1134  -32125444.82848 -23821336.21947  21440155.5454   21440169.5404
      2373.9164       1849.8024
  20429330.3834  -40525168.39649 -30581111.49747  20429328.0314   20429340.6924
       968.3804        754.5844
  20797473.1564  -42841652.98449 -33078902.60547  20797470.5824   20797483.0084
      -168.6154       -131.3854
  23792177.5924  -14256395.42747 -10782512.84445  23792174.5964   23792187.7864
     -2566.5194      -1999.9094
  21345169.8364  -30086506.48349 -23421182.07747  21345167.0224   21345178.6234
      -641.4254       -499.8114
 00  9 18  0 10 59.9990000  0  9G 3G31G20G13G27G19G 1G22G28
  23536202.0644   -9958330.38147  -7718590.50445  23536199.6094   23536217.3744
      2086.1734       1625.5784
  23665960.1934   -6162924.72347  -3078938.14945  23665957.7294   23665977.0584
      3802.2884       2962.8214
  23856455.2464  -30405188.33747 -23123762.94345  23856452.4944   23856477.1054
     -2756.2694      -2147.7254
  20914995.2134  -35708879.25348 -27286636.28447  20914993.0324   20915004.4824
      2465.5814       1921.2314
  21426639.4254  -32196483.64448 -23876691.08747  21426637.0394   21426651.1644
      2363.6384       1841.7944
  20423841.5814  -40554015.04149 -30603589.45947  20423838.8954   20423851.3294
       956.3144        745.1794
  20798486.7674  -42836325.51449 -33074751.43047  20798484.2954   20798497.2564
      -184.8954       -144.0704
  23806861.7674  -14179226.30847 -10722380.55345  23806858.6544   23806872.2084
     -2576.5624      -2007.7234
  21348892.2744  -30066944.82449 -23405939.24347  21348889.5384   21348901.2074
      -661.0504       -515.1034
 00  9 18  0 11 29.9990000  0  9G 3G31G20G13G27G19G 1G22G28
  23524316.9434  -10020789.57347  -7767259.75445  23524314.2014   23524330.9784
      2074.6644       1616.6114
  23644249.8464   -6277007.48847  -3167833.53245  23644246.8294   23644267.7474
      3800.1164       2961.1234
  23872177.5754  -30322567.98047 -23059383.93445  23872176.0274   23872200.7484
     -2754.9554      -2146.7034
  20900929.8514  -35782792.84749 -27344231.20347  20900927.6594   20900939.0794
      2458.7854       1915.9334
  21413144.6794  -32267399.97148 -23931950.51447  21413142.2844   21413156.5594
      2360.9044       1839.6664
  20418385.3914  -40582685.31349 -30625929.97747  20418383.0064   20418395.6754
       951.8004        741.6644
  20799558.1514  -42830694.77549 -33070363.97247  20799555.9074   20799568.5194
      -193.6624       -150.9014
  23821568.2504  -14101939.68147 -10662156.49345  23821564.8154   23821577.7574
     -2579.0754      -2009.6904
  21352690.9424  -30046981.20249 -23390383.17947  21352688.2864   21352699.7644
      -673.0704       -524.4704
 00  9 18  0 11 59.9990000  0  9G 3G31G20G13G27G19G 1G22G28
  23512520.5644  -10082776.17947  -7815560.75645  23512518.1644   23512535.3454
      2062.3544       1607.0204
  23622577.5604   -6390897.64647  -3256578.81645  23622575.7784   23622595.2074
      3797.1054       2958.7754
  23887916.3124  -30239862.29547 -22994938.46645  23887913.4084   23887939.6994
     -2754.1184      -2146.0524
  20886927.4724  -35856375.49248 -27401568.24847  20886925.3074   20886936.5294
      2451.3304       1910.1254
  21399689.2924  -32338107.43848 -23987047.19947  21399687.0264   21399701.4194
      2357.5234       1837.0304
  20412979.6674  -40611093.22549 -30648066.01247  20412977.3024   20412989.7174
       946.6374        737.6414
  20800704.8354  -42824673.86449 -33065672.45647  20800702.0924   20800714.2744
      -203.1244       -158.2764
  23836312.4754  -14024451.94147 -10601775.84645  23836310.4424   23836322.7774
     -2582.1954      -2012.1184
  21356582.4954  -30026531.01449 -23374447.95547  21356579.8874   21356591.3404
      -685.6994       -534.3134
 00  9 18  0 12 29.9990000  0  9G 3G31G20G13G27G19G 1G22G28
  23500804.0944  -10144345.02547  -7863536.26445  23500801.4124   23500818.8804
      2045.7334       1594.0734
  23600932.1964   -6504648.48847  -3345215.51745  23600928.4564   23600947.9904
      3789.6174       2952.9434
  23903660.9964  -30157131.13347 -22930473.15145  23903657.8874   23903683.7604
     -2757.5954      -2148.7624
  20872977.9104  -35929681.83248 -27458690.01547  20872975.7684   20872986.6574
      2439.3304       1900.7764
  21386263.0814  -32408662.93548 -24042025.46447  21386260.7514   21386274.5664
      2349.7714       1830.9894
  20407613.0444  -40639296.11949 -30670042.36047  20407610.4114   20407623.1394
       937.0974        730.2084
  20801913.6214  -42818319.50649 -33060721.09247  20801911.1944   20801923.7644
      -216.9224       -169.0274
  23851084.7634  -13946822.39447 -10541284.51445  23851082.1274   23851093.8514
     -2589.6954      -2017.9564
  21360555.2994  -30005653.38549 -23358179.67747  21360552.7604   21360564.3164
      -702.6164       -547.4934
 00  9 18  0 12 59.9990000  0  9G 3G31G20G13G27G19G 1G22G28
  23489178.4424  -10205441.31047  -7911143.55445  23489175.7234   23489192.2484
      2026.2234       1578.8704
  23579322.2044   -6618203.79447  -3433699.83945  23579318.9834   23579339.6074
      3779.4434       2945.0074
  23919418.4394  -30074324.22447 -22865948.80745  23919416.0354   23919441.7954
     -2763.9084      -2153.6854
  20859090.8294  -36002657.46349 -27515554.08347  20859088.8824   20859100.0144
      2424.5644       1889.2694
  21372875.5234  -32479013.86348 -24096844.32147  21372873.1844   21372887.0684
      2339.2284       1822.7744
  20402295.0214  -40667241.68549 -30691818.15647  20402292.5844   20402305.2164
       924.7944        720.6214
  20803196.6734  -42811578.64249 -33055468.55147  20803194.0434   20803206.7444
      -233.5724       -182.0024
  23865892.8194  -13869001.77747 -10480644.48745  23865890.3174   23865901.9584
     -2599.6704      -2025.7354
  21364619.5174  -29984297.26049 -23341538.58647  21364616.9084   21364628.5404
      -722.2624       -562.7994
 00  9 18  0 13 29.9990000  0  9G 3G31G20G13G27G19G 1G22G28
  23477649.2184  -10266024.58347  -7958351.09445  23477647.1864   23477663.8794
      2012.4024       1568.1044
  23557758.3144   -6731521.47047  -3521998.97045  23557755.1874   23557775.2444
      3774.7834       2941.3654
  23935198.6204  -29991405.77247 -22801337.56945  23935195.8124   23935220.7244
     -2764.2714      -2153.9574
  20845275.0264  -36075262.29349 -27572129.24147  20845272.8114   20845283.6354
      2415.4914       1882.1984
  21359534.6034  -32549121.73148 -24151473.77547  21359532.1724   21359545.9394
      2334.3954       1819.0084
  20397033.5914  -40694891.65349 -30713363.65447  20397030.9724   20397043.6354
       918.2434        715.5164
  20804560.0074  -42804412.30749 -33049884.44147  20804557.5834   20804570.4464
      -244.4444       -190.4754
  23880745.1294  -13790954.06647 -10419827.52445  23880742.4274   23880754.1534
     -2603.9224      -2029.0534
  21368781.3614  -29962426.08949 -23324496.15447  21368778.8434   21368790.4374
      -736.0944       -573.5784
 00  9 18  0 13 59.9990000  0  9G 3G31G20G13G27G19G 1G22G28
  23466193.6444  -10326226.94147  -8005261.83445  23466190.4684   23466206.9964
      1998.7184       1557.4374
  23536214.0274   -6844732.79247  -3610215.21445  23536211.6414   23536231.6824
      3770.2774       2937.8704
  23950972.8934  -29908512.69447 -22736746.10845  23950969.9214   23950995.1134
     -2764.2664      -2153.9494
  20831503.9054  -36147628.91048 -27628518.75947  20831501.5664   20831512.6714
      2406.5914       1875.2654
  21346214.1664  -32619120.88348 -24206018.51447  21346211.6614   21346225.7274
      2329.8534       1815.4684
  20391802.2544  -40722380.41249 -30734783.50647  20391799.7844   20391812.7174
       911.9244        710.5904
  20805979.6744  -42796954.41349 -33044073.15147  20805977.1524   20805989.7204
      -255.1154       -198.7894
  23895614.8554  -13712815.54847 -10358939.74945  23895611.2584   23895622.3674
     -2607.8854      -2032.1454
  21373015.4734  -29940175.89449 -23307158.36247  21373012.7004   21373024.4014
      -749.6344       -584.1294
 00  9 18  0 14 29.9990000  0  9G 3G31G20G13G27G19G 1G22G28
  23454828.1814  -10385949.91347  -8051799.02645  23454825.7334   23454842.3014
      1986.0104       1547.5314
  23514708.8684   -6957738.12847  -3698270.96645  23514706.6424   23514726.2154
      3766.6494       2935.0374
  23966761.9044  -29825551.33547 -22672101.44245  23966757.5634   23966782.3704
     -2763.3264      -2153.2194
  20817796.2544  -36219658.64648 -27684645.75347  20817794.3764   20817805.6644
      2398.6074       1869.0424
  21332933.0054  -32688915.04348 -24260403.51547  21332930.5134   21332944.5844
      2326.3284       1812.7214
  20386620.3494  -40749612.16049 -30756003.08047  20386618.0024   20386630.7364
       906.6924        706.5144
  20807472.7684  -42789108.20249 -33037959.25847  20807470.0964   20807482.5704
      -264.7364       -206.2884
  23910517.9414  -13634492.82747 -10297908.45345  23910515.1204   23910526.2154
     -2610.5894      -2034.2394
  21377339.4094  -29917452.55549 -23289451.88847  21377336.8854   21377348.4674
      -762.0654       -593.8154
 00  9 18  0 14 59.9990000  0  9G 3G31G20G13G27G19G 1G22G28
  23443564.2764  -10445143.83547  -8097923.97246  23443561.2534   23443577.6884
      1965.7344       1531.7344
  23493255.3774   -7070485.99247  -3786126.07045  23493251.7954   23493271.5264
      3755.3804       2926.2544
  23982570.0304  -29742476.59747 -22607368.43845  23982565.4774   23982591.1954
     -2769.5774      -2158.0924
  20804163.2614  -36291301.68148 -27740471.46747  20804161.1624   20804172.5024
      2383.1264       1856.9834
  21319699.2544  -32758456.53748 -24314591.62547  21319696.8064   21319711.3654
      2315.2894       1804.1204
  20381496.5954  -40776539.54049 -30776985.48747  20381493.9014   20381506.5934
       893.9594        696.5924
  20809048.5934  -42780825.58748 -33031505.28747  20809045.8384   20809058.8174
      -281.9164       -219.6744
  23925466.0114  -13555940.74647 -10236698.61645  23925463.5644   23925473.4034
     -2620.7384      -2042.1504
  21381762.2744  -29894210.01849 -23271340.83547  21381759.7634   21381771.6654
      -781.9424       -609.3044
 00  9 18  0 15 29.9990000  0  9G 3G31G20G13G27G19G 1G22G28
  23432363.1134  -10504003.27747  -8143788.26646  23432360.2634   23432377.2504
      1957.0364       1524.9574
  23471811.8414   -7183169.85847  -3873931.32945  23471809.6804   23471827.4054
      3755.6704       2926.4934
  23998362.1914  -29659487.52747 -22542702.19045  23998359.2464   23998384.9144
     -2764.1934      -2153.8954
  20790566.5524  -36362753.99248 -27796148.59747  20790564.4644   20790575.6214
      2379.1464       1853.8794
  21306476.7254  -32827941.82448 -24368735.93147  21306474.2404   21306488.4564
      2315.8794       1804.5784
  20376392.4634  -40803359.29149 -30797883.98047  20376390.1144   20376402.9824
       892.8174        695.7024
  20810670.3114  -42772302.95348 -33024864.30547  20810667.8544   20810680.6804
      -287.4764       -224.0064
  23940419.3374  -13477358.36847 -10175464.99045  23940416.2004   23940426.4324
     -2619.2844      -2041.0194
  21386246.2774  -29870647.04749 -23252980.13047  21386243.7854   21386255.7054
      -790.1374       -615.6884
 00  9 18  0 15 59.9990000  0  9G 3G31G20G13G27G19G 1G22G28
  23421255.1924  -10562376.41747  -8189273.63046  23421252.5144   23421268.7504
      1936.4584       1508.9244
  23450407.5994   -7295636.20547  -3961567.07545  23450406.0824   23450426.0934
      3744.0304       2917.4074
  24014166.5244  -29576436.80647 -22477987.93445  24014163.3184   24014189.3544
     -2770.5304      -2158.8434
  20777035.5174  -36433862.18048 -27851557.51647  20777033.1814   20777044.2354
      2363.3384       1841.5594
  21293292.9374  -32897220.89248 -24422719.53947  21293290.5794   21293304.7474
      2304.6704       1795.8444
  20371338.0694  -40829921.70549 -30818581.93747  20371335.5174   20371348.2914
       879.9144        685.6464
  20812366.3924  -42763389.65348 -33017918.90247  20812363.9094   20812376.7954
      -304.8174       -237.5184
  23955405.1224  -13398598.29647 -10114092.89845  23955403.1394   23955414.3514
     -2629.5054      -2048.9844
  21390819.5734  -29846615.40149 -23234254.20347  21390816.8804   21390828.7064
      -810.0614       -631.2154
 00  9 18  0 16 29.9990000  0  9G 3G31G20G13G27G19G 1G22G28
  23410211.7944  -10620404.56547  -8234490.16446  23410209.8104   23410226.2894
      1923.8404       1499.0914
  23429022.6424   -7408025.03647  -4049142.40245  23429019.7764   23429038.4834
      3740.2544       2914.4744
  24029955.8094  -29493470.44747 -22413339.41345  24029952.1764   24029978.3694
     -2768.8444      -2157.5164
  20763542.1104  -36504768.58549 -27906809.22347  20763540.0594   20763551.2294
      2355.4704       1835.4344
  21280122.0824  -32966437.10648 -24476654.15647  21280119.5074   21280133.4304
      2301.4694       1793.3514
  20366305.0294  -40856370.38649 -30839191.28847  20366302.5964   20366315.4114
       875.0214        681.8334
  20814110.1464  -42754228.87148 -33010780.65847  20814107.4464   20814119.9404
      -314.1804       -244.8144
  23970398.9784  -13319806.38147 -10052696.07945  23970397.1904   23970407.4904
     -2631.5794      -2050.5994
  21395454.0894  -29822260.39449 -23215276.31047  21395451.5164   21395463.1284
      -821.9284       -640.4604
 00  9 18  0 16 59.9990000  0  9G 3G31G20G13G27G19G 1G22G28
  23399282.2694  -10677843.80747  -8279247.84245  23399279.2504   23399295.4074
      1908.3564       1487.0224
  23407696.4864   -7520091.20047  -4136466.28845  23407692.7574   23407712.7694
      3733.7464       2909.3944
  24045773.4014  -29410349.09947 -22348570.10445  24045770.8664   24045796.5514
     -2769.7434      -2158.2224
  20750133.7114  -36575228.81648 -27961713.25747  20750131.8584   20750142.8094
      2344.7704       1827.0924
  21267008.3244  -33035348.69248 -24530351.39647  21267006.0184   21267019.9874
      2295.5094       1788.7054
  20361339.6974  -40882463.72649 -30859523.74747  20361337.2184   20361350.0394
       867.4034        675.8974
  20815946.2234  -42744578.38848 -33003260.82147  20815943.8994   20815956.4994
      -326.3074       -254.2664
  23985444.4064  -13240743.02747  -9991087.84045  23985441.6634   23985451.8084
     -2636.4244      -2054.3824
  21400195.8924  -29797341.95249 -23195859.37647  21400193.3824   21400204.7504
      -836.4534       -651.7814
 00  9 18  0 17 29.9990000  0  9G 3G31G20G13G27G19G 1G22G28
  23388433.7824  -10734853.77447  -8323671.00245  23388431.2044   23388446.1284
      1888.7384       1471.7414
  23386401.8374   -7631992.64647  -4223661.82845  23386399.2344   23386418.4304
      3722.7914       2900.8624
  24061589.5964  -29327236.85247 -22283807.90145  24061586.1534   24061613.0764
     -2774.7214      -2162.1024
  20736779.9604  -36645403.48348 -28016394.77947  20736777.6934   20736788.9724
      2329.9174       1815.5194
  21253922.4154  -33104117.16148 -24583937.11347  21253919.7914   21253933.8874
      2285.4104       1780.8354
  20356410.8704  -40908363.61349 -30879705.44947  20356408.4194   20356421.0794
       855.6164        666.7124
  20817845.4334  -42734599.42348 -32995485.02047  20817842.8514   20817855.5394
      -342.6044       -266.9654
  24000509.5334  -13161572.53147  -9929395.99545  24000507.2654   24000517.2384
     -2645.3314      -2061.3094
  21405013.6554  -29772023.73749 -23176130.89947  21405011.0264   21405022.6274
      -855.0564       -666.2784
 00  9 18  0 17 59.9990000  0  9G 3G31G20G13G27G19G 1G22G28
  23377683.0584  -10791346.18147  -8367690.82745  23377680.3634   23377696.7764
      1880.4034       1465.2424
  23365155.5394   -7743639.21447  -4310658.75345  23365153.0824   23365172.9884
      3723.3314       2901.2824
  24077419.8444  -29244049.71447 -22218987.31745  24077416.0664   24077442.8384
     -2768.0724      -2156.9264
  20723497.2894  -36715203.58948 -28070784.40447  20723495.1004   20723506.4654
      2326.4254       1812.7964
  21240879.9034  -33172655.74748 -24637343.70347  21240877.3044   21240890.9894
      2286.7814       1781.9064
  20351535.6944  -40933983.48049 -30899668.95247  20351533.1454   20351545.8404
       855.3344        666.4934
  20819823.7054  -42724204.80948 -32987385.32347  20819820.9334   20819833.3314
      -347.4094       -270.7084
  24015611.3274  -13082210.84747  -9867555.11845  24015608.1004   24015618.8474
     -2642.5524      -2059.1504
  21409923.7824  -29746221.07649 -23156024.93147  21409921.2244   21409932.9444
      -862.1574       -671.8124
 00  9 18  0 18 29.9990000  0  9G 3G31G20G13G27G19G 1G22G28
  23367021.8764  -10847368.36447  -8411344.23045  23367018.8414   23367035.1594
      1858.8984       1448.4874
  23343949.9064   -7855077.19947  -4397493.15245  23343947.3574   23343966.0474
      3710.4524       2891.2404
  24093254.1744  -29160839.86247 -22154149.04345  24093251.5074   24093279.8134
     -2774.6674      -2162.0554
  20710276.7094  -36784677.13648 -28124919.56547  20710274.8064   20710285.9474
      2309.6344       1799.7104
  21227871.2614  -33241014.24948 -24690609.96647  21227869.0144   21227882.5344
      2274.9274       1772.6674
  20346704.1484  -40959373.22449 -30919453.11747  20346701.7574   20346714.0624
       841.8004        655.9454
  20821871.3754  -42713444.03148 -32979000.31647  20821868.6984   20821881.0454
      -365.4784       -284.7884
  24030740.2004  -13002710.20547  -9805605.99145  24030736.2274   24030746.2614
     -2653.1014      -2067.3814
  21414916.4574  -29719985.87149 -23135581.92147  21414913.8414   21414925.3114
      -882.3954       -687.5814
 00  9 18  0 18 59.9990000  0  9G 3G31G20G13G27G19G 1G22G28
  23356459.4484  -10902873.04747  -8454594.37345  23356457.2794   23356472.9034
      1843.1464       1436.2084
  23322792.1754   -7966257.71847  -4484126.92745  23322789.5364   23322807.7644
      3703.3114       2885.6844
  24109100.8124  -29077564.20347 -22089259.48345  24109099.3204   24109125.6394
     -2775.2854      -2162.5434
  20697128.2544  -36853775.69248 -28178762.49647  20697126.0184   20697136.7514
      2298.6224       1791.1324
  21214906.3334  -33309146.98348 -24743700.30347  21214903.6954   21214917.1474
      2268.9474       1768.0074
  20341924.8134  -40984487.47749 -30939022.60747  20341922.5714   20341934.8614
       834.1484        649.9834
  20823997.3814  -42702271.26548 -32970294.27747  20823994.7174   20824007.2344
      -377.6834       -294.2974
  24045902.8084  -12923027.21047  -9743514.81345  24045899.7434   24045908.4374
     -2657.5344      -2070.8154
  21419999.5784  -29693274.28049 -23114767.72647  21419996.7434   21420008.5004
      -896.7314       -698.7504
 00  9 18  0 19 29.9990000  0  9G 3G31G20G13G27G19G 1G22G28
  23345974.8884  -10957965.69547  -8497523.43545  23345972.6184   23345989.0714
      1825.2044       1422.2264
  23301664.9264   -8077284.45947  -4570640.88245  23301662.3024   23301679.7914
      3693.9244       2878.3664
  24124941.3584  -28994332.48647 -22024404.16845  24124937.8844   24124963.4504
     -2778.0404      -2164.6854
  20684030.4574  -36922605.39649 -28232395.90147  20684028.1974   20684039.0524
      2285.5034       1780.9074
  21201963.2974  -33377160.95648 -24796698.09747  21201960.7884   21201974.5464
      2260.8434       1761.6924
  20337177.8234  -41009433.63049 -30958461.09647  20337175.4064   20337187.9484
       824.3744        642.3694
  20826181.6834  -42690793.33548 -32961350.44147  20826178.9544   20826191.1524
      -392.0164       -305.4664
  24061078.6054  -12843271.21047  -9681366.76445  24061074.4514   24061085.6504
     -2664.1634      -2076.0054
  21425152.5894  -29666195.25549 -23093667.18547  21425149.8464   21425161.5534
      -913.1024       -711.5064
 00  9 18  0 19 59.9990000  0  9G 3G31G20G13G27G19G 1G22G28
  23335597.3044  -11012501.94847  -8540018.96945  23335594.7144   23335610.8014
      1812.6564       1412.4524
  23280594.6814   -8188011.22247  -4656921.10545  23280592.0074   23280609.6054
      3689.9314       2875.2644
  24140799.2844  -28911004.65947 -21959473.93945  24140795.0954   24140822.7624
     -2775.0824      -2162.3744
  20671010.7874  -36991021.71149 -28285707.24347  20671008.6734   20671019.9404
      2277.6814       1774.8144
  21189070.1894  -33444913.77148 -24849492.41447  21189067.7704   21189081.6814
      2258.1444       1759.5904
  20332489.7394  -41034069.74249 -30977658.01447  20332487.3624   20332499.7024
       820.0904        639.0294
  20828451.1964  -42678867.48448 -32952057.57447  20828448.3924   20828460.8484
      -400.9384       -312.4194
  24076296.2094  -12763302.92447  -9619053.25045  24076292.5994   24076302.1654
     -2664.9904      -2076.6134
  21430401.6974  -29638608.54049 -23072171.06047  21430399.2494   21430411.0054
      -923.9444       -719.9564
 00  9 18  0 20 29.9990000  0  9G 3G31G20G13G27G19G 1G22G28
  23325300.1954  -11066615.82747  -8582185.37145  23325297.3304   23325312.9214
      1796.0094       1399.4784
  23259554.5094   -8298570.92847  -4743071.17445  23259552.0324   23259570.1014
      3681.8204       2868.9414
  24156647.1834  -28827719.63347 -21894577.08645  24156644.5364   24156670.9554
     -2776.0744      -2163.1534
  20658044.3104  -37059158.86148 -28338801.00147  20658042.3124   20658053.5364
      2265.9094       1765.6384
  21176201.2544  -33512541.46548 -24902189.21547  21176198.6934   21176212.4304
      2251.4934       1754.4054
  20327835.3334  -41058532.08049 -30996719.54047  20327832.5074   20327844.7004
       811.8464        632.6044
  20830779.8084  -42666629.60248 -32942521.59747  20830777.1214   20830789.8564
      -413.7894       -322.4324
  24091527.9054  -12683261.61647  -9556683.29845  24091523.9324   24091532.1914
     -2669.9384      -2080.4784
  21435721.7874  -29610652.12049 -23050386.82147  21435719.0954   21435730.6954
      -938.6914       -731.4494
 00  9 18  0 20 59.9990000  0  9G 3G31G20G13G27G19G 1G22G28
  23315081.8904  -11120306.93247  -8624022.31945  23315079.8104   23315095.5164
      1777.8414       1385.3194
  23238546.8114   -8408961.48547  -4829089.45545  23238544.7544   23238563.1934
      3672.0234       2861.3074
  24172488.0824  -28744481.14547 -21829716.46645  24172485.1374   24172511.1964
     -2778.6664      -2165.1804
  20645131.3114  -37127016.66848 -28391677.07447  20645129.3334   20645140.4184
      2252.4394       1755.1434
  21163355.7644  -33580045.41248 -24954789.59947  21163353.1994   21163366.6964
      2243.2134       1747.9554
  20323212.3234  -41082822.01549 -31015646.69347  20323210.1324   20323222.2594
       801.9554        624.8974
  20833167.3894  -42654080.55248 -32932743.13847  20833165.0384   20833177.9234
      -428.3144       -333.7504
  24106772.0184  -12603149.56447  -9494258.05045  24106769.9884   24106776.9104
     -2676.4324      -2085.5384
  21441111.3264  -29582329.52549 -23028317.27547  21441108.7544   21441120.7714
      -955.0094       -744.1604
 00  9 18  0 21 29.9990000  0  9G 3G31G20G13G27G19G 1G22G28
  23304963.0264  -11173489.03547  -8665462.62846  23304959.4684   23304975.6124
      1761.8444       1372.8574
  23217589.2624   -8519095.07447  -4914907.52845  23217586.2934   23217605.1534
      3664.3814       2855.3534
  24188334.9464  -28661207.24447 -21764828.25745  24188330.4464   24188358.3724
     -2778.8224      -2165.2984
  20632288.5684  -37194508.58048 -28444268.04347  20632286.1594   20632297.1404
      2241.1944       1746.3794
  21150549.8094  -33647341.02448 -25007227.64947  21150547.3004   21150560.3304
      2237.2984       1743.3454
  20318639.1834  -41106855.43749 -31034373.97047  20318636.5974   20318648.5984
       794.4094        619.0164
  20835631.0934  -42641135.73648 -32922656.28547  20835628.6104   20835641.2294
      -440.5164       -343.2574
  24122045.2334  -12522884.85447  -9431713.67845  24122042.0024   24122052.1424
     -2680.4994      -2088.7064
  21446585.9234  -29553558.32349 -23005898.21647  21446583.6534   21446595.8184
      -968.9054       -754.9904
 00  9 18  0 21 59.9990000  0  9G 3G31G20G13G27G19G 1G22G28
  23294947.8084  -11226112.43147  -8706467.60045  23294945.4244   23294960.7224
      1745.1784       1359.8704
  23196690.6974   -8628920.14047  -5000485.19845  23196688.0104   23196706.1954
      3656.0574       2848.8714
  24204196.9224  -28577852.62747 -21699877.16745  24204193.4164   24204218.8044
     -2779.3894      -2165.7424
  20619523.9244  -37261584.62948 -28496534.96847  20619521.9854   20619533.0274
      2229.3104       1737.1224
  21137792.4674  -33714380.44448 -25059466.06947  21137789.8914   21137803.3094
      2230.7334       1738.2304
  20314123.5824  -41130584.63249 -31052864.18847  20314121.1994   20314133.2424
       786.2534        612.6634
  20838179.2114  -42627747.02348 -32912223.52647  20838176.4484   20838188.6764
      -453.3314       -353.2454
  24137356.5164  -12442422.57147  -9369015.59045  24137352.9944   24137361.5484
     -2685.0154      -2092.2354
  21452155.5684  -29524292.46048 -22983093.66547  21452153.0644   21452164.6154
      -983.3794       -766.2714
 00  9 18  0 22 29.9990000  0  9G 3G31G20G13G27G19G 1G22G28
  23285021.5164  -11278272.04847  -8747111.19445  23285019.2284   23285034.4094
      1724.7754       1343.9754
  23175831.4104   -8738530.14747  -5085895.32445  23175827.9494   23175846.8404
      3643.9124       2839.4034
  24220056.1804  -28494516.62747 -21634940.52145  24220051.3274   24220079.7974
     -2783.7294      -2169.1274
  20606821.0504  -37328339.57348 -28548551.68147  20606818.8254   20606829.8014
      2213.7024       1724.9584
  21125065.5014  -33781260.09048 -25111579.99347  21125062.9934   21125076.3404
      2220.5664       1730.3074
  20309647.5744  -41154106.46749 -31071192.83947  20309645.1004   20309657.2184
       774.4904        603.4974
  20840793.0214  -42614010.72548 -32901519.93247  20840790.4514   20840802.9204
      -469.7924       -366.0714
  24152686.7804  -12361861.53147  -9306240.37745  24152683.0544   24152691.7704
     -2693.0484      -2098.4984
  21457799.7904  -29494630.46648 -22959980.38847  21457797.3104   21457809.2104
     -1001.4424       -780.3454
 00  9 18  0 22 59.9990000  0  9G 3G31G20G13G27G19G 1G22G28
  23275183.6194  -11329972.40947  -8787396.91545  23275180.6714   23275195.6844
      1720.6944       1340.7934
  23155014.1014   -8847927.66947  -5171139.89145  23155011.5704   23155029.6444
      3648.0304       2842.6134
  24235908.8874  -28411207.78747 -21570025.07845  24235904.4414   24235933.7674
     -2771.5284      -2159.6004
  20594177.9354  -37394777.92448 -28600321.68847  20594175.8774   20594186.6704
      2214.3234       1725.4404
  21112367.8914  -33847986.30248 -25163574.35047  21112365.3544   21112378.9394
      2226.6634       1735.0584
  20305209.7424  -41177427.44849 -31089364.94947  20305207.2514   20305219.1574
       779.0154        607.0224
  20843472.0254  -42599932.81448 -32890550.16947  20843469.2044   20843481.9124
      -469.9434       -366.1904
  24168033.2894  -12281210.49647  -9243394.97845  24168030.2984   24168039.9424
     -2684.8214      -2092.0804
  21463517.8664  -29464580.93748 -22936565.14947  21463515.4334   21463527.4004
     -1003.0734       -781.6174
 00  9 18  0 23 29.9990000  0  9G 3G31G20G13G27G19G 1G22G28
  23265438.7714  -11381178.00447  -8827297.09945  23265436.7114   23265452.4044
      1695.5544       1321.2044
  23134244.3474   -8957075.65547  -5256190.01945  23134241.9804   23134259.1554
      3630.9984       2829.3364
  24251762.2614  -28327894.80347 -21505106.39845  24251759.6364   24251786.9274
     -2780.2974      -2166.4584
  20581602.0774  -37460864.19649 -28651817.36147  20581600.1464   20581611.0744
      2193.9194       1709.5444
  21099705.3734  -33914525.31448 -25215422.84447  21099702.9674   21099717.0124
      2211.8094       1723.4864
  20300816.6984  -41200514.15049 -31107354.53947  20300814.2444   20300826.1394
       762.5704        594.2114
  20846221.9414  -42585479.29448 -32879287.72147  20846219.6034   20846232.1174
      -491.1044       -382.6754
  24183403.4194  -12200437.78847  -9180454.64145  24183400.2254   24183407.8304
     -2697.5134      -2101.9714
  21469316.1734  -29434112.08448 -22912823.15847  21469313.5454   21469325.4564
     -1025.6714       -799.2234
 00  9 18  0 23 59.9990000  0 10G 3G31G20G 8G13G27G19G 1G22G28
  23255794.3654  -11431858.85047  -8866788.42245  23255792.1824   23255807.5804
      1681.9854       1310.6284
  23113527.7474   -9065942.27447  -5341020.91045  23113525.0634   23113542.7504
      3625.5724       2825.1154
  24267621.6594  -28244551.99046 -21440164.49045  24267618.9264   24267648.2744
     -2777.1744      -2164.0134
  22281799.8654    -621844.62658   -219408.38446  22281797.2424   22281816.1574
      3356.3174       2615.3024
  20569098.9234  -37526567.80149 -28703014.86747  20569096.9454   20569107.7994
      2185.1534       1702.7144
  21087084.4644  -33980848.81448 -25267103.41747  21087082.0704   21087095.8254
      2208.6364       1721.0144
  20296472.9924  -41223338.28149 -31125139.54247  20296470.5784   20296482.7524
       757.8504        590.5324
  20849049.4624  -42570621.72148 -32867710.42947  20849046.8284   20849059.2164
      -500.5654       -390.0474
  24198802.1164  -12119518.15547  -9117400.17545  24198798.0764   24198807.5524
     -2698.5524      -2102.7804
  21475198.9834  -29403197.67848 -22888733.96147  21475196.4594   21475208.1904
     -1036.4544       -807.6314
 00  9 18  0 24 29.9990000  0 10G 3G31G20G 8G13G27G19G 1G22G28
  23246237.5304  -11482078.07147  -8905920.05845  23246235.7014   23246251.2364
      1666.5864       1298.6334
  23092851.9094   -9174588.76847  -5425680.27045  23092849.3814   23092866.5704
      3618.1774       2819.3484
  24283474.5214  -28161246.49046 -21375251.62545  24283473.0504   24283501.4354
     -2775.8894      -2163.0144
  22262653.9864    -722453.66748   -297804.75746  22262651.6694   22262670.7304
      3351.5324       2611.5774
  20556656.5184  -37591952.12248 -28753963.58647  20556654.4854   20556665.4164
      2174.5004       1694.4134
  21074492.0114  -34047021.22848 -25318666.25547  21074489.7404   21074503.4024
      2203.5894       1717.0814
  20292167.0964  -41245964.82249 -31142770.61347  20292164.8634   20292177.2664
       751.2674        585.4024
  20851941.8734  -42555424.52448 -32855868.49747  20851939.0914   20851951.3394
      -511.8664       -398.8564
  24214215.5214  -12038517.64047  -9054282.40745  24214212.5634   24214221.4354
     -2700.9734      -2104.6814
  21481154.2014  -29371904.42648 -22864349.53647  21481151.4544   21481163.0594
     -1049.0474       -817.4444
 00  9 18  0 24 59.9990000  0 10G 3G31G20G 8G13G27G19G 1G22G28
  23236768.0924  -11531844.12547  -8944698.56946  23236765.7174   23236780.5554
      1656.5474       1290.8114
  23072218.0404   -9283022.03247  -5510173.46145  23072215.6784   23072232.5534
      3616.1484       2817.7644
  24299316.9294  -28077990.94946 -21310377.70745  24299314.6224   24299345.1374
     -2768.9314      -2157.5874
  22243534.4564    -822931.12548   -376098.59046  22243531.5554   22243550.1054
      3352.2554       2612.1374
  20544273.8544  -37657024.84749 -28804669.49847  20544271.7674   20544282.2054
      2169.1634       1690.2534
  21061927.0534  -34113052.70448 -25370119.26747  21061924.6454   21061937.5844
      2203.9634       1717.3704
  20287897.1484  -41268403.91849 -31160255.57847  20287894.7894   20287907.0554
       750.1244        584.5104
  20854896.2824  -42539897.79348 -32843769.77947  20854893.7414   20854906.0444
      -517.7894       -403.4724
  24229641.2164  -11957449.89147  -8991112.21845  24229639.7814   24229646.5054
     -2698.1244      -2102.4504
  21487178.5204  -29340244.63448 -22839679.46747  21487176.0004   21487187.5494
     -1056.1704       -822.9924
 00  9 18  0 25 29.9990000  0 10G 3G31G20G 8G13G27G19G 1G22G28
  23227398.2024  -11581085.77647  -8983068.51446  23227395.0504   23227410.2474
      1636.0294       1274.8284
  23051637.3924   -9391168.73847  -5594443.34145  23051634.9744   23051652.7854
      3603.4304       2807.8564
  24315163.7544  -27994718.30446 -21245490.43045  24315162.4624   24315192.0594
     -2772.7334      -2160.5564
  22224451.8454    -923206.94648   -454235.29746  22224449.2324   22224467.7154
      3342.4794       2604.5184
  20531963.7804  -37721715.18649 -28855077.46647  20531961.4704   20531972.0554
      2153.3484       1677.9314
  21049402.4134  -34178873.42848 -25421408.05747  21049399.7274   21049412.5904
      2193.8914       1709.5224
  20283676.3224  -41290586.22049 -31177540.47247  20283673.7934   20283685.7374
       738.5044        575.4584
  20857926.6844  -42523971.56948 -32831359.77547  20857924.1534   20857937.0744
      -534.1494       -416.2194
  24245093.1844  -11876247.41347  -8927837.24945  24245091.1294   24245098.6224
     -2705.6074      -2108.2864
  21493285.4314  -29308150.58548 -22814671.00947  21493283.0964   21493294.6504
     -1073.6464       -836.6084
 00  9 18  0 25 59.9990000  0  9G 3G31G20G 8G13G27G19G 1G28
  23218119.3954  -11629841.16947  -9021059.56745  23218116.8844   23218132.0444
      1619.3574       1261.8344
  23031105.6724   -9499065.61347  -5678518.54845  23031102.5394   23031120.5394
      3594.6324       2801.0044
  24331004.6914  -27911470.90046 -21180622.86745  24331003.4314   24331034.4434
     -2772.1994      -2160.1384
  22205400.4574   -1023320.69948   -532245.70946  22205397.8384   22205416.9804
      3336.6274       2599.9584
  20519719.3544  -37786060.71849 -28905216.75047  20519717.0994   20519727.4274
      2141.3864       1668.6094
  21036909.0524  -34244523.34548 -25472563.74947  21036906.5524   21036919.6024
      2187.7444       1704.7334
  20279496.1684  -41312551.94349 -31194656.60847  20279493.7804   20279505.8214
       730.8464        569.4904
  20861026.0404  -42507685.55948 -32818669.42647  20861023.4904   20861036.2494
      -546.6034       -425.9214
  21499467.5154  -29275664.30648 -22789356.95147  21499465.0054   21499476.3354
     -1087.1234       -847.1144
 00  9 18  0 26 29.9990000  0  9G 3G31G20G 8G13G27G19G 1G28
  23208930.1124  -11678129.48847  -9058686.69445  23208927.5484   23208942.8314
      1601.4824       1247.9064
  23010617.7714   -9606729.59847  -5762412.26545  23010614.7694   23010631.3964
      3584.6004       2793.1814
  24346838.8844  -27828271.80046 -21115792.91344  24346837.5894   24346865.8724
     -2772.8164      -2160.6144
  22186376.4764   -1123292.80148   -610145.74646  22186373.9074   22186392.0704
      3329.6604       2594.5304
  20507536.5074  -37850080.22949 -28955101.99447  20507534.4224   20507544.6134
      2128.2084       1658.3404
  21024444.5554  -34310023.10448 -25523602.44847  21024442.2364   21024455.4944
      2180.5064       1699.0954
  20275353.4194  -41334322.00449 -31211620.30347  20275350.8884   20275363.2144
       722.0784        562.6584
  20864189.6574  -42491060.19748 -32805714.65247  20864187.0724   20864199.6534
      -560.1774       -436.4994
  21505719.7064  -29242808.62548 -22763755.02947  21505716.9194   21505728.6744
     -1101.6814       -858.4574
 00  9 18  0 26 59.9990000  0  9G 3G31G20G 8G13G27G19G 1G28
  23199839.1334  -11725901.70947  -9095911.65145  23199836.8434   23199852.0884
      1586.3784       1236.1334
  22990183.6484   -9714110.51847  -5846085.37945  22990180.9334   22990198.2964
      3577.1324       2787.3614
  24362670.2584  -27745076.44746 -21050965.86544  24362668.2524   24362698.8304
     -2770.8314      -2159.0744
  22167388.5114   -1223076.01048   -687898.58946  22167385.6054   22167404.0654
      3325.4254       2591.2304
  20495425.5904  -37913725.12449 -29004695.35147  20495423.4304   20495433.5034
      2117.7724       1650.2094
  21012018.0464  -34375325.60348 -25574487.43547  21012015.6214   21012028.7114
      2175.9924       1695.5754
  20271256.9214  -41355849.29049 -31228394.74947  20271254.4784   20271266.4684
       716.0514        557.9594
  20867426.3804  -42474048.37548 -32792458.72747  20867424.1974   20867437.0364
      -570.9474       -444.8924
  21512051.0594  -29209538.55848 -22737830.19147  21512048.1544   21512059.7404
     -1113.3794       -867.5724
 00  9 18  0 27 29.9990000  0  9G 3G31G20G 8G13G27G19G 1G28
  23190855.7584  -11773111.72147  -9132698.47645  23190853.3864   23190868.1224
      1567.4444       1221.3814
  22969811.9054   -9821160.02147  -5929500.23145  22969809.7164   22969826.7064
      3566.0014       2778.6924
  24378510.0004  -27661842.51646 -20986108.77544  24378506.1124   24378537.9114
