     2              OBSERVATION DATA    G (GPS)             RINEX VERSION / TYPE
teqc  1997Aug1      CORS/NGS/NOAA       19970919 02:35:48UTCPGM / RUN BY / DATE
HP-UX 10.20|PA-RISC|cc A.10.32.03|=+|=|                     COMMENT
BIT 2 OF LLI FLAGS DATA COLLECTED UNDER A-S CONDITION       COMMENT
ppt1                                                        MARKER NAME
xxx                                                         MARKER NUMBER
CORS/NGS/NOAA       U.S. Coast Guard                        OBSERVER / AGENCY
05402               ASHTECH Z-XII3      1C01                REC # / TYPE / VERS
11092               ASHTECH L1/L2 P                         ANT # / TYPE
 -2725252.4059 -4295978.6230  3833958.9881                  APPROX POSITION XYZ
        0.0000        0.0000        0.0000                  ANTENNA: DELTA H/E/N
     1     1                                                WAVELENGTH FACT L1/2
     7    C1    L1    L2    P1    P2    D1    D2            # / TYPES OF OBSERV
    30.0000                                                 INTERVAL
  1997     9    18     0     1    0.000000                  TIME OF FIRST OBS
                                                            END OF HEADER
 97  9 18  0  1  0.0000000  0  7G29G16G14G15G18G25G22
  21284036.8934  -33737923.85949 -25970699.23647  21284037.7414   21284045.6724
      -481.5164       -375.2074
  22636503.8534  -19895565.14648 -15225582.47946  22636504.4234   22636514.3334
      3408.9054       2656.2904
  20606477.2544  -34601592.51849 -26716494.74447  20606478.1374   20606487.4534
      1659.3124       1292.9694
  22728822.0454  -22897677.83248 -17827114.51146  22728822.4434   22728833.5474
     -2674.3374      -2083.8984
  24518146.7674   -8367064.23447  -6495612.57545  24518147.2844   24518157.6274
      3351.0814       2611.2264
  22390402.2354  -26060302.27348 -20019571.43147  22390403.1854   22390411.6114
     -1876.7454      -1462.3994
  22750026.4144  -12592031.98648  -9532780.55446  22750026.3954   22750037.3504
      3116.8154       2428.6854
 97  9 18  0  1 30.0000000  0  7G29G16G14G15G18G25G22
  21286810.8154  -33723344.50049 -25959338.69547  21286811.9544   21286819.7124
      -488.3534       -380.5344
  22617067.7934  -19997701.39048 -15305169.12846  22617068.3894   22617078.4824
      3402.2644       2651.1134
  20597053.5134  -34651117.01949 -26755085.25247  20597054.1484   20597063.0704
      1644.6334       1281.5324
  22744121.4384  -22817280.23748 -17764467.11046  22744121.8494   22744132.8964
     -2683.2884      -2090.8704
  24499026.3654   -8467542.70547  -6573907.37945  24499026.6624   24499036.2814
      3349.6404       2610.1044
  22401149.4004  -26003825.46448 -19975563.54947  22401150.2784   22401158.6884
     -1886.1744      -1469.7464
  22732273.0394  -12685321.10448  -9605473.30346  22732273.4004   22732284.5394
      3104.6244       2419.1844
 97  9 18  0  2  0.0000000  0  7G29G16G14G15G18G25G22
  21289620.5524  -33708580.81349 -25947834.51847  21289621.4284   21289629.2724
      -494.8854       -385.6264
  22597664.7234  -20099667.31748 -15384623.06146  22597665.2354   22597675.2214
      3396.2734       2646.4474
  20587706.4424  -34700233.16849 -26793357.56847  20587707.3884   20587716.5374
      1630.5424       1270.5534
  22759466.0314  -22736644.44548 -17701634.10346  22759466.2284   22759477.7224
     -2691.5704      -2097.3254
  24479907.1724   -8568010.62447  -6652193.96845  24479907.6394   24479918.4574
      3348.9534       2609.5674
  22411945.1114  -25947094.64148 -19931357.73547  22411945.8754   22411954.3314
     -1895.0014      -1476.6244
  22714585.7084  -12778270.13148  -9677901.03746  22714585.9334   22714596.9984
      3092.6634       2409.8634
 97  9 18  0  2 30.0000000  0  7G29G16G14G15G18G25G22
  21292463.5574  -33693640.26949 -25936192.53247  21292464.6324   21292472.7074
      -501.8054       -391.0174
  22578292.0074  -20201469.22948 -15463949.18946  22578292.5594   22578303.1204
      3389.9324       2641.5054
  20578436.6384  -34748946.81149 -26831316.24047  20578437.4684   20578446.5664
      1616.4044       1259.5354
  22774855.1114  -22655772.45548 -17638617.03946  22774855.3704   22774867.0564
     -2700.5294      -2104.3054
  24460791.1234   -8668458.42147  -6730464.86745  24460791.9834   24460803.8114
      3346.8304       2607.9194
  22422789.3274  -25890107.52048 -19886952.20247  22422790.2424   22422798.0344
     -1904.8994      -1484.3364
  22696965.2154  -12870866.67248  -9750054.10246  22696965.4314   22696976.5194
      3079.8884       2399.9084
 97  9 18  0  3  0.0000000  0  7G29G16G14G15G18G25G22
  21295345.8154  -33678494.23249 -25924390.42847  21295346.7534   21295354.8804
      -508.5764       -396.2924
  22558954.9524  -20303089.78348 -15543133.99746  22558955.3194   22558965.1864
      3383.9624       2636.8544
  20569248.1884  -34797231.88549 -26868940.96047  20569248.9624   20569258.4894
      1601.9354       1248.2604
  22790294.7484  -22574635.07248 -17575393.17546  22790295.1924   22790307.2364
     -2709.2274      -2111.0844
  24441688.7244   -8768843.31747  -6808686.74845  24441688.9634   24441701.0974
      3344.7264       2606.2744
  22433690.4344  -25832821.04948 -19842313.40047  22433691.3544   22433699.2754
     -1914.8164      -1492.0654
  22679415.2254  -12963091.24048  -9821917.32046  22679415.0864   22679426.4354
      3067.9244       2390.5864
 97  9 18  0  3 30.0000000  0  7G29G16G14G15G18G25G22
  21298252.8784  -33663219.12949 -25912487.75647  21298253.8334   21298261.5004
      -511.6194       -398.6644
  22539639.8584  -20404589.36548 -15622224.55246  22539640.2254   22539650.4134
      3380.6624       2634.2814
  20560128.3394  -34845156.81249 -26906285.04347  20560129.1104   20560138.7634
      1591.0244       1239.7594
  22805770.2234  -22493312.60048 -17512025.10146  22805770.6224   22805782.5524
     -2714.1874      -2114.9504
  24422585.0324   -8869232.92647  -6886912.28945  24422586.0624   24422597.5574
      3345.8384       2607.1384
  22444634.3744  -25775308.43348 -19797498.38847  22444635.5084   22444643.7374
     -1921.3104      -1497.1244
  22661919.7354  -13055033.53248  -9893560.58646  22661919.7824   22661930.1984
      3059.4774       2384.0054
 97  9 18  0  4  0.0000000  0  7G29G16G14G15G18G25G22
  21301192.6694  -33647768.92449 -25900448.63847  21301193.7164   21301201.8514
      -523.4344       -407.8724
  22520360.8804  -20505900.57448 -15701168.31646  22520361.2814   22520371.3784
      3368.2534       2624.6104
  20551089.4854  -34892659.14149 -26943299.83147  20551090.0614   20551099.1774
      1570.4324       1223.7124
  22821289.3764  -22411758.21448 -17448476.30146  22821289.9154   22821301.9454
     -2727.9914      -2125.7094
  24403492.1324   -8969568.71747  -6965095.90345  24403492.8874   24403504.5154
      3337.9734       2601.0174
  22455631.8184  -25717516.28948 -19752465.56847  22455632.9274   22455641.3364
     -1936.5544      -1509.0034
  22644489.5274  -13146628.31448  -9964933.07446  22644489.5054   22644499.7714
      3041.6514       2370.1164
 97  9 18  0  4 30.0000000  0  7G29G16G14G15G18G25G22
  21304168.7184  -33632128.38649 -25888261.21147  21304169.8544   21304178.2454
      -524.0474       -408.3494
  22501124.0084  -20606991.73348 -15779940.62146  22501124.3094   22501134.5264
      3366.3584       2623.1354
  20542139.3654  -34939690.46649 -26979947.59947  20542140.1194   20542149.1774
      1560.4354       1215.9244
  22836858.1944  -22329945.66748 -17384726.34246  22836858.5234   22836870.2444
     -2730.8024      -2127.8964
  24384416.2124   -9069814.72547  -7043209.58245  24384417.0044   24384427.8744
      3340.6004       2603.0604
  22466685.7854  -25659429.27448 -19707202.98047  22466686.6624   22466695.2154
     -1940.5304      -1512.1004
  22627130.7774  -13237849.40948 -10036014.36946  22627130.5574   22627141.3704
      3035.1704       2365.0644
 97  9 18  0  5  0.0000000  0  7G29G16G14G15G18G25G22
  21307178.4534  -33616313.54449 -25875937.96147  21307179.3494   21307187.4974
      -527.8994       -411.3494
  22481927.6794  -20707866.68548 -15858544.44547  22481928.3314   22481938.9494
      3360.9534       2618.9214
  20533275.9264  -34986267.25249 -27016241.18347  20533276.5954   20533286.0824
      1547.0774       1205.5154
  22852470.2984  -22247902.65048 -17320796.78946  22852470.6764   22852482.6354
     -2736.4214      -2132.2734
  24365354.2214   -9169987.30747  -7121266.01845  24365354.7264   24365365.4894
      3339.8284       2602.4614
  22477789.9804  -25601077.33048 -19661733.95847  22477790.8764   22477799.3724
     -1947.2654      -1517.3484
  22609837.6264  -13328724.55748 -10106826.09246  22609838.2014   22609848.2974
      3025.3574       2357.4204
 97  9 18  0  5 30.0000000  0  7G29G16G14G15G18G25G22
  21310221.3254  -33600322.99249 -25863477.79547  21310222.4404   21310230.1754
      -533.3264       -415.5784
  22462774.6804  -20808517.37448 -15936973.51847  22462775.1204   22462785.4314
      3353.9454       2613.4634
  20524498.8914  -35032389.87349 -27052180.87047  20524499.8504   20524509.1554
      1532.5284       1194.1784
  22868125.3374  -22165634.53248 -17256691.84046  22868125.8834   22868137.5654
     -2743.3764      -2137.6924
  24346309.1134   -9270069.58647  -7199252.08745  24346309.7344   24346319.8444
      3337.1494       2600.3734
  22488942.7554  -25542467.73548 -19616064.16747  22488943.7374   22488952.2064
     -1955.3334      -1523.6354
  22592613.4554  -13419239.78448 -10177357.35746  22592613.5414   22592623.9884
      3013.6454       2348.2904
 97  9 18  0  6  0.0000000  0  7G29G16G14G15G18G25G22
  21313288.2604  -33584206.23049 -25850919.28147  21313289.1224   21313297.2454
      -541.0484       -421.5964
  22443653.9724  -20908997.27448 -16015269.51047  22443654.2984   22443664.6634
      3344.7014       2606.2594
  20515799.6644  -35078105.27249 -27087803.23947  20515800.3954   20515809.7854
      1515.2414       1180.7064
  22883813.0904  -22083191.34948 -17192450.47246  22883813.8804   22883826.4434
     -2752.7694      -2145.0104
  24327272.1104   -9370105.86247  -7277202.29645  24327272.8184   24327284.0544
      3332.2814       2596.5764
  22500135.1594  -25483653.71248 -19570235.08047  22500135.8914   22500144.3764
     -1965.5554      -1531.6014
  22575450.3994  -13509429.65048 -10247635.08846  22575450.8014   22575461.1264
      2999.1024       2336.9614
 97  9 18  0  6 30.0000000  0  7G29G16G14G15G18G25G22
  21316390.4934  -33567904.17949 -25838216.38747  21316391.4344   21316399.4854
      -542.8634       -423.0104
  22424578.0504  -21009240.71948 -16093381.25347  22424578.5924   22424588.9704
      3341.1484       2603.4934
  20507188.9134  -35123354.27949 -27123062.19047  20507189.7274   20507199.2204
      1504.3434       1172.2144
  22899546.0944  -22000516.74848 -17128028.78646  22899546.6094   22899559.3454
     -2755.9734      -2147.5074
  24308253.9424   -9470044.37447  -7355076.36445  24308255.2414   24308266.4014
      3333.3464       2597.4164
  22511378.1744  -25424569.87248 -19524195.74547  22511379.0504   22511387.3364
     -1970.5504      -1535.4934
  22558362.3884  -13599229.25948 -10317608.72146  22558362.5454   22558373.1504
      2990.3404       2330.1324
 97  9 18  0  7  0.0000000  0  7G29G16G14G15G18G25G22
  21319517.8904  -33551469.20549 -25825409.91547  21319518.9354   21319526.9234
      -551.4174       -429.6754
  22405536.5474  -21109308.06348 -16171355.76847  22405536.7934   22405546.9804
      3331.4244       2595.9144
  20498656.3074  -35168195.40349 -27158003.31047  20498657.0394   20498666.3864
      1486.2894       1158.1474
  22915311.1134  -21917671.98048 -17063474.49846  22915311.8664   22915324.1954
     -2765.7914      -2155.1594
  24289245.0074   -9569944.17647  -7432920.25645  24289245.5574   24289255.8694
      3327.9754       2593.2194
  22522665.2994  -25365255.51848 -19477976.78646  22522666.1744   22522674.4644
     -1982.4174      -1544.7414
  22541341.2754  -13688674.29348 -10387306.06646  22541341.1994   22541352.3184
      2973.9434       2317.3564
 97  9 18  0  7 30.0000000  0  7G29G16G14G15G18G25G22
  21322677.6964  -33534863.47149 -25812470.38547  21322678.6424   21322686.8514
      -556.3754       -433.5394
  22386532.3304  -21209173.04748 -16249172.60647  22386532.9454   22386543.1694
      3325.4564       2591.2624
  20490211.2444  -35212574.83549 -27192584.67947  20490211.9224   20490220.9374
      1471.5354       1146.6504
  22931116.7704  -21834616.03048 -16998755.64946  22931117.4014   22931129.2354
     -2772.0124      -2160.0064
  24270247.6044   -9669777.11347  -7510712.06145  24270247.6914   24270258.5334
      3326.9184       2592.3974
  22534004.3354  -25305669.06248 -19431545.79746  22534005.5294   22534013.4484
     -1990.7144      -1551.2064
  22524398.0564  -13777711.10148 -10456685.31246  22524398.4064   22524409.1564
      2961.0624       2307.3194
 97  9 18  0  8  0.0000000  0  7G29G16G14G15G18G25G22
  21325874.4394  -33518064.87449 -25799380.57447  21325875.5064   21325883.5694
      -562.8164       -438.5584
  22367571.6844  -21308811.33948 -16326812.79247  22367572.3364   22367582.7054
      3317.7154       2585.2314
  20481860.3094  -35256459.10349 -27226780.20747  20481861.1164   20481870.1274
      1454.8674       1133.6634
  22946965.3604  -21751332.13748 -16933859.18646  22946965.7694   22946977.8134
     -2779.4954      -2165.8374
  24251261.8044   -9769544.95147  -7588453.13045  24251261.9664   24251272.3124
      3324.9334       2590.8504
  22545397.9414  -25245797.71748 -19384892.81247  22545398.7314   22545406.5414
     -2000.0174      -1558.4524
  22507536.7974  -13866315.82448 -10525727.87746  22507537.1604   22507548.4394
      2946.7144       2296.1394
 97  9 18  0  8 30.0000000  0  7G29G16G14G15G18G25G22
  21329106.4344  -33501082.15149 -25786147.29147  21329107.2814   21329115.2094
      -568.6494       -443.1034
  22348653.5454  -21408227.85248 -16404280.16447  22348653.8354   22348664.3354
      3310.8364       2579.8714
  20473601.4664  -35299859.68449 -27260598.83247  20473602.1054   20473611.5074
      1439.1954       1121.4504
  22962853.7024  -21667839.83848 -16868800.33746  22962853.8044   22962865.9864
     -2786.0054      -2170.9094
  24232284.3174   -9869267.37547  -7666158.80145  24232284.9634   24232296.2414
      3323.7074       2589.8934
  22556841.4894  -25185662.11048 -19338033.90947  22556842.2974   22556850.4844
     -2008.2094      -1564.8384
  22490753.8244  -13954507.10048 -10594448.28146  22490754.0564   22490765.5224
      2933.3864       2285.7524
 97  9 18  0  9  0.0000000  0  7G29G16G14G15G18G25G22
  21332371.8574  -33483921.96349 -25772775.72147  21332372.7914   21332380.8384
      -575.8584       -448.7204
  22329774.7394  -21507437.17148 -16481586.08347  22329774.8324   22329785.2554
      3302.5204       2573.3944
  20465431.4284  -35342792.09149 -27294052.64847  20465432.2404   20465441.7844
      1422.5504       1108.4804
  22978778.9324  -21584152.25148 -16803589.31446  22978779.3424   22978790.7404
     -2793.6344      -2176.8544
  24213315.9964   -9968947.79647  -7743831.74545  24213316.1204   24213327.5474
      3321.2114       2587.9514
  22568328.2394  -25125298.98448 -19290997.72747  22568329.0354   22568337.0114
     -2016.4354      -1571.2464
  22474048.0994  -14042299.37948 -10662857.77746  22474048.4154   22474058.9044
      2919.1304       2274.6454
 97  9 18  0  9 30.0000000  0  7G29G16G14G15G18G25G22
  21335672.4304  -33466577.08349 -25759260.23847  21335673.3994   21335681.5764
      -580.4154       -452.2724
  22310938.6524  -21606419.87048 -16558715.42247  22310938.9964   22310949.1894
      3296.2374       2568.4944
  20457349.3064  -35385263.63749 -27327147.35447  20457350.0184   20457359.4254
      1408.8794       1097.8264
  22994740.3604  -21500272.81348 -16738228.79646  22994740.7974   22994752.4504
     -2798.4014      -2180.5704
  24194355.1674  -10068585.11747  -7821471.10945  24194355.8504   24194366.9714
      3321.3544       2588.0604
  22579855.5674  -25064720.42448 -19243793.68047  22579856.5704   22579865.0364
     -2022.1634      -1575.7104
  22457415.5734  -14129707.04448 -10730967.56446  22457415.8394   22457425.6744
      2907.9844       2265.9584
 97  9 18  0 10  0.0000000  0  7G29G16G14G15G18G25G22
  21339005.8824  -33449059.64349 -25745610.28747  21339006.9394   21339015.1204
      -585.9034       -456.5474
  22292146.6394  -21705171.75548 -16635664.90847  22292147.2604   22292157.7374
      3288.7354       2562.6504
  20449351.6784  -35427290.08249 -27359895.22447  20449352.5464   20449361.8734
      1394.4034       1086.5484
  23010736.8524  -21416210.02048 -16672725.39746  23010737.3504   23010749.1334
     -2804.3124      -2185.1754
  24175404.5004  -10168173.49247  -7899072.33845  24175404.7924   24175415.9934
      3319.4284       2586.5604
  22591422.7184  -25003934.86048 -19196428.33247  22591423.4584   22591432.0484
     -2028.8524      -1580.9224
  22440852.4274  -14216744.22048 -10798788.65946  22440852.5014   22440863.3214
      2895.9274       2256.5634
 97  9 18  0 10 30.0000000  0  7G29G16G14G15G18G25G22
  21342378.6744  -33431336.34249 -25731799.92347  21342379.4914   21342387.8704
      -592.2484       -461.4924
  22273406.4554  -21803652.44648 -16712403.06247  22273406.7754   22273417.5934
      3280.0504       2555.8814
  20441445.2714  -35468840.95949 -27392272.52347  20441446.0064   20441455.2984
      1379.1084       1074.6304
  23026776.3634  -21331923.56248 -16607047.72046  23026776.8154   23026788.6124
     -2811.4314      -2190.7214
  24156473.7114  -10267655.98747  -7976591.06145  24156474.4334   24156484.9754
      3316.1584       2584.0154
  22603036.9744  -24942900.59548 -19148869.19347  22603038.0034   22603046.3194
     -2036.7984      -1587.1124
  22424367.1304  -14303375.30148 -10866293.31746  22424367.1944   22424377.6754
      2882.7544       2246.3024
 97  9 18  0 11  0.0000000  0  7G29G16G14G15G18G25G22
  21345774.6764  -33413489.09849 -25717892.98747  21345775.6424   21345783.5374
      -599.1654       -466.8824
  22254703.4054  -21901936.77748 -16788988.22447  22254703.9264   22254714.5884
      3270.6584       2548.5634
  20433612.3024  -35510002.03349 -27424346.07547  20433613.1554   20433622.7994
      1363.2954       1062.3074
  23042843.3214  -21247489.64748 -16541255.13846  23042844.0364   23042855.7624
     -2819.0704      -2196.6764
  24137548.5574  -10367106.31047  -8054084.71245  24137549.1234   24137560.3974
      3312.5014       2581.1634
  22614686.1414  -24881685.11548 -19101168.83446  22614687.1264   22614695.0044
     -2045.9374      -1594.2354
  22407944.7684  -14389675.63748 -10933540.26546  22407945.0534   22407955.4734
      2868.9634       2235.5534
 97  9 18  0 11 30.0000000  0  7G29G16G14G15G18G25G22
  21349221.4994  -33395375.08049 -25703778.16947  21349222.6134   21349230.5884
      -607.8884       -473.6794
  22236063.9424  -21999890.07848 -16865315.43647  22236064.1004   22236074.6854
      3260.1064       2540.3414
  20425882.8724  -35550620.83649 -27455997.07747  20425883.6544   20425892.9064
      1345.2244       1048.2264
  23058965.3424  -21162770.00748 -16475239.91846  23058965.4914   23058976.9764
     -2828.3864      -2203.9344
  24118654.8234  -10466392.85747  -8131450.74946  24118656.1104   24118666.4994
      3307.3874       2577.1834
  22626400.6284  -24820125.57148 -19053200.37346  22626401.5604   22626409.2664
     -2057.3324      -1603.1164
  22391613.1084  -14475499.43748 -11000415.88346  22391613.3094   22391623.5514
      2853.0364       2223.1424
 97  9 18  0 12  0.0000000  0  7G29G16G14G15G18G25G22
  21352690.4534  -33377145.26649 -25689573.12047  21352691.4144   21352699.6734
      -609.1494       -474.6614
  22217455.0144  -22097678.72348 -16941514.35447  22217455.5074   22217465.9684
      3257.3934       2538.2284
  20418227.1144  -35590851.91449 -27487345.95747  20418227.9154   20418237.2654
      1335.1574       1040.3814
  23075111.1594  -21077924.69248 -16409126.76246  23075111.2354   23075122.3804
     -2829.6304      -2204.9044
  24099761.8594  -10565676.45047  -8208814.48146  24099762.6954   24099773.8044
      3310.0834       2579.2824
  22638149.6714  -24758383.84748 -19005089.95346  22638150.4094   22638158.3144
     -2060.5464      -1605.6214
  22375343.6544  -14560993.96848 -11067034.93446  22375343.6074   22375354.0784
      2844.7674       2216.6994
 97  9 18  0 12 30.0000000  0  7G29G16G14G15G18G25G22
  21356193.0774  -33358739.33549 -25675230.83247  21356194.0534   21356202.4334
      -614.6174       -478.9224
  22198886.0994  -22195260.31448 -17017551.92947  22198886.4804   22198896.8864
      3251.2384       2533.4324
  20410654.0574  -35630648.96249 -27518356.63247  20410654.9264   20410664.4614
      1321.2774       1029.5674
  23091287.6694  -20992916.48348 -16342886.68246  23091287.6504   23091298.8444
     -2834.3444      -2208.5784
  24080875.8584  -10664924.12447  -8286150.21546  24080876.3784   24080887.1344
      3309.7374       2579.0134
  22649942.5234  -24696409.68148 -18956798.41846  22649943.4884   22649951.9064
     -2067.8574      -1611.3174
  22359147.0984  -14646105.16148 -11133355.27046  22359147.3284   22359158.1664
      2832.6014       2207.2204
 97  9 18  0 13  0.0000000  0  7G29G16G14G15G18G25G22
  21359736.1474  -33340120.60349 -25660722.73047  21359737.1104   21359745.3534
      -626.7064       -488.3414
  22180360.1994  -22292613.83248 -17093411.78147  22180360.7444   22180371.4614
      3238.9314       2523.8424
  20403169.5214  -35669980.71049 -27549004.73847  20403170.3194   20403179.7554
      1300.6964       1013.5294
  23107498.9564  -20907725.78748 -16276504.40546  23107499.2354   23107510.7784
     -2845.0574      -2216.9244
  24061999.8224  -10764117.86847  -8363443.95446  24062000.5774   24062010.7434
      3303.0934       2573.8374
  22661786.0544  -24634173.20648 -18908302.48046  22661786.7714   22661795.3054
     -2081.1114      -1621.6444
  22343030.8624  -14730799.08748 -11199350.46946  22343031.0144   22343041.3664
      2813.6164       2192.4254
 97  9 18  0 13 30.0000000  0  7G29G16G14G15G18G25G22
  21363322.1364  -33321275.67649 -25646038.36847  21363323.1544   21363331.3544
      -631.2844       -491.9104
  22161878.3634  -22389737.27848 -17169092.35847  22161878.9014   22161889.1694
      3233.9854       2519.9874
  20395777.1064  -35708828.96349 -27579276.09347  20395777.8374   20395786.9604
      1287.5664       1003.2974
  23123744.7624  -20822354.16348 -16209981.14646  23123745.1194   23123756.6394
     -2848.1724      -2219.3534
  24043136.0584  -10863247.20647  -8440687.49846  24043136.5754   24043146.8884
      3303.6444       2574.2644
  22673676.5414  -24571686.31548 -18859611.41746  22673677.4444   22673686.0954
     -2086.3964      -1625.7644
  22326997.4964  -14815054.13548 -11265003.69346  22326997.8034   22327008.1644
      2801.6004       2183.0644
 97  9 18  0 14  0.0000000  0  7G29G16G14G15G18G25G22
  21366941.4084  -33302255.09449 -25631217.13347  21366942.4564   21366950.9894
      -640.4524       -499.0524
  22143436.3094  -22486651.37648 -17244609.80947  22143436.7074   22143446.6984
      3223.0824       2511.4904
  20388467.4954  -35747241.81749 -27609208.17547  20388468.3024   20388477.3394
      1269.2194        989.0014
  23140017.4184  -20736839.66348 -16143346.56546  23140017.6764   23140029.6384
     -2856.7244      -2226.0154
  24024279.9814  -10962335.80547  -8517899.30046  24024280.7074   24024290.9344
      3298.3114       2570.1084
  22685605.8154  -24508998.54748 -18810763.82346  22685606.5654   22685615.2294
     -2096.7754      -1633.8504
  22311042.8414  -14898895.32148 -11330334.42846  22311043.2874   22311053.5274
      2783.9144       2169.2804
 97  9 18  0 14 30.0000000  0  7G29G16G14G15G18G25G22
  21370603.4144  -33283010.86049 -25616221.62647  21370604.5104   21370612.8714
      -641.1434       -499.5924
  22125048.0424  -22583283.31148 -17319907.40147  22125048.3174   22125058.1414
      3220.1064       2509.1724
  20381256.4894  -35785134.05649 -27638734.58647  20381257.5024   20381266.5294
      1258.1804        980.4014
  23156331.7844  -20651109.65448 -16076544.05346  23156331.7714   23156343.3584
     -2857.4474      -2226.5784
  24005447.2534  -11061304.46648  -8595017.66046  24005447.4954   24005458.1604
      3300.6724       2571.9524
  22697585.4254  -24446044.04948 -18761708.38346  22697586.3534   22697595.2224
     -2098.8914      -1635.4994
  22295182.2714  -14982243.38248 -11395280.90146  22295182.6374   22295192.6614
      2773.9364       2161.5074
 97  9 18  0 15  0.0000000  0  7G29G16G14G15G18G25G22
  21374285.8754  -33263662.16049 -25601144.72047  21374286.7724   21374295.1374
      -649.5284       -506.1264
  22106697.1434  -22679716.66548 -17395050.25047  22106697.5014   22106707.6904
      3208.2214       2499.9114
  20374128.1344  -35822596.12349 -27667925.80047  20374128.8934   20374137.7674
      1238.5754        965.1234
  23172668.4594  -20565260.29948 -16009648.53746  23172668.5424   23172680.2014
     -2866.5294      -2233.6544
  23986620.2054  -11160238.54047  -8672109.05146  23986620.3914   23986630.7614
      3294.3084       2566.9924
  22709595.5064  -24382930.49448 -18712529.00846  22709596.3894   22709605.3954
     -2109.2764      -1643.5894
  22279397.9464  -15065191.50948 -11459915.74146  22279398.0194   22279407.9234
      2755.3314       2147.0084
 97  9 18  0 15 30.0000000  0  7G29G16G14G15G18G25G22
  21377984.0794  -33244226.41049 -25585999.98447  21377985.1474   21377993.4534
      -651.3084       -507.5114
  22088384.0694  -22775950.61848 -17470037.72247  22088384.5874   22088394.7134
      3202.1504       2495.1814
  20367082.1974  -35859623.07949 -27696777.96447  20367082.9534   20367091.7424
      1224.7254        954.3304
  23189025.8584  -20479298.92048 -15942665.73346  23189026.2434   23189037.7474
     -2869.4324      -2235.9154
  23967800.2234  -11259139.36147  -8749174.53346  23967800.5514   23967810.8554
      3293.9934       2566.7464
  22721635.1534  -24319660.49248 -18663227.72846  22721636.2574   22721645.3854
     -2113.9324      -1647.2204
  22263688.9694  -15147740.98948 -11524239.95346  22263689.3094   22263699.2814
      2742.9064       2137.3284
 97  9 18  0 16  0.0000000  0  7G29G16G14G15G18G25G22
  21381705.5354  -33224672.06449 -25570762.83547  21381706.4864   21381714.4024
      -655.6144       -510.8684
  22070119.9614  -22871930.64048 -17544827.31947  22070120.2864   22070130.6204
      3193.4614       2488.4114
  20360129.8754  -35896157.96849 -27725246.69947  20360130.5344   20360139.4154
      1207.6894        941.0564
  23205414.1654  -20393179.87248 -15875560.07346  23205414.4764   23205426.2044
     -2874.8784      -2240.1634
  23948994.6854  -11357961.43347  -8826178.67446  23948995.7084   23949005.3084
      3291.0804       2564.4714
  22733714.6854  -24256181.86348 -18613763.88346  22733716.0294   22733724.7094
     -2121.1844      -1652.8704
  22248063.1814  -15229855.43848 -11588225.18246  22248063.7124   22248073.6344
      2728.3484       2125.9834
 97  9 18  0 16 30.0000000  0  7G29G16G14G15G18G25G22
  21385454.9314  -33204967.94649 -25555408.98047  21385455.9534   21385463.9114
      -658.1614       -512.8534
  22051906.6874  -22967639.67148 -17619405.75847  22051907.0944   22051917.1484
      3186.9464       2483.3334
  20353277.3564  -35932167.98849 -27753306.44647  20353278.0774   20353287.0664
      1192.9964        929.6084
  23221833.7384  -20306893.30248 -15808323.87746  23221834.3084   23221846.3124
     -2877.6104      -2242.2884
  23930205.9784  -11456695.54947  -8903114.27746  23930206.2384   23930217.8724
      3291.0824       2564.4734
  22745838.3924  -24192471.97748 -18564119.83146  22745839.5444   22745848.5274
     -2126.2324      -1656.8064
  22232521.0384  -15311528.20648 -11651866.23246  22232521.4144   22232531.7784
      2716.3684       2116.6474
 97  9 18  0 17  0.0000000  0  7G29G16G14G15G18G25G22
  21389225.9284  -33185150.66549 -25539966.94847  21389226.9814   21389235.0374
      -663.4044       -516.9394
  22033736.5304  -23063124.09848 -17693809.18247  22033737.1094   22033747.1394
      3178.5154       2476.7654
  20346512.0894  -35967719.39649 -27781008.83447  20346512.7254   20346521.9534
      1176.9604        917.1114
  23238274.2234  -20220502.46248 -15741006.43746  23238274.1024   23238286.0404
     -2881.9934      -2245.7054
  23911422.4054  -11555403.89547  -8980029.77046  23911422.8784   23911434.3104
      3289.2444       2563.0464
  22757996.5834  -24128581.67648 -18514335.20946  22757997.7194   22758006.4034
     -2133.1914      -1662.2274
  22217053.0384  -15392813.15448 -11715205.08946  22217053.4334   22217063.1214
      2702.3764       2105.7464
 97  9 18  0 17 30.0000000  0  7G29G16G14G15G18G25G22
  21393035.6504  -33165131.36249 -25524367.49647  21393036.5164   21393044.6964
      -670.6464       -522.5804
  22015622.1304  -23158317.02048 -17767985.45747  22015622.5284   22015632.5504
      3168.0294       2468.5934
  20339844.3004  -36002757.56949 -27808311.29547  20339845.2124   20339853.9264
      1159.4284        903.4504
  23254744.9994  -20133944.57048 -15673558.82846  23254745.7264   23254757.6444
     -2888.1524      -2250.5054
  23892657.0904  -11654018.09447  -9056871.92446  23892657.5664   23892668.5314
      3285.5084       2560.1354
  22770199.0114  -24064457.95648 -18464368.69046  22770200.1084   22770208.8674
     -2141.3184      -1668.5604
  22201671.7294  -15473644.26848 -11778190.31746  22201671.5714   22201681.1974
      2686.7344       2093.5574
 97  9 18  0 18  0.0000000  0  7G29G16G14G15G18G25G22
  21396874.9574  -33144955.42249 -25508645.99347  21396875.8734   21396884.1184
      -676.2924       -526.9814
  21997554.7074  -23253263.19248 -17841969.45547  21997554.9734   21997564.8184
      3159.8474       2462.2174
  20333263.0644  -36037344.61549 -27835262.23347  20333263.6724   20333272.2494
      1144.5004        891.8194
  23271239.9954  -20047267.69248 -15606018.49646  23271240.0094   23271251.5244
     -2892.1844      -2253.6474
  23873900.7524  -11752583.00547  -9133675.67746  23873900.9474   23873910.9674
      3283.7514       2558.7694
  22782433.9954  -24000161.96048 -18414267.93346  22782434.9204   22782444.1224
     -2147.0074      -1672.9924
  22186366.7344  -15554067.90948 -11840858.03446  22186367.3674   22186377.2754
      2672.8504       2082.7394
 97  9 18  0 18 30.0000000  0  7G29G16G14G15G18G25G22
  21400751.6484  -33124582.94249 -25492771.33947  21400752.6104   21400760.4874
      -681.3914       -530.9544
  21979539.3954  -23347932.37448 -17915737.61947  21979539.8554   21979549.4844
      3151.7464       2455.9054
  20326770.5604  -36071463.39149 -27861848.28347  20326771.1614   20326779.7784
      1130.4584        880.8764
  23287762.6974  -19960439.48848 -15538360.25446  23287763.0364   23287774.1154
     -2896.0264      -2256.6394
  23855158.3064  -11851074.41047  -9210422.16646  23855158.4984   23855168.6424
      3282.4864       2557.7794
  22794708.1054  -23935661.77948 -18364008.07146  22794708.7714   22794717.8784
     -2152.6494      -1677.3894
  22171149.8494  -15634036.68348 -11903171.31046  22171149.9374   22171160.2254
      2658.6584       2071.6804
 97  9 18  0 19  0.0000000  0  7G29G16G14G15G18G25G22
  21404662.6684  -33104030.42849 -25476756.39647  21404663.5734   21404671.9534
      -689.5664       -537.3244
  21961575.5684  -23442334.90949 -17989298.00247  21961575.7324   21961585.5154
      3140.9864       2447.5224
  20320361.4664  -36105141.69749 -27888091.11447  20320362.2704   20320371.0494
      1113.8024        867.8974
  23304312.9944  -19873467.12248 -15470589.67446  23304313.2484   23304325.0704
     -2902.8794      -2261.9784
  23836429.9904  -11949492.08447  -9287111.19446  23836430.4254   23836440.5414
      3277.9354       2554.2334
  22807019.5314  -23870964.82348 -18313594.87546  22807020.4994   22807029.5114
     -2161.2564      -1684.0924
  22156017.7914  -15713555.63548 -11965134.06846  22156017.8154   22156028.3004
      2641.9244       2058.6424
 97  9 18  0 19 30.0000000  0  7G29G16G14G15G18G25G22
  21408604.7204  -33083315.59249 -25460614.97047  21408605.5904   21408613.8514
      -693.0234       -540.0184
  21943657.8644  -23536492.60149 -18062667.60747  21943658.0534   21943668.1964
      3134.5104       2442.4734
  20314035.7014  -36138384.15449 -27913994.32147  20314036.4144   20314045.1504
      1100.5314        857.5564
  23320886.9874  -19786368.30748 -15402720.57146  23320887.5614   23320898.9364
     -2905.3794      -2263.9294
  23817711.2154  -12047858.08547  -9363759.96446  23817711.5884   23817720.9904
      3278.2014       2554.4424
  22819366.9074  -23806080.25748 -18263035.50046  22819367.9104   22819376.6934
     -2166.1644      -1687.9194
  22140967.4204  -15792647.07948 -12026763.70146  22140967.4024   22140977.6354
      2629.1234       2048.6664
 97  9 18  0 20  0.0000000  0  7G29G16G14G15G18G25G22
  21412574.0264  -33062455.96949 -25444360.72447  21412575.1234   21412583.4174
      -698.7564       -544.4844
  21925784.4304  -23630418.08649 -18135856.26947  21925784.7384   21925794.9584
      3126.0394       2435.8734
  20307793.8924  -36171187.03249 -27939554.99747  20307794.3674   20307803.1714
      1085.2084        845.6164
  23337482.3814  -19699158.64048 -15334765.08846  23337482.7344   23337494.7314
     -2909.5554      -2267.1824
  23798996.3234  -12146202.77447  -9440392.13646  23798997.3294   23799007.0684
      3277.1034       2553.5874
  22831750.1974  -23741004.26948 -18212326.95246  22831751.3034   22831759.8334
     -2173.2494      -1693.4414
  22125998.6044  -15871306.43848 -12088056.65246  22125998.7924   22126009.1684
      2613.9344       2036.8294
 97  9 18  0 20 30.0000000  0  7G29G16G14G15G18G25G22
  21416578.5024  -33041412.05649 -25427962.87647  21416579.5834   21416587.7204
      -703.3704       -548.0814
  21907962.1124  -23724071.87249 -18208833.21547  21907962.6514   21907973.5014
      3118.2544       2429.8064
  20301641.2484  -36203517.63849 -27964747.67247  20301642.0654   20301650.9194
      1070.9394        834.4974
  23354103.0984  -19611821.25348 -15266710.07746  23354102.9454   23354114.3184
     -2912.1034      -2269.1694
  23780289.2194  -12244510.85648  -9516995.76846  23780290.2664   23780299.8684
      3277.3394       2553.7714
  22844176.1884  -23675707.44548 -18161446.33346  22844176.9974   22844185.4154
     -2178.9574      -1697.8904
  22111117.0454  -15949507.64748 -12148992.60746  22111117.5634   22111128.0354
      2600.3544       2026.2464
 97  9 18  0 21  0.0000000  0  7G29G16G14G15G18G25G22
  21420627.4434  -33020135.63849 -25411383.85447  21420628.4584   21420636.5834
      -710.6724       -553.7704
  21890201.3544  -23817405.90749 -18281561.00847  21890201.8084   21890212.0874
      3108.2504       2422.0124
  20295588.3754  -36235323.87949 -27989531.75547  20295589.3004   20295598.3274
      1053.5534        820.9504
  23370751.5474  -19524329.41248 -15198534.71746  23370751.9534   23370763.5404
     -2916.3214      -2272.4554
  23761596.7994  -12342738.98548  -9593537.09446  23761597.5064   23761608.1264
      3275.5224       2552.3524
  22856647.9804  -23610166.92848 -18110375.81746  22856648.7614   22856657.4074
     -2186.0024      -1703.3804
  22096328.4044  -16027225.70648 -12209552.07346  22096328.5404   22096338.6734
      2585.0814       2014.3464
 97  9 18  0 21 30.0000000  0  7G29G16G14G15G18G25G22
  21424702.8664  -32998719.28649 -25394695.79847  21424703.8534   21424711.9894
      -717.3614       -558.9814
  21872485.7514  -23910503.05049 -18354104.21147  21872486.0824   21872496.0654
      3097.8364       2413.8974
  20289625.4874  -36266660.09549 -28013949.58247  20289626.3144   20289635.2334
      1035.2544        806.6914
  23387411.3864  -19436780.49248 -15130314.87746  23387411.5624   23387423.3694
     -2920.6664      -2275.8404
  23742902.6434  -12440983.19247  -9670090.96446  23742903.0074   23742912.6094
      3273.4514       2550.7394
  22869145.1744  -23544493.07948 -18059201.40746  22869146.1184   22869154.8744
     -2192.6264      -1708.5394
  22081616.0914  -16104537.65448 -12269795.09446  22081616.1764   22081626.7064
      2568.6304       2001.5284
 97  9 18  0 22  0.0000000  0  7G29G16G14G15G18G25G22
  21428815.3274  -32977108.97449 -25377856.59647  21428816.3714   21428824.2044
      -723.1774       -563.5144
  21854829.8514  -24003285.54049 -18426402.23147  21854830.2234   21854840.0414
      3087.8884       2406.1444
  20283765.7884  -36297453.75449 -28037944.63747  20283766.4624   20283775.2704
      1017.8964        793.1654
  23404095.3984  -19349105.70648 -15061996.96546  23404095.8344   23404108.4434
     -2924.1514      -2278.5564
  23724220.4474  -12539152.37647  -9746586.37946  23724221.2814   23724230.9034
      3271.1564       2548.9534
  22881679.1174  -23478626.03948 -18007876.46546  22881680.1524   22881689.0294
     -2198.2434      -1712.9154
  22066995.7804  -16181365.89948 -12329661.20646  22066995.9964   22067006.4054
      2553.5634       1989.7874
 97  9 18  0 22 30.0000000  0  7G29G16G14G15G18G25G22
  21432962.2634  -32955315.63649 -25360874.77347  21432963.2464   21432971.4584
      -729.2524       -568.2494
  21837232.2114  -24095762.42649 -18498462.12047  21837232.5464   21837242.1414
      3077.7764       2398.2674
  20278007.8194  -36327711.52649 -28061522.12447  20278008.5854   20278017.3264
       999.7704        779.0414
  23420802.4404  -19261311.73948 -14993586.19846  23420802.8024   23420814.9184
     -2928.3054      -2281.7944
  23705556.4924  -12637234.25948  -9823013.76646  23705557.3424   23705567.5194
      3267.9834       2546.4754
  22894246.6484  -23412583.44548 -17956414.73046  22894247.8544   22894257.0724
     -2204.1914      -1717.5514
  22052463.4384  -16257735.46948 -12389169.90546  22052463.6154   22052473.5214
      2538.0974       1977.7354
 97  9 18  0 23  0.0000000  0  7G29G16G14G15G18G25G22
  21437144.2684  -32933338.24249 -25343749.52747  21437145.3684   21437153.4544
      -738.5434       -575.4874
  21819691.6534  -24187938.71449 -18570287.77047  21819691.9964   21819701.8374
      3064.7444       2388.1124
  20272354.2854  -36357420.85949 -28084672.25347  20272355.0794   20272363.5494
       978.3234        762.3304
  23437534.6524  -19173385.05348 -14925072.01346  23437534.8724   23437547.0674
     -2936.0304      -2287.8084
  23686912.0214  -12735211.27948  -9899359.43546  23686912.6254   23686923.6284
      3261.2194       2541.2064
  22906850.4304  -23346352.50348 -17904806.22646  22906850.9764   22906860.1534
     -2214.0564      -1725.2364
  22038021.0394  -16333631.17948 -12448309.36246  22038021.1224   22038031.4754
      2518.8234       1962.7174
 97  9 18  0 23 30.0000000  0  7G29G16G14G15G18G25G22
  21441356.6534  -32911201.57949 -25326500.17747  21441357.7884   21441365.9074
      -738.3734       -575.3564
  21802203.1534  -24279840.67449 -18641899.65947  21802203.5624   21802213.7734
      3061.2394       2385.3804
  20266798.1924  -36386618.83449 -28107423.92447  20266798.9004   20266807.3084
       967.4554        753.8624
  23454289.1504  -19085337.77848 -14856463.85046  23454289.4404   23454302.0464
     -2934.6444      -2286.7324
  23668285.2104  -12833096.57648  -9975633.65246  23668285.7694   23668295.4834
      3263.5494       2543.0254
  22919490.4204  -23279927.78348 -17853046.72846  22919491.3684   22919500.5214
     -2215.3494      -1726.2454
  22023668.7614  -16409050.02748 -12507077.23746  22023669.1314   22023679.7234
      2508.1734       1954.4174
 97  9 18  0 24  0.0000000  0  7G29G16G14G15G18G25G22
  21445595.6204  -32888928.12149 -25309144.23147  21445596.4094   21445604.5164
      -744.0154       -579.7524
  21784756.7794  -24371520.57149 -18713338.50947  21784757.2014   21784767.7924
      3053.2724       2379.1724
  20261325.1754  -36415379.96749 -28129835.19047  20261325.8064   20261334.2404
       952.5284        742.2294
  23471059.5794  -18997209.93848 -14787792.92746  23471059.6674   23471072.1654
     -2937.9224      -2289.2834
  23649667.7904  -12930927.39248 -10051865.40646  23649668.7804   23649679.3764
      3261.1444       2541.1514
  22932162.4934  -23213335.21148 -17801156.43446  22932163.3814   22932172.5584
     -2221.4904      -1731.0294
  22009400.1994  -16484031.08648 -12565503.98246  22009400.5974   22009411.3614
      2493.0614       1942.6434
 97  9 18  0 24 30.0000000  0  7G29G16G14G15G18G25G22
  21449874.9394  -32866439.21949 -25291620.41447  21449875.8404   21449884.0574
      -752.2354       -586.1574
  21767363.9734  -24462918.91549 -18784557.96847  21767364.4084   21767375.0034
      3042.6774       2370.9164
  20255943.5254  -36443659.23549 -28151870.98447  20255944.3564   20255953.0314
       935.5574        729.0064
  23487854.8664  -18908949.34448 -14719018.55546  23487855.2584   23487867.8164
     -2943.2314      -2293.4234
  23631071.2074  -13028652.38348 -10128014.69146  23631072.0604   23631084.4124
      3256.5484       2537.5664
  22944878.0184  -23146514.48748 -17749088.36746  22944878.9534   22944888.1254
     -2230.3514      -1737.9344
  21995228.2174  -16558507.09948 -12623537.18946  21995228.3444   21995239.0074
      2474.9074       1928.4984
 97  9 18  0 25  0.0000000  0  7G29G16G14G15G18G25G22
  21454183.9394  -32843796.05649 -25273976.39247  21454184.9264   21454193.0504
      -759.7924       -592.0444
  21750017.7024  -24554074.17049 -18855588.00647  21750018.2334   21750029.0294
      3031.6584       2362.3294
  20250643.8604  -36471508.82049 -28173571.95647  20250644.8004   20250653.2494
       918.3454        715.5944
  23504663.7924  -18820617.89548 -14650188.97146  23504664.0354   23504676.9644
     -2948.1114      -2297.2264
  23612485.8994  -13126316.81648 -10204116.78946  23612487.0094   23612498.9734
      3251.9274       2533.9654
  22957628.3614  -23079510.68748 -17696877.65346  22957629.1364   22957637.8114
     -2239.0534      -1744.7154
  21981144.8344  -16632517.93848 -12681207.92446  21981144.7814   21981154.9154
      2456.5464       1914.1894
 97  9 18  0 25 30.0000000  0  7G29G16G14G15G18G25G22
  21458532.0474  -32820944.72149 -25256170.16447  21458533.1654   21458541.5404
      -762.9734       -594.5224
  21732733.5814  -24644905.37949 -18926365.54147  21732733.8684   21732744.3934
      3024.2854       2356.5854
  20245442.0104  -36498847.72849 -28194874.99647  20245442.5234   20245450.8404
       904.6614        704.9304
  23521497.2524  -18732156.78748 -14581258.36246  23521497.3074   23521510.3934
     -2948.6634      -2297.6564
  23593924.8494  -13223859.67748 -10280124.16946  23593925.4944   23593936.5594
      3251.7474       2533.8284
  22970423.1554  -23012273.68548 -17644485.21146  22970424.1164   22970433.0104
     -2242.5824      -1747.4644
  21967163.1024  -16705990.24248 -12738459.02247  21967163.4494   21967173.7594
      2442.3044       1903.0934
 97  9 18  0 26  0.0000000  0  7G29G16G14G15G18G25G22
  21462913.5464  -32797921.77149 -25238230.20347  21462914.5384   21462922.5124
      -768.3334       -598.7014
  21715507.7824  -24735427.60749 -18996902.31547  21715508.1144   21715518.5044
      3013.7124       2348.3464
  20240334.9224  -36525682.93149 -28215785.54747  20240335.6004   20240344.4264
       887.5594        691.6054
  23538348.0154  -18643607.03748 -14512258.67746  23538348.3024   23538361.3764
     -2951.3134      -2299.7204
  23575377.6974  -13321327.73748 -10356073.25946  23575378.3074   23575388.5644
      3249.4984       2532.0744
  22983251.3684  -22944861.86748 -17591956.53546  22983252.2254   22983260.8544
     -2248.0934      -1751.7604
  21953276.2384  -16778966.43748 -12795323.53147  21953276.6644   21953286.8034
      2426.1734       1890.5244
 97  9 18  0 26 30.0000000  0  7G29G16G14G15G18G25G22
  21467312.5304  -32774803.72949 -25220216.14647  21467313.4294   21467321.7014
      -772.2464       -601.7494
  21698334.6894  -24825672.24549 -19067222.78647  21698335.2774   21698345.2234
      3003.2854       2340.2214
  20235317.7134  -36552050.01249 -28236331.32347  20235318.3964   20235326.7594
       870.6854        678.4564
  23555203.1384  -18555031.74448 -14443239.08646  23555203.4914   23555217.0454
     -2953.1234      -2301.1304
  23556831.0494  -13418789.94148 -10432017.78946  23556831.4474   23556842.5754
      3248.6034       2531.3744
  22996099.3554  -22877344.68448 -17539345.74646  22996100.6244   22996109.1094
     -2252.4364      -1755.1464
  21939472.0834  -16851508.17948 -12851849.50447  21939472.2804   21939482.3784
      2410.5564       1878.3534
 97  9 18  0 27  0.0000000  0  7G29G16G14G15G18G25G22
  21471742.9474  -32751523.01449 -25202075.33247  21471743.8054   21471751.9234
      -776.3574       -604.9534
  21681228.4834  -24915567.69249 -19137271.15847  21681228.7394   21681239.1084
      2993.3944       2332.5154
  20230406.8214  -36577853.55249 -28256437.97847  20230407.7354   20230416.2324
       853.2644        664.8814
  23572077.5304  -18466356.96147 -14374141.97546  23572078.1594   23572090.8444
     -2955.0044      -2302.5954
  23538295.6234  -13516191.70748 -10507915.22246  23538296.4654   23538307.0604
      3248.5474       2531.3294
  23008979.4594  -22809660.70448 -17486604.99446  23008980.6234   23008989.2014
     -2256.2574      -1758.1214
  21925765.4234  -16923537.85348 -12907976.46947  21925765.6784   21925775.5004
      2394.8654       1866.1274
 97  9 18  0 27 30.0000000  0  7G29G16G14G15G18G25G22
  21476191.0514  -32728146.24249 -25183859.67047  21476192.1784   21476200.4084
      -783.0454       -610.1664
  21664171.0714  -25005205.80749 -19207119.01947  21664171.3414   21664181.3644
      2981.6574       2323.3684
  20225586.3894  -36603185.81149 -28276177.39547  20225587.2154   20225595.6234
       834.7714        650.4704
  23588956.0704  -18377664.96647 -14305031.44946  23588955.8074   23588968.5484
     -2958.7774      -2305.5374
  23519753.4874  -13613633.79648 -10583844.06946  23519754.3224   23519764.2764
      3246.4914       2529.7314
  23021872.8574  -22741904.65748 -17433808.09146  23021874.0254   23021883.0284
     -2261.9294      -1762.5424
  21912140.1984  -16995135.73148 -12963766.97347  21912140.4504   21912150.7084
      2377.3934       1852.5134
 97  9 18  0 28  0.0000000  0  7G29G16G14G15G18G25G22
  21480683.5744  -32704538.14749 -25165463.75947  21480684.5654   21480693.0174
      -788.8114       -614.6574
  21647184.2964  -25094469.23049 -19276674.91147  21647184.6494   21647194.9904
      2971.2604       2315.2674
  20220874.3844  -36627946.59849 -28295471.51247  20220875.2624   20220883.7474
       817.9494        637.3634
  23605859.5634  -18288833.51847 -14235812.26546  23605860.1774   23605873.4904
     -2961.3684      -2307.5544
  23501229.6064  -13710976.74848 -10659695.68246  23501229.8924   23501240.3594
      3244.7794       2528.3984
  23034806.8334  -22673937.27648 -17380846.51746  23034807.6154   23034816.5164
     -2267.4214      -1766.8244
  21898619.8464  -17066186.31748 -13019131.01947  21898620.1234   21898629.9524
      2361.1864       1839.8824
 97  9 18  0 28 30.0000000  0  8G 4G29G16G14G15G18G25G22
  24846280.4664   -4143770.91057  -2984705.50145  24846281.8894   24846291.5594
      2583.5304       2013.1384
  21485204.7344  -32680778.88449 -25146950.05747  21485205.7504   21485214.1304
      -795.5694       -619.9234
  21630250.8864  -25183453.78349 -19346013.50247  21630251.2684   21630261.3674
      2960.7564       2307.0834
  20216253.2924  -36652232.75049 -28314395.78247  20216254.0964   20216262.2634
       800.6894        623.9134
  23622774.0404  -18199946.72947 -14166549.97246  23622774.6914   23622787.9984
     -2964.7934      -2310.2264
  23482713.0354  -13808280.59648 -10735516.81946  23482713.4874   23482723.4624
      3241.5484       2525.8834
  23047768.1384  -22605825.35948 -17327772.31246  23047768.9324   23047778.3594
     -2273.9124      -1771.8784
  21885189.5964  -17136765.90348 -13074128.04447  21885189.3364   21885199.1074
      2343.7444       1826.2914
 97  9 18  0 29  0.0000000  0  8G 4G29G16G14G15G18G25G22
  24831563.3174   -4221114.03347  -3044972.88345  24831564.1994   24831572.8224
      2571.9984       2004.1544
  21489755.1234  -32656867.70349 -25128317.97747  21489756.0004   21489764.3804
      -799.1064       -622.6804
  21613366.3974  -25272181.00549 -19415151.57747  21613367.0114   21613377.1154
      2953.4924       2301.4214
  20211720.2414  -36676053.03949 -28332957.04647  20211721.0814   20211729.2164
       786.8624        613.1384
  23639698.8594  -18111009.69447 -14097248.51546  23639698.7944   23639712.6724
     -2964.8644      -2310.2794
  23464207.8384  -13905524.58248 -10811291.31546  23464208.9824   23464218.9184
      3240.6444       2525.1784
  23060757.6964  -22537562.65248 -17274580.63146  23060758.6594   23060768.2414
     -2277.5494      -1774.7114
  21871846.8624  -17206878.83048 -13128761.44847  21871847.3094   21871857.2784
      2329.8184       1815.4414
 97  9 18  0 29 30.0000000  0  8G 4G29G16G14G15G18G25G22
  24816923.0684   -4298045.73247  -3104919.63345  24816923.6594   24816934.1404
      2556.7864       1992.3024
  21494337.1694  -32632790.30349 -25109556.38047  21494337.9284   21494346.3734
      -805.7944       -627.8914
  21596538.9254  -25360611.83049 -19484058.69347  21596539.2234   21596549.6524
      2942.1424       2292.5774
  20207277.8454  -36699397.26449 -28351147.35547  20207278.5494   20207286.7984
       769.5314        599.6334
  23656635.8824  -18022007.38947 -14027896.20846  23656635.6774   23656648.7964
     -2968.4104      -2313.0424
  23445723.2054  -14002663.62648 -10886984.03046  23445723.9214   23445734.4544
      3235.4554       2521.1344
  23073781.3674  -22469122.79548 -17221250.90946  23073782.3904   23073791.9654
     -2284.8844      -1780.4264
  21858595.6954  -17276514.23948 -13183022.75747  21858595.9444   21858605.6684
      2312.6384       1802.0514
 97  9 18  0 30  0.0000000  0  8G 4G29G16G14G15G18G25G22
  24802364.8114   -4374555.03847  -3164537.22145  24802365.3504   24802375.3084
      2544.3674       1982.6254
  21498949.6654  -32608549.46449 -25090667.42647  21498950.6924   21498958.9964
      -809.4064       -630.7064
  21579768.6494  -25448740.36049 -19552730.25147  21579768.8844   21579779.0004
      2933.9224       2286.1734
  20202930.4694  -36722245.73949 -28368951.35747  20202931.0754   20202939.3684
       754.3944        587.8394
  23673585.1524  -17932941.07747 -13958494.01046  23673585.2814   23673597.7764
     -2968.5684      -2313.1654
  23427259.9944  -14099688.29348 -10962587.61646  23427260.9414   23427271.8844
      3233.7324       2519.7894
  23086839.9304  -22400502.61448 -17167780.66446  23086840.6184   23086849.8034
     -2288.8294      -1783.5044
  21845438.0284  -17345660.58248 -13236902.96747  21845438.2464   21845447.7594
      2297.8864       1790.5594
 97  9 18  0 30 30.0000000  0  8G 4G29G16G14G15G18G25G22
  24787889.4994   -4450614.01647  -3223803.92445  24787891.3274   24787901.3304
      2526.5644       1968.7614
  21503596.3584  -32584132.85349 -25071641.50347  21503597.1444   21503605.2694
      -817.9344       -637.3514
  21563057.7064  -25536557.18949 -19621158.92747  21563058.0024   21563068.2144
      2920.8004       2275.9474
  20198682.9534  -36744565.26649 -28386343.19647  20198683.5534   20198692.5314
       733.9254        571.8914
  23690546.5524  -17843804.43147 -13889037.02746  23690546.9094   23690559.3044
     -2973.4614      -2316.9774
  23408819.1414  -14196599.08048 -11038102.45046  23408819.3424   23408829.3984
      3227.6264       2515.0304
  23099929.8394  -22331712.56548 -17114178.04646  23099930.6564   23099939.8744
     -2296.7344      -1789.6624
  21832377.3084  -17414293.44848 -13290383.07447  21832377.6924   21832387.2794
      2278.0754       1775.1234
 97  9 18  0 31  0.0000000  0  8G 4G29G16G14G15G18G25G22
  24773501.2964   -4526232.67147  -3282727.51245  24773501.6854   24773511.2354
      2512.5234       1957.8064
  21508269.0504  -32559576.78449 -25052506.91147  21508269.9924   21508278.2604
      -821.3044       -639.9764
  21546401.6254  -25624084.13949 -19689361.72447  21546402.0654   21546412.2774
      2912.1694       2269.2224
  20194531.4314  -36766380.55949 -28403342.12347  20194532.2864   20194540.9894
       718.3054        559.7184
  23707514.0094  -17754637.19347 -13819556.20945  23707514.4234   23707527.4594
     -2973.1164      -2316.7064
  23390387.5004  -14293451.15748 -11113571.54846  23390388.1464   23390398.1204
      3227.2444       2514.7364
  23113041.4824  -22262809.79948 -17060487.59346  23113042.5914   23113051.4724
     -2298.8244      -1791.2904
  21819407.7644  -17482446.34748 -13343489.17747  21819408.0504   21819417.8654
      2263.2074       1763.5374
 97  9 18  0 31 30.0000000  0  8G 4G29G16G14G15G18G25G22
  24759201.0534   -4601369.76747  -3341275.87045  24759202.7484   24759212.2554
      2496.5154       1945.3414
  21512972.1834  -32534859.82949 -25033246.95547  21512973.1594   21512981.6594
      -826.8094       -644.2674
  21529804.8634  -25711303.23149 -19757324.63447  21529805.2234   21529815.2484
      2902.2694       2261.5084
  20190481.0784  -36787666.04149 -28419928.20447  20190481.9224   20190490.1004
       700.4564        545.8094
  23724490.9404  -17665424.68447 -13750040.09845  23724491.6684   23724503.9864
     -2974.6774      -2317.9284
  23371968.0754  -14390245.08148 -11188995.33746  23371968.9934   23371979.1484
      3225.4934       2513.3684
  23126174.7244  -22193795.61048 -17006710.32346  23126175.6994   23126185.0804
     -2302.4564      -1794.1204
  21806536.7614  -17550087.91848 -13396196.84747  21806536.8224   21806546.4044
      2245.9394       1750.0814
 97  9 18  0 32  0.0000000  0  8G 4G29G16G14G15G18G25G22
  24745009.3414   -4675947.08347  -3399388.01445  24745009.6854   24745020.1994
      2480.9434       1933.1954
  21517723.4014  -32509893.21249 -25013792.44947  21517724.2504   21517732.6104
      -832.0944       -648.3864
  21513279.1484  -25798149.52949 -19824997.05147  21513279.2684   21513288.7694
      2892.8614       2254.1774
  20186548.2624  -36808331.98749 -28436031.54147  20186549.0464   20186557.5684
       682.8214        532.0704
  23741491.9744  -17576085.22947 -13680425.09345  23741492.5604   23741504.4034
     -2975.7574      -2318.7694
  23353573.4104  -14486908.58548 -11264317.50146  23353574.2584   23353585.0694
      3224.1274       2512.3034
  23139344.5374  -22124589.29048 -16952783.34146  23139345.4484   23139354.4494
     -2305.7954      -1796.7254
  21793779.7084  -17617127.03848 -13448435.07047  21793779.8844   21793788.9564
      2229.0424       1736.9164
 97  9 18  0 32 30.0000000  0  8G 4G29G16G14G15G18G25G22
  24730898.1704   -4750109.33047  -3457176.75745  24730898.8354   24730909.8134
      2464.0814       1920.0674
  21522496.0434  -32484814.18349 -24994250.35747  21522496.8664   21522505.1434
      -839.1814       -653.9074
  21496798.5184  -25884752.55749 -19892479.91847  21496798.8294   21496808.7444
      2881.1584       2245.0584
  20182706.7464  -36828521.21349 -28451763.40647  20182707.4414   20182715.5924
       663.7604        517.2174
  23758489.2194  -17486760.01147 -13610821.16545  23758490.0834   23758503.0234
     -2978.5614      -2320.9534
  23335178.6304  -14583576.96448 -11339643.45246  23335179.1894   23335190.3874
      3221.0684       2509.9234
  23152524.7194  -22055325.40748 -16898811.50546  23152525.7134   23152535.2634
     -2311.2544      -1800.9784
  21781107.8134  -17683714.50948 -13500321.35647  21781108.0904   21781117.8544
      2210.7514       1722.6624
 97  9 18  0 33  0.0000000  0  8G 4G29G16G14G15G18G25G22
  24716885.6244   -4823742.44947  -3514553.15745  24716887.1274   24716896.4414
      2449.6634       1908.8284
  21527315.5174  -32459487.04549 -24974514.93247  21527316.5724   21527324.7844
      -844.7114       -658.2184
  21480392.6084  -25970964.43549 -19959657.98247  21480393.2094   21480403.4884
      2870.9414       2237.0964
  20178978.6814  -36848108.57149 -28467026.28047  20178979.6324   20178988.0794
       646.7374        503.9504
  23775510.0654  -17397317.32547 -13541125.71145  23775510.5204   23775523.3294
     -2979.6174      -2321.7744
  23316807.8384  -14680115.80848 -11414868.48546  23316808.9044   23316819.0824
      3219.3424       2508.5754
  23165744.3644  -21985856.45448 -16844679.88546  23165745.3354   23165754.8144
     -2315.5144      -1804.2964
  21768547.6984  -17749718.16948 -13551752.73647  21768548.0644   21768557.8664
      2193.9864       1709.5984
 97  9 18  0 33 30.0000000  0  8G 4G29G16G14G15G18G25G22
  24702949.0914   -4896972.83047  -3571615.75945  24702950.7964   24702961.9204
      2433.2134       1896.0084
  21532164.2954  -32434007.88149 -24954661.03747  21532165.1044   21532173.3694
      -853.0804       -664.7374
  21464041.8364  -26056887.36549 -20026610.89747  21464042.4234   21464052.5234
      2857.8754       2226.9144
  20175344.3064  -36867209.89049 -28481910.42347  20175345.0724   20175353.4304
       627.6334        489.0664
  23792533.4234  -17307863.79847 -13471421.81345  23792533.2384   23792546.4664
     -2983.1774      -2324.5484
  23298445.0094  -14776612.78848 -11490060.89746  23298445.5954   23298455.9924
      3214.4624       2504.7764
  23178986.7204  -21916266.86648 -16790454.25446  23178987.6044   23178996.8984
     -2323.1574      -1810.2524
  21756079.3414  -17815241.50948 -13602809.83547  21756079.4934   21756089.0304
      2175.0444       1694.8384
 97  9 18  0 34  0.0000000  0  8G 4G29G16G14G15G18G25G22
  24689094.3744   -4969778.04147  -3628347.08245  24689096.1524   24689105.8794
      2419.6394       1885.4234
  21537047.0034  -32408348.55749 -24934666.76747  21537047.9714   21537056.2914
      -858.2314       -668.7514
  21447754.9394  -26142475.68649 -20093303.08047  21447755.4094   21447765.4174
      2847.1944       2218.5934
  20171802.7194  -36885818.89849 -28496410.94547  20171803.4944   20171812.3424
       612.2654        477.0904
  23809561.5534  -17218380.08947 -13401694.38945  23809561.8254   23809574.4644
     -2983.1244      -2324.5024
  23280096.9664  -14873033.14348 -11565193.59946  23280097.4934   23280107.8934
      3212.9174       2503.5734
  23192260.3524  -21846513.76748 -16736101.21346  23192261.2984   23192270.6714
     -2327.6804      -1813.7804
  21743704.8514  -17880269.05148 -13653480.59347  21743704.9924   21743714.7914
      2159.4034       1682.6514
 97  9 18  0 34 30.0000000  0  8G 4G29G16G14G15G18G25G22
  24675321.6474   -5042161.31747  -3684749.57445  24675323.1594   24675332.4324
      2404.6334       1873.7294
  21541961.7224  -32382521.69449 -24914541.94447  21541962.6994   21541970.7834
      -864.5774       -673.6964
  21431531.5044  -26227730.30149 -20159735.22947  21431531.9634   21431542.3094
      2835.2544       2209.2884
  20168350.5764  -36903961.31349 -28510547.89147  20168351.1274   20168360.0164
       595.9544        464.3804
  23826591.4584  -17128886.00547 -13331958.89245  23826591.4514   23826604.8584
     -2984.3124      -2325.4324
  23261759.3094  -14969399.08448 -11640283.90146  23261760.0834   23261770.8074
      3210.2424       2501.4854
  23205560.8764  -21776621.20848 -16681639.49846  23205561.4064   23205570.7094
     -2333.0244      -1817.9404
  21731423.0294  -17944810.03348 -13703772.22147  21731423.0054   21731432.6534
      2141.9894       1669.0814
 97  9 18  0 35  0.0000000  0  8G 4G29G16G14G15G18G25G22
  24661633.4884   -5114092.97947  -3740800.21845  24661634.3904   24661645.1774
      2389.6274       1862.0454
  21546911.5754  -32356509.58549 -24894272.77747  21546912.6534   21546920.5474
      -870.4714       -678.2884
