     2.10           OBSERVATION DATA    G (GPS)             RINEX VERSION / TYPE
teqc  2000Feb29     CORS/NGS/NOAA       20000919 00:47:37UTCPGM / RUN BY / DATE
HP-UX 10.20|PA-RISC|cc A.10.32.03|=+|=|                     COMMENT
BIT 2 OF LLI FLAGS DATA COLLECTED UNDER A/S CONDITION       COMMENT
van1                                                        MARKER NAME
xxx                                                         MARKER NUMBER
CORS/NGS/NOAA       U.S. Coast Guard                        OBSERVER / AGENCY
05399               ASHTECH   Z-XII3    RD00                REC # / TYPE / VERS
10913               ASH700829.3                             ANT # / TYPE
 -2665274.3948 -4513294.0773  3622149.8540                  APPROX POSITION XYZ 
        0.0000        0.0000        0.0000                  ANTENNA: DELTA H/E/N
     1     1                                                WAVELENGTH FACT L1/2
     7    C1    L1    L2    P1    P2    D1    D2            # / TYPES OF OBSERV
    30.0000                                                 INTERVAL
 SNR is mapped to RINEX snr flag value [1-9]                COMMENT
  L1: 1 -> 1;  90 -> 5; 210 -> 9                            COMMENT
  L2: 1 -> 1; 150 -> 5; 250 -> 9                            COMMENT
teqc windowed: delta = 86400.000 sec                        COMMENT
  2000     9    18     0     0   30.0000000     GPS         TIME OF FIRST OBS
                                                            END OF HEADER
 00  9 18  0  0 30.0000000  0  9G 1G19G27G 8G22G28G20G 3G13
  20834117.6834  -20009519.29349 -15393809.77247  20834117.4424   20834133.5994
      -920.9934       -717.6584
  20772770.7314  -22558525.67648 -17109424.75447  20772770.6094   20772786.8434
       -56.4764        -44.0094
  21972548.6984  -18867914.73748 -14491347.14447  21972548.4474   21972567.0894
      1221.8314        952.0724
  23454051.8264   -6642992.57448  -5147348.03146  23454051.4654   23454077.9194
      2276.0354       1773.5204
  23687314.0624    2131433.60847   1676577.46645  23687313.0684   23687332.8014
     -3700.2434      -2883.3124
  21394373.0494  -15181700.76349 -11397447.71247  21394372.6104   21394387.4724
     -1690.0374      -1316.9124
  23392979.6084   -5489984.45747  -3912898.53145  23392979.1054   23393003.5514
     -3822.9674      -2978.9244
  23762520.8524   -6693621.52947  -5052517.01745  23762520.5864   23762542.3514
       985.8684        768.2014
  21503527.1444  -19791194.89748 -15412940.44247  21503527.4434   21503542.9504
      1614.6884       1258.1954
 00  9 18  0  1  0.0000000  0  9G 1G19G27G 8G22G28G20G 3G13
  20839419.8614  -19981657.80749 -15372099.52547  20839419.4784   20839435.4954
      -935.6364       -729.0674
  20773123.5884  -22556671.91948 -17107980.21947  20773123.2474   20773139.7104
       -66.3144        -51.6754
  21965599.1844  -18904436.54248 -14519805.55147  21965598.7694   21965617.1344
      1213.7594        945.7804
  23441082.9394   -6711148.03748  -5200455.80146  23441082.3644   23441108.3914
      2268.4194       1767.5864
  23708467.5194    2242594.91747   1763197.04945  23708467.1894   23708485.4194
     -3709.7784      -2890.7444
  21404076.6834  -15130708.45049 -11357713.44947  21404076.3504   21404091.0714
     -1708.6344      -1331.4024
  23414827.0874   -5375173.58347  -3823435.96845  23414826.6764   23414851.7304
     -3830.2294      -2984.5754
  23756941.6354   -6722938.99347  -5075361.68145  23756941.8434   23756963.6574
       969.3934        755.3664
  21494341.9824  -19839462.86448 -15450551.74347  21494342.1394   21494358.1404
      1603.9884       1249.8594
 00  9 18  0  1 30.0000000  0  9G 1G19G27G 8G22G28G20G 3G13
  20844792.8694  -19953422.03749 -15350097.63047  20844792.6334   20844808.5384
      -946.9174       -737.8574
  20773519.6754  -22554587.92448 -17106356.27547  20773519.6274   20773536.2654
       -72.7684        -56.7054
  21958682.2674  -18940782.40548 -14548126.87347  21958682.0594   21958700.7984
      1209.1344        942.1784
  23428144.2184   -6779139.58748  -5253435.87146  23428143.5534   23428169.4244
      2264.0944       1764.2154
  23729662.4924    2353975.45447   1849987.37845  23729662.1414   23729680.5544
     -3715.9204      -2895.5314
  21413873.9274  -15079223.78349 -11317595.51747  21413873.5424   21413888.3594
     -1723.8344      -1343.2474
  23436704.0774   -5260209.60147  -3733854.12945  23436704.1734   23436729.9034
     -3834.1554      -2987.6384
  23751444.4904   -6751825.60647  -5097870.60945  23751444.0564   23751466.6844
       956.1814        745.0744
  21485205.9804  -19887473.14548 -15487962.26147  21485206.1644   21485221.4744
      1596.5514       1244.0614
 00  9 18  0  2  0.0000000  0  9G 1G19G27G 8G22G28G20G 3G13
  20850225.4044  -19924874.64149 -15327852.90247  20850225.0814   20850241.0924
      -957.7684       -746.3114
  20773948.1474  -22552337.28348 -17104602.47347  20773947.9134   20773964.4154
       -78.7964        -61.4014
  21951787.0124  -18977015.93548 -14576360.66847  21951786.8794   21951805.6884
      1204.9494        938.9184
  23415224.5104   -6847030.30048  -5306337.37446  23415223.7234   23415250.4164
      2260.3924       1761.3364
  23750886.4264    2465509.67747   1936897.41345  23750885.5494   23750905.0784
     -3721.4304      -2899.8224
  21423752.5214  -15027312.04249 -11277144.82447  21423752.0544   21423766.5914
     -1738.4904      -1354.6644
  23458598.5544   -5145158.63547  -3644204.49745  23458597.6624   23458623.5254
     -3837.3964      -2990.1654
  23746018.0724   -6780342.57347  -5120091.47645  23746018.2954   23746040.1674
       943.3714        735.0944
  21476107.4074  -19935286.79548 -15525219.55047  21476107.4664   21476122.7514
      1589.5174       1238.5814
 00  9 18  0  2 30.0000000  0  9G 1G19G27G 8G22G28G20G 3G13
  20855739.7684  -19895897.72549 -15305273.51147  20855739.3134   20855755.1124
      -973.0914       -758.2524
  20774430.3044  -22549803.78248 -17102628.25147  20774430.1104   20774446.5274
       -89.2324        -69.5334
  21944935.8464  -19013020.52048 -14604416.07847  21944935.6664   21944954.0634
      1196.2834        932.1644
  23402345.2694   -6914703.02348  -5359069.01846  23402345.0684   23402372.4724
      2252.0284       1754.8144
  23772161.1064    2577312.04547   2024016.20045  23772160.7524   23772180.2564
     -3731.2324      -2907.4664
  21433734.0714  -14974857.83049 -11236271.45747  21433733.7274   21433747.8474
     -1757.5484      -1369.5164
  23480530.9224   -5029906.39447  -3554398.00745  23480529.7404   23480555.8934
     -3845.1324      -2996.1914
  23740683.7854   -6808370.72347  -5141931.43545  23740683.3804   23740705.6334
       926.0554        721.5954
  21467068.7224  -19982784.94148 -15562230.98847  21467068.7804   21467083.9204
      1577.9584       1229.5734
 00  9 18  0  3  0.0000000  0  9G 1G19G27G 8G22G28G20G 3G13
  20861328.7524  -19866526.93849 -15282387.21047  20861328.4724   20861344.3394
      -986.8624       -768.9834
  20774959.3894  -22547024.15548 -17100462.25747  20774959.0774   20774975.2754
       -98.0284        -76.3884
  21938120.9284  -19048832.45748 -14632321.37647  21938120.6394   21938139.0204
      1189.2324        926.6704
  23389502.4454   -6982193.92448  -5411658.97846  23389502.3024   23389529.4194
      2245.3594       1749.6154
  23793480.0994    2689343.52247   2111313.54945  23793479.2584   23793499.4274
     -3739.4174      -2913.8344
  21443811.6474  -14921899.47849 -11195005.24647  21443811.3234   21443825.8534
     -1774.9434      -1383.0704
  23502492.8864   -4914492.02347  -3464465.17245  23502492.8184   23502519.0584
     -3851.0844      -3000.8264
  23735436.6244   -6835944.29447  -5163417.15145  23735436.2634   23735458.1484
       910.2484        709.2814
  21458083.2944  -20030001.57148 -15599023.07547  21458083.5334   21458099.1574
      1567.9044       1221.7434
 00  9 18  0  3 30.0000000  0  9G 1G19G27G 8G22G28G20G 3G13
  20866995.8384  -19836746.80149 -15259181.95747  20866995.4954   20867011.2634
      -998.7014       -778.2074
  20775537.7554  -22543983.81248 -17098093.13447  20775537.6104   20775553.6044
      -104.9194        -81.7554
  21931345.1934  -19084437.04648 -14660065.10947  21931345.1034   21931363.7084
      1184.1814        922.7344
  23376697.1394   -7049487.90048  -5464095.51946  23376696.7984   23376723.7034
      2240.5994       1745.9144
  23814844.9754    2801616.15947   2198798.86345  23814844.5594   23814862.8914
     -3745.7104      -2918.7424
  21453987.2494  -14868424.18549 -11153336.28447  21453986.8554   21454001.9424
     -1790.3194      -1395.0504
  23524488.9334   -4798903.68147  -3374396.77045  23524488.3914   23524514.4784
     -3855.0104      -3003.8924
  23730279.6214   -6863046.20247  -5184535.34945  23730279.1104   23730301.2394
       896.3094        698.4174
  21449155.0974  -20076920.85748 -15635583.47247  21449155.2454   21449170.8034
      1559.7954       1215.4234
 00  9 18  0  4  0.0000000  0  9G 1G19G27G 8G22G28G20G 3G13
  20872734.2474  -19806591.51649 -15235684.37647  20872733.8074   20872749.4204
     -1012.3544       -788.8474
  20776159.3634  -22540717.97748 -17095548.27947  20776159.1354   20776174.8464
      -113.5404        -88.4754
  21924602.8654  -19119869.61248 -14687674.80347  21924602.5324   21924620.9244
      1177.2824        917.3614
  23363922.2584   -7116620.01248  -5516405.95646  23363921.8814   23363947.4184
      2234.0374       1740.7984
  23836247.9824    2914091.65947   2286442.17345  23836247.4614   23836267.0714
     -3753.5244      -2924.8304
  21464255.0394  -14814468.34549 -11111292.86447  21464254.6374   21464269.5654
     -1807.4584      -1408.4044
  23546510.7444   -4683179.06747  -3284222.14845  23546510.6544   23546536.9824
     -3860.5974      -3008.2484
  23725205.3314   -6889709.18047  -5205311.51645  23725205.4214   23725227.0764
       880.5444        686.1334
  21440276.7084  -20123575.15548 -15671937.38247  21440276.9344   21440292.4964
      1549.8044       1207.6384
 00  9 18  0  4 30.0000000  0  9G 1G19G27G 8G22G28G20G 3G13
  20878561.9754  -19775966.76149 -15211820.94247  20878561.5524   20878577.3394
     -1029.6484       -802.3234
  20776841.4604  -22537133.61449 -17092755.20847  20776841.2304   20776857.4204
      -125.7804        -98.0134
  21917910.6704  -19155036.79948 -14715077.71547  21917910.4184   21917928.4884
      1166.8504        909.2304
  23351196.3124   -7183496.56848  -5568517.27346  23351195.4964   23351220.8934
      2223.9514       1732.9414
  23857708.4384    3026861.58547   2374314.99845  23857707.6094   23857725.4714
     -3764.8944      -2933.6864
  21474631.2454  -14759940.48349 -11068803.72947  21474630.9134   21474646.3854
     -1828.1054      -1424.4934
  23568576.1304   -4567227.38247  -3193870.62345  23568575.7804   23568603.0584
     -3869.7834      -3015.3974
  23720233.6404   -6915837.33247  -5225670.94745  23720233.5264   23720255.2144
       860.9944        670.8994
  21431467.1924  -20169869.55548 -15708010.83547  21431467.5264   21431482.7754
      1536.1624       1197.0034
 00  9 18  0  5  0.0000000  0  9G 1G19G27G 8G22G28G20G 3G13
  20884483.1204  -19744848.75549 -15187573.18847  20884482.9074   20884498.9064
     -1044.4494       -813.8554
  20777588.2224  -22533207.68049 -17089696.00747  20777588.1184   20777604.3774
      -135.5224       -105.6034
  21911273.4044  -19189915.63348 -14742255.93947  21911273.1894   21911291.2294
      1158.8494        902.9964
  23338522.2014   -7250093.96048  -5620411.05246  23338521.6534   23338547.8624
      2216.2764       1726.9564
  23879226.7094    3139946.87247   2462433.60645  23879225.9234   23879244.7094
     -3773.6874      -2940.5404
  21485120.6374  -14704819.35649 -11025852.34047  21485120.4084   21485135.7354
     -1846.1744      -1438.5724
  23590688.6364   -4451028.49147  -3103326.46445  23590687.9404   23590714.2514
     -3876.3294      -3020.5034
  23715368.5054   -6941405.42147  -5245593.96745  23715368.2974   23715389.0514
       843.9484        657.6154
  21422731.2534  -20215778.56448 -15743783.98847  21422731.2134   21422746.6884
      1524.8844       1188.2184
 00  9 18  0  5 30.0000000  0  9G 1G19G27G 8G22G28G20G 3G13
  20890480.4434  -19713333.72749 -15163016.06947  20890480.1144   20890495.9734
     -1055.5314       -822.4914
  20778381.9284  -22529038.12249 -17086446.97947  20778381.7014   20778397.9084
      -141.4714       -110.2384
  21904672.1364  -19224603.47648 -14769285.34047  21904672.0384   21904690.2024
      1154.6574        899.7284
  23325883.7254   -7316509.48848  -5672163.11446  23325882.7494   23325908.4224
      2212.3214       1723.8744
  23900786.7904    3253247.57047   2550720.24245  23900785.7714   23900805.1854
     -3778.6794      -2944.4474
  21495704.7134  -14649203.88849 -10982515.77547  21495704.1704   21495719.1964
     -1860.5184      -1449.7494
  23612828.4634   -4334682.00947  -3012667.27245  23612827.3614   23612853.6184
     -3879.0524      -3022.6224
  23710591.5154   -6966508.58147  -5265154.72645  23710590.8224   23710611.9604
       830.5714        647.1994
  21414050.0974  -20261397.81748 -15779331.36547  21414050.2494   21414065.4714
      1517.3594       1182.3544
 00  9 18  0  6  0.0000000  0  9G 1G19G27G 8G22G28G20G 3G13
  20896549.6324  -19681440.19449 -15138164.00647  20896549.1944   20896565.3504
     -1070.3884       -834.0674
  20779217.9014  -22524644.38749 -17083023.23447  20779217.6494   20779233.8154
      -151.1504       -117.7804
  21898103.9334  -19259119.77148 -14796181.05947  21898103.6544   21898121.7884
      1146.7284        893.5514
  23313275.9294   -7382762.09048  -5723788.21746  23313275.2244   23313301.2494
      2204.7244       1717.9614
  23922383.2914    3366741.57147   2639157.89845  23922382.9164   23922401.8764
     -3787.3104      -2951.1734
  21506378.1704  -14593115.33649 -10938810.56747  21506377.6834   21506392.5714
     -1878.4554      -1463.7254
  23634993.1704   -4218210.06047  -2921910.32045  23634992.3844   23635018.3284
     -3885.4014      -3027.5724
  23705899.1374   -6991164.10247  -5284366.67645  23705899.1784   23705919.5734
       813.3804        633.7964
  21405420.6724  -20306744.11148 -15814666.03247  21405420.9484   21405436.4314
      1506.0174       1173.5174
 00  9 18  0  6 30.0000000  0  9G 1G19G27G 8G22G28G20G 3G13
  20902694.5154  -19649147.49649 -15113000.90047  20902694.2664   20902710.4544
     -1081.6814       -842.8674
  20780100.5254  -22520006.70449 -17079409.40147  20780100.1834   20780116.4304
      -157.2544       -122.5354
  21891572.1684  -19293444.65948 -14822927.63347  21891572.0904   21891589.9354
      1142.4044        890.1814
  23300702.8594   -7448831.78548  -5775270.79246  23300702.1764   23300728.4944
      2200.6244       1714.7634
  23944020.6084    3480444.91347   2727758.30445  23944019.9104   23944039.6664
     -3792.1924      -2954.9594
  21517145.0124  -14536535.47649 -10894722.52247  21517144.5184   21517159.2484
     -1892.7894      -1474.8954
  23657185.6424   -4101595.78947  -2831042.44145  23657184.3974   23657210.8674
     -3888.0234      -3029.6124
  23701296.5184   -7015349.62847  -5303212.39145  23701296.4454   23701317.4054
       799.7184        623.1564
  21396847.8674  -20351796.06948 -15849771.35047  21396847.9194   21396863.2644
      1498.2214       1167.4414
 00  9 18  0  7  0.0000000  0  9G 1G19G27G 8G22G28G20G 3G13
  20908906.0124  -19616507.64849 -15087567.28347  20908905.5834   20908921.6974
     -1095.2484       -853.4394
  20781019.2314  -22515178.21449 -17075646.96147  20781018.9524   20781035.1694
      -165.6144       -129.0504
  21885066.7864  -19327630.86248 -14849566.13947  21885066.5444   21885084.6424
      1135.7724        885.0144
  23288155.6674   -7514770.73148  -5826651.48846  23288155.2634   23288180.5784
      2194.2344       1709.7844
  23965687.3214    3594303.61747   2816479.65345  23965686.8844   23965703.6924
     -3799.3134      -2960.5194
  21527994.7134  -14479518.61149 -10850293.83147  21527994.3664   21528008.8804
     -1909.2834      -1487.7544
  23679392.2284   -3984894.15547  -2740106.50745  23679391.4504   23679419.1624
     -3892.9184      -3033.4264
  23696773.3044   -7039116.03647  -5321731.53145  23696772.8244   23696795.1644
       783.7484        610.7064
  21388320.6884  -20396604.23948 -15884686.70047  21388321.2254   21388336.2584
      1488.0534       1159.5194
 00  9 18  0  7 30.0000000  0  9G 1G19G27G 8G22G28G20G 3G13
  20915200.3384  -19583429.65049 -15061792.24347  20915200.0874   20915216.2584
     -1109.5874       -864.6124
  20781991.5244  -22510069.03449 -17071665.74847  20781991.3194   20782007.3184
      -174.6844       -136.1184
  21878604.9964  -19361588.38248 -14876026.44947  21878604.5894   21878622.6834
      1128.4244        879.2894
  23275649.1174   -7580488.72248  -5877860.00646  23275648.8424   23275674.4534
      2187.1374       1704.2504
  23987399.6104    3708405.23147   2905390.40445  23987398.5844   23987416.4214
     -3807.1054      -2966.5914
  21538944.0674  -14421976.78949 -10805456.08147  21538943.7074   21538959.1654
     -1926.4954      -1501.1604
  23701632.7994   -3868017.66747  -2649034.36445  23701632.1134   23701660.1234
     -3898.4344      -3037.7214
  23692348.2704   -7062370.64547  -5339851.84045  23692348.3864   23692369.0744
       766.9414        597.6144
  21379857.9824  -20441075.99848 -15919339.91147  21379858.0664   21379873.6334
      1477.1054       1150.9884
 00  9 18  0  8  0.0000000  0  9G 1G19G27G 8G22G28G20G 3G13
  20921574.0654  -19549937.67349 -15035694.61847  20921573.6384   20921589.5874
     -1123.0614       -875.1114
  20783012.5144  -22504704.15649 -17067485.29747  20783012.1754   20783028.3664
      -182.8704       -142.4974
  21872181.7734  -19395342.08648 -14902327.93647  21872181.4164   21872199.5814
      1121.9834        874.2694
  23263180.8134   -7646010.45348  -5928915.59446  23263180.0404   23263205.3874
      2180.9594       1699.4384
  24009151.8624    3822722.43147   2994469.24545  24009151.5374   24009169.9394
     -3813.8684      -2971.8614
  21549989.0254  -14363936.79249 -10760230.22747  21549988.6244   21550003.9074
     -1942.7094      -1513.7954
  23723903.5624   -3750994.05547  -2557847.55145  23723902.6124   23723928.6624
     -3902.9864      -3041.2774
  23688015.8964   -7085136.28247  -5357591.13245  23688015.9224   23688037.2234
       750.9414        585.1434
  21371454.3874  -20485234.62948 -15953749.11447  21371454.7744   21371470.1304
      1466.9884       1143.1044
 00  9 18  0  8 30.0000000  0  9G 1G19G27G 8G22G28G20G 3G13
  20928028.3414  -19516019.82249 -15009265.15047  20928028.0044   20928044.0194
     -1139.3364       -887.7934
  20784083.9304  -22499072.59449 -17063097.03747  20784083.6604   20784099.8514
      -193.8104       -151.0224
  21865799.4124  -19428880.85648 -14928461.94647  21865799.1924   21865817.2064
      1112.7544        867.0774
  23250751.6294   -7711324.50848  -5979809.35046  23250751.2834   23250776.4674
      2171.9654       1692.4284
  24030949.2054    3937262.72347   3083721.83145  24030948.2864   24030966.6644
     -3823.4004      -2979.2814
  21561130.3354  -14305389.14549 -10714608.78247  21561129.9424   21561145.0834
     -1961.6654      -1528.5674
  23746200.6234   -3633815.03947  -2466539.60345  23746201.0344   23746227.8214
     -3910.2494      -3046.9334
  23683779.2644   -7107399.76247  -5374939.14345  23683779.1664   23683800.5514
       732.0434        570.4224
  21363113.6224  -20529066.96548 -15987904.08547  21363113.6704   21363129.1504
      1453.9674       1132.9584
 00  9 18  0  9  0.0000000  0  9G 1G19G27G 8G22G28G20G 3G13
  20934572.9244  -19481628.29549 -14982466.59547  20934572.5244   20934588.5024
     -1151.1004       -896.9594
  20785215.5684  -22493127.65049 -17058464.58547  20785215.1674   20785231.0394
      -200.2214       -156.0154
  21859466.7174  -19462157.79948 -14954391.93847  21859466.5084   21859484.8144
      1108.0344        863.4004
  23238370.9794   -7776383.58148  -6030504.42646  23238369.7614   23238395.6354
      2167.4854       1688.9394
  24052796.1484    4052071.48147   3173183.60945  24052795.0544   24052813.1224
     -3828.2164      -2983.0474
  21572377.1124  -14246288.71149 -10668556.56747  21572376.6634   21572391.5104
     -1976.0614      -1539.7864
  23768537.9914   -3516436.10147  -2375075.92245  23768537.4974   23768565.5154
     -3912.7364      -3048.8624
  23679647.4504   -7129111.87547  -5391857.52645  23679646.8374   23679668.3834
       717.6974        559.2444
  21354843.2564  -20572523.30248 -16021766.04747  21354843.7704   21354859.2624
      1445.4504       1126.3214
 00  9 18  0  9 30.0000000  0  9G 1G19G27G 8G22G28G20G 3G13
  20941168.9864  -19446965.04549 -14955456.30147  20941168.6584   20941184.7734
     -1160.0744       -903.9544
  20786367.6984  -22487072.23249 -17053746.06147  20786367.4404   20786383.3244
      -203.8034       -158.8084
  21853145.6104  -19495375.76448 -14980275.97647  21853145.2844   21853163.3054
      1106.1544        861.9344
  23226000.1924   -7841390.13148  -6081158.55646  23225999.7464   23226025.0014
      2165.8314       1687.6494
  24074655.0604    4166943.71547   3262695.05845  24074654.0844   24074671.7364
     -3830.1664      -2984.5674
  21583689.9254  -14186840.01949 -10622232.95147  21583689.4684   21583704.5794
     -1987.5034      -1548.7044
  23790873.8574   -3399062.66247  -2283616.55045  23790872.4174   23790900.7084
     -3912.4024      -3048.6094
  23675582.5944   -7150473.46847  -5408502.77145  23675582.4684   23675603.6574
       706.0864        550.1964
  21346607.1484  -20615805.38848 -16055492.19447  21346607.4004   21346622.9204
      1439.6914       1121.8334
 00  9 18  0 10  0.0000000  0  9G 1G19G27G 8G22G28G20G 3G13
  20947829.3104  -19411963.47549 -14928182.40047  20947829.1634   20947845.4924
     -1174.8994       -915.5034
  20787553.5544  -22480840.78349 -17048890.39047  20787553.2074   20787569.0614
      -213.2164       -166.1434
  21846847.9404  -19528468.79148 -15006062.65447  21846847.6324   21846865.9854
      1098.4934        855.9664
  23213652.1934   -7906278.16048  -6131720.31646  23213651.5314   23213677.2174
      2158.3534       1681.8224
  24096537.7504    4281942.64447   3352305.14045  24096537.0894   24096554.5144
     -3837.9994      -2990.6604
  21595080.6314  -14126978.96849 -10575588.01547  21595080.3734   21595095.8634
     -2004.7654      -1562.1544
  23813220.9374   -3281631.38047  -2192112.10445  23813220.5184   23813247.3424
     -3917.8734      -3052.8754
  23671597.7024   -7171416.13647  -5424821.59445  23671597.4024   23671618.0654
       688.5454        536.5194
  21338417.0574  -20658844.72248 -16089029.18947  21338417.2954   21338432.7184
      1428.0384       1112.7534
 00  9 18  0 10 30.0000000  0  9G 1G19G27G 8G22G28G20G 3G13
  20954569.5614  -19376543.46249 -14900582.44847  20954569.2984   20954585.6774
     -1185.8724       -924.0524
  20788787.9774  -22474354.08749 -17043835.79847  20788787.6404   20788803.4694
      -218.7084       -170.4244
  21840589.2684  -19561357.47348 -15031690.10747  21840588.9944   21840607.1074
      1094.6734        852.9904
  23201341.8024   -7970967.90048  -6182127.56446  23201341.0454   23201366.4104
      2154.7534       1679.0194
  24118460.1564    4397144.65047   3442073.51445  24118459.4244   24118476.3564
     -3841.6154      -2993.4864
  21606565.3214  -14066628.13449 -10528561.40047  21606564.8684   21606580.1124
     -2018.0554      -1572.5104
  23835593.3164   -3164065.58747  -2100502.83445  23835591.9944   23835619.5894
     -3919.2744      -3053.9674
  23667707.6254   -7191858.68947  -5440750.71345  23667707.7554   23667727.3194
       674.8554        525.8534
  21330289.3324  -20701560.17748 -16122313.82247  21330289.2724   21330304.1194
      1420.2044       1106.6494
 00  9 18  0 11  0.0000000  0  9G 1G19G27G 8G22G28G20G 3G13
  20961372.1994  -19340795.98349 -14872727.32247  20961371.8094   20961388.2854
     -1195.8794       -931.8524
  20790053.2974  -22467703.99349 -17038653.88547  20790053.0644   20790068.9204
      -223.2594       -173.9694
  21834352.3294  -19594133.64748 -15057229.89947  21834351.9474   21834369.8434
      1091.8324        850.7774
  23189052.2454   -8035550.93648  -6232451.67946  23189051.7144   23189076.6274
      2152.0734       1676.9314
  24140402.0344    4512455.41647   3531926.51145  24140401.2294   24140418.2674
     -3844.3824      -2995.6474
  21618125.2534  -14005881.25449 -10481226.14947  21618124.7904   21618140.1004
     -2030.3224      -1582.0694
  23857972.3154   -3046459.67247  -2008862.32945  23857971.7894   23858000.5684
     -3919.7044      -3054.2964
  23663895.2694   -7211890.58047  -5456359.83445  23663895.3464   23663915.1064
       662.0274        515.8594
  21322205.2334  -20744040.79048 -16155415.47147  21322205.3414   21322219.7234
      1413.2634       1101.2384
 00  9 18  0 11 30.0000000  0  9G 1G19G27G 8G22G28G20G 3G13
  20968239.7794  -19304707.14549 -14844606.20047  20968239.3854   20968255.7664
     -1209.1624       -942.2014
  20791352.5984  -22460877.57149 -17033334.55047  20791352.1774   20791368.1794
      -230.9954       -179.9984
  21828138.7394  -19626784.41248 -15082671.97647  21828138.4284   21828156.7374
      1085.7604        846.0454
  23176784.8634   -8100013.92248  -6282682.25246  23176784.3824   23176809.5494
      2146.1934       1672.3484
  24162367.7024    4627885.88047   3621872.94645  24162367.2174   24162384.1884
     -3850.1644      -3000.1434
  21629762.2114  -13944727.25649 -10433573.70147  21629761.9094   21629777.6744
     -2045.7504      -1594.0894
  23880362.6684   -2928803.39647  -1917182.57645  23880362.1494   23880389.8864
     -3923.1684      -3057.0024
  23660164.2154   -7231496.92147  -5471637.35445  23660163.8274   23660183.5254
       645.9304        503.3224
  21314168.4694  -20786271.82548 -16188322.64647  21314168.8114   21314183.4124
      1403.0394       1093.2744
 00  9 18  0 12  0.0000000  0  9G 1G19G27G 8G22G28G20G 3G13
  20975183.6554  -19268217.45949 -14816172.74047  20975183.3244   20975199.7394
     -1223.7834       -953.5964
  20792696.0164  -22453816.48449 -17027832.40347  20792695.7594   20792711.8484
      -240.0794       -187.0754
  21821960.6614  -19659250.96848 -15107970.51947  21821960.1724   21821978.5094
      1078.3694        840.2844
  23164551.6284   -8164297.66548  -6332773.15546  23164551.2234   23164575.9444
      2138.9474       1666.7014
  24184366.4884    4743492.64247   3711956.54245  24184365.9034   24184382.9604
     -3857.2364      -3005.6634
  21641487.8604  -13883109.03049 -10385559.51547  21641487.5594   21641502.8644
     -2062.4474      -1607.1014
  23902772.7444   -2811040.29047  -1825419.59345  23902772.1824   23902800.2694
     -3927.8874      -3060.6724
  23656525.6804   -7250616.96747  -5486535.94045  23656525.4994   23656545.5534
       628.4414        489.6944
  21306191.0584  -20828192.60348 -16220988.10947  21306191.3934   21306206.2754
      1391.3854       1084.1934
 00  9 18  0 12 30.0000000  0  9G 1G19G27G 8G22G28G20G 3G13
  20982206.5674  -19231311.92849 -14787415.24747  20982206.2754   20982222.4984
     -1236.8104       -963.7464
  20794087.2174  -22446506.39449 -17022136.23547  20794086.8094   20794102.6874
      -247.5394       -192.8874
  21815820.3284  -19691518.87748 -15133114.27147  21815820.0814   21815837.9384
      1072.5854        835.7794
  23152355.7484   -8228387.96448  -6382713.32746  23152354.9804   23152379.6054
      2133.3574       1662.3434
  24206400.4904    4859287.24647   3802186.50645  24206400.4834   24206418.2964
     -3862.6734      -3009.8954
  21653304.2274  -13821014.36849 -10337174.06347  21653303.8474   21653318.7394
     -2077.4584      -1618.7994
  23925204.3104   -2693158.83747  -1733564.43145  23925204.0424   23925232.7844
     -3931.0074      -3063.1084
  23652983.1104   -7269234.17447  -5501042.69945  23652982.5264   23653002.7134
       612.4804        477.2514
  21298276.1194  -20869786.16648 -16253398.56347  21298276.3834   21298291.5474
      1381.2774       1076.3164
 00  9 18  0 13  0.0000000  0  9G 1G19G27G 8G22G28G20G 3G13
  20989310.4234  -19193982.95649 -14758327.79147  20989309.9144   20989325.9754
     -1251.8694       -975.4794
  20795526.6564  -22438940.70249 -17016240.90147  20795526.2834   20795542.4544
      -257.0334       -200.2854
  21809719.1054  -19723581.24948 -15158097.85847  21809718.6534   21809736.7084
      1064.7864        829.7014
  23140198.1824   -8292277.14148  -6432496.78746  23140197.3834   23140221.5994
      2125.7044       1656.3794
  24228472.7214    4975274.43947   3892566.68045  24228472.0034   24228488.0684
     -3870.0064      -3015.6134
  21665212.1444  -13758437.98549 -10288413.24747  21665211.6024   21665226.5444
     -2094.4434      -1632.0334
  23947660.5194   -2575154.51547  -1641613.52245  23947659.9284   23947688.2784
     -3935.9854      -3066.9884
  23649536.9304   -7287339.60747  -5515150.65545  23649536.7134   23649557.0274
       594.4184        463.1754
  21290424.8424  -20911043.63848 -16285547.11047  21290425.0174   21290440.6094
      1369.0924       1066.8204
 00  9 18  0 13 30.0000000  0  9G 1G19G27G 8G22G28G20G 3G13
  20996487.8304  -19156265.47849 -14728937.60847  20996487.4684   20996503.3184
     -1260.9964       -982.5914
  20797008.4224  -22431155.10349 -17010174.22947  20797008.0164   20797023.9594
      -260.4704       -202.9634
  21803650.0894  -19755473.76948 -15182949.09947  21803649.7974   21803667.5504
      1062.9734        828.2894
  23128071.5824   -8356000.77548  -6482151.26246  23128071.0034   23128094.8294
      2124.0264       1655.0734
  24250573.0034    5091415.54147   3983066.74945  24250572.1624   24250589.8614
     -3871.2134      -3016.5424
  21677204.6294  -13695417.59649 -10239306.47247  21677204.2834   21677219.2134
     -2105.3204      -1640.5084
  23970132.9674   -2457065.67947  -1549596.74545  23970132.5924   23970160.1514
     -3934.9444      -3066.1764
  23646182.0564   -7304967.10047  -5528886.19845  23646182.5794   23646203.2444
       582.3334        453.7604
  21282631.1244  -20951999.01148 -16317460.32647  21282631.4484   21282647.1364
      1362.8474       1061.9574
 00  9 18  0 14  0.0000000  0  9G 1G19G27G 8G22G28G20G 3G13
  21003728.4114  -19118215.21349 -14699288.10747  21003728.0464   21003744.0464
     -1274.2544       -992.9244
  20798521.0934  -22423206.09149 -17003980.20047  20798520.7804   20798536.5514
      -268.0604       -208.8754
  21797602.8154  -19787252.92448 -15207712.00347  21797602.6034   21797620.1474
      1057.0664        823.6854
  23115965.6114   -8419615.25148  -6531720.69346  23115965.0714   23115989.2934
      2118.2604       1650.5834
  24272692.1484    5207652.15747   4073641.20845  24272691.1814   24272707.0194
     -3876.4284      -3020.6094
  21689270.3094  -13632011.43849 -10189899.11047  21689269.9134   21689284.8674
     -2120.3344      -1652.2064
  23992610.5464   -2338951.41547  -1457560.13445  23992609.7254   23992638.2394
     -3937.9074      -3068.4804
  23642908.7264   -7322170.91647  -5542291.58745  23642908.1964   23642929.0184
       565.9984        441.0404
  21274884.6644  -20992706.76748 -16349180.62847  21274884.8924   21274900.5044
      1352.4154       1053.8284
 00  9 18  0 14 30.0000000  0  9G 1G19G27G 8G22G28G20G 3G13
  21011030.7334  -19079841.82049 -14669386.80747  21011030.3214   21011046.4474
     -1284.7714      -1001.1194
  20800062.7584  -22415104.41149 -16997667.23047  20800062.5834   20800078.2434
      -272.8734       -212.6264
  21791575.4104  -19818929.09648 -15232394.65447  21791574.8974   21791592.4884
      1053.8734        821.1984
  23103879.0584   -8483130.69348  -6581212.97746  23103878.3694   23103902.5304
      2115.2194       1648.2114
  24294826.6194    5323971.20247   4164279.71345  24294826.4024   24294841.6324
     -3878.9464      -3022.5684
  21701406.9624  -13568232.02449 -10140200.89947  21701406.5474   21701421.8644
     -2132.4664      -1661.6614
  24015088.9634   -2220824.71047  -1365513.87345  24015088.7154   24015117.1084
     -3937.9814      -3068.5424
  23639713.9474   -7338959.41947  -5555373.36045  23639713.3874   23639734.1144
       552.4104        430.4494
  21267184.1334  -21033174.64548 -16380713.97147  21267183.9854   21267199.9284
      1344.6174       1047.7514
 00  9 18  0 15  0.0000000  0  9G 1G19G27G 8G22G28G20G 3G13
  21018401.7474  -19041106.80549 -14639203.72447  21018401.3414   21018417.4054
     -1297.9184      -1011.3624
  20801641.0624  -22406812.35049 -16991205.91147  20801640.4864   20801656.1094
      -280.2954       -218.4114
  21785574.0264  -19850464.49548 -15256967.60647  21785573.7284   21785591.4524
      1048.1024        816.6994
  23091817.5964   -8546508.88048  -6630598.28646  23091817.1464   23091842.0864
      2109.5494       1643.7944
  24316981.8054    5440408.58547   4255010.40045  24316980.9144   24316999.1134
     -3883.9304      -3026.4544
  21713621.8104  -13504043.26849 -10090183.73947  21713621.5014   21713636.8744
     -2147.1604      -1673.1094
  24037576.4314   -2102650.26747  -1273430.44045  24037575.7974   24037605.5614
     -3940.6374      -3070.6064
  23636605.6694   -7355292.83647  -5568100.50845  23636605.5014   23636625.7124
       536.1124        417.7414
  21259536.1284  -21073362.38348 -16412029.04647  21259536.3384   21259552.5184
      1334.2104       1039.6444
 00  9 18  0 15 30.0000000  0  9G 1G19G27G 8G22G28G20G 3G13
  21025836.6934  -19002035.64549 -14608758.70547  21025836.3644   21025852.2484
     -1309.2454      -1020.1894
  20803249.7144  -22398356.09849 -16984616.63247  20803249.4354   20803264.9884
      -285.8824       -222.7654
  21779594.7094  -19881885.07848 -15281451.08947  21779594.3834   21779612.1644
      1044.1734        813.6394
  23079778.5964   -8609775.54948  -6679896.71546  23079778.0734   23079802.8464
      2105.7104       1640.8064
  24339156.8734    5556935.71847   4345811.18745  24339155.2814   24339173.0174
     -3887.0314      -3028.8644
  21725908.8554  -13439473.29849 -10039869.52947  21725908.6284   21725924.3184
     -2159.9064      -1683.0404
  24060067.7904   -1984456.61447  -1181332.03345  24060068.1334   24060097.9024
     -3941.4314      -3071.2154
  23633579.3074   -7371195.37047  -5580491.89445  23633579.0764   23633599.4494
       521.6304        406.4624
  21251937.7094  -21113295.25748 -16443145.53647  21251937.8474   21251952.6504
      1325.5504       1032.8934
 00  9 18  0 16  0.0000000  0  9G 1G19G27G 8G22G28G20G 3G13
  21033362.5004  -18962486.12649 -14577940.93347  21033362.2344   21033378.1494
     -1325.1574      -1032.5894
  20804916.6894  -22389594.43549 -16977789.36447  20804916.6234   20804932.4074
      -296.0294       -230.6724
  21773664.3664  -19913049.44548 -15305734.93247  21773663.9674   21773681.6304
      1035.6874        807.0264
  23067787.6714   -8672789.07848  -6728997.91646  23067786.8484   23067811.3294
      2097.3054       1634.2584
  24361375.3924    5673691.54747   4436790.24945  24361374.8614   24361391.0684
     -3894.4834      -3034.6864
  21738295.4714  -13374382.67749  -9989149.61547  21738295.1834   21738310.2764
     -2177.2284      -1696.5394
  24082590.5764   -1866105.18947  -1089110.66645  24082589.8644   24082617.5124
     -3946.4854      -3075.1694
  23630662.1864   -7386523.85447  -5592435.97345  23630661.8074   23630682.4004
       502.4664        391.5254
  21244414.8764  -21152828.40648 -16473950.53147  21244414.8634   21244429.8674
      1312.2294       1022.5154
 00  9 18  0 16 30.0000000  0  9G 1G19G27G 8G22G28G20G 3G13
  21040961.7844  -18922553.22849 -14546824.41347  21040961.3294   21040977.2364
     -1338.3054      -1042.8354
  20806624.2044  -22380622.88549 -16970798.55347  20806623.8784   20806639.8084
      -303.3914       -236.4094
  21767764.2984  -19944053.04448 -15329893.49647  21767764.0164   21767781.6954
      1029.9284        802.5384
  23055826.4364   -8735644.79148  -6777976.15246  23055826.1364   23055849.9674
      2091.6804       1629.8754
  24383618.0114    5790578.20647   4527871.35445  24383616.9824   24383632.9624
     -3899.2984      -3038.4264
  21750762.5014  -13308868.81249  -9938099.91147  21750762.0024   21750777.2414
     -2191.6734      -1707.7934
  24105124.2464   -1747693.99147   -996842.70945  24105123.2834   24105153.6914
     -3948.8634      -3077.0184
  23627836.2084   -7401371.82747  -5604005.63745  23627835.8334   23627857.1844
       486.0724        378.7534
  21236949.9424  -21192055.96948 -16504517.43047  21236950.2554   21236964.8414
      1301.6184       1014.2494
 00  9 18  0 17  0.0000000  0  9G 1G19G27G 8G22G28G20G 3G13
  21048637.1294  -18882217.79049 -14515394.23247  21048636.8624   21048652.8984
     -1349.5164      -1051.5694
  20808375.1094  -22371422.98749 -16963629.79147  20808374.5934   20808390.6774
      -308.7544       -240.5884
  21761898.4464  -19974877.42148 -15353912.40547  21761898.2864   21761915.9094
      1026.2114        799.6424
  23043898.5894   -8798323.79348  -6826816.70546  23043898.0134   23043921.4964
      2087.9894       1627.0024
  24405888.0244    5907612.23547   4619067.30345  24405887.0974   24405902.4254
     -3901.8714      -3040.4374
  21763313.1444  -13242915.01649  -9886707.44247  21763312.6924   21763328.0934
     -2204.0684      -1717.4534
  24127670.3094   -1629206.94947   -904515.72045  24127669.7914   24127700.2674
     -3949.0614      -3077.1684
  23625106.0504   -7415718.73247  -5615184.84646  23625105.6604   23625126.4644
       471.5974        367.4704
  21229547.1824  -21230956.63348 -16534829.60447  21229547.4254   21229562.0974
      1292.9224       1007.4714
 00  9 18  0 17 30.0000000  0  9G 1G19G27G 8G22G28G20G 3G13
  21056379.3114  -18841533.80649 -14483692.45247  21056378.9094   21056394.7524
     -1361.3214      -1060.7694
  20810158.7624  -22362049.62749 -16956325.83747  20810158.3834   20810174.1544
      -314.7444       -245.2574
  21756056.3414  -20005577.14748 -15377834.17247  21756056.0734   21756073.7734
      1021.8894        796.2744
  23031994.3334   -8860880.50548  -6875561.94946  23031993.7244   23032017.7564
      2083.7774       1623.7144
  24428174.0394    6024736.27847   4710333.37245  24428173.1394   24428188.5594
     -3904.9394      -3042.8334
  21775936.5044  -13176578.07049  -9835016.41147  21775936.2504   21775951.3474
     -2216.9904      -1727.5214
  24150222.8654   -1510701.32347   -812174.25545  24150222.7304   24150252.8354
     -3949.8204      -3077.7564
  23622461.5084   -7429617.47847  -5626014.83546  23622461.0554   23622481.9254
       456.4474        355.6654
  21222196.7994  -21269583.86848 -16564928.69947  21222196.9544   21222211.3104
      1283.6104       1000.2134
 00  9 18  0 18  0.0000000  0 10G 1G31G19G27G 8G22G28G20G 3G13
  21064187.8804  -18800501.21949 -14451719.04347  21064187.2604   21064203.3524
     -1374.6824      -1071.1804
  23459511.1244    -351632.50247    -88178.78645  23459510.2654   23459534.5964
      2364.9264       1842.7954
  20811974.9054  -22352503.44749 -16948887.22547  20811974.7934   20811990.6784
      -322.1984       -251.0654
  21750237.7324  -20036152.80148 -15401659.26347  21750237.4644   21750255.3144
      1016.0274        791.7064
  23020113.0124   -8923315.37848  -6924212.26346  23020112.3584   23020137.1354
      2077.9614       1619.1824
  24450477.9694    6141947.02847   4801667.14845  24450478.1984   24450495.2254
     -3909.5264      -3046.4044
  21788632.3574  -13109860.54049  -9783028.81147  21788632.0644   21788647.6314
     -2231.3534      -1738.7134
  24172777.9994   -1392180.43447   -719820.84645  24172776.7054   24172806.3934
     -3951.9824      -3079.4524
  23619901.6534   -7443067.13247  -5636494.88346  23619901.4654   23619921.4984
       439.7034        342.6174
  21214898.3464  -21307935.73848 -16594813.16547  21214898.6024   21214912.9864
      1272.6914        991.7034
 00  9 18  0 18 30.0000000  0 10G 1G31G19G27G 8G22G28G20G 3G13
  21072067.0344  -18759095.60749 -14419454.95347  21072066.4824   21072082.6334
     -1386.8034      -1080.6254
  23446028.2584    -422485.17847   -143388.40745  23446027.5194   23446049.7564
      2357.4954       1837.0054
  20813828.9724  -22342760.67949 -16941295.40347  20813828.7474   20813844.6274
      -328.4394       -255.9274
  21744447.2874  -20066580.60948 -15425369.14847  21744447.0094   21744464.8764
      1011.4104        788.1094
  23008259.4744   -8985604.27848  -6972748.82546  23008258.8804   23008283.5734
      2073.4454       1615.6634
  24472803.8884    6259265.84347   4893084.94346  24472803.4914   24472819.7174
     -3912.8374      -3048.9794
  21801405.2084  -13042740.79849  -9730727.77947  21801404.6814   21801420.1754
     -2244.3894      -1748.8734
  24195337.4634   -1273622.84147   -627438.85245  24195337.7854   24195367.3684
     -3952.8574      -3080.1374
  23617433.1624   -7456041.64147  -5646604.65246  23617432.8154   23617452.7984
       424.1474        330.4984
  21207657.4934  -21345986.60748 -16624463.10547  21207657.4744   21207672.3284
      1262.9304        984.0994
 00  9 18  0 19  0.0000000  0 10G 1G31G19G27G 8G22G28G20G 3G13
  21080035.8034  -18717215.93949 -14386821.44747  21080035.6874   21080052.0684
     -1402.4874      -1092.8464
  23432608.6734    -493003.39447   -198337.33445  23432608.2244   23432629.9154
      2346.3404       1828.3034
  20815739.5404  -22332720.87549 -16933472.12547  20815739.2674   20815755.1034
      -338.2034       -263.5364
  21738704.2204  -20096759.94948 -15448885.41647  21738703.8964   21738721.8104
      1003.2704        781.7664
  22996452.9654   -9047646.45748  -7021093.12646  22996452.4674   22996476.7114
      2065.3104       1609.3234
  24495168.5724    6376791.38648   4984663.71546  24495167.6204   24495183.9194
     -3919.6294      -3054.2684
  21814272.8504  -12975120.06949  -9678036.37547  21814272.4734   21814287.8054
     -2260.9634      -1761.7884
  24217925.1694   -1154930.56147   -534951.89445  24217924.3604   24217955.0644
     -3957.2094      -3083.5194
  23615073.7044   -7468438.78747  -5656264.51346  23615073.2374   23615093.2264
       404.9794        315.5624
  21200493.3374  -21383632.83748 -16653797.73447  21200493.5644   21200508.7914
      1249.5184        973.6494
 00  9 18  0 19 30.0000000  0 10G 1G31G19G27G 8G22G28G20G 3G13
  21088083.3844  -18674928.33249 -14353870.06947  21088082.9584   21088099.0694
     -1416.0224      -1103.3924
  23419241.0244    -563250.28647   -253074.84945  23419240.5874   23419262.3274
      2337.3274       1821.2784
  20817693.7644  -22322450.84049 -16925469.43947  20817693.5144   20817709.2554
      -345.8084       -269.4624
  21732995.3624  -20126757.36248 -15472259.93447  21732995.3094   21733013.5294
       997.2684        777.0894
  22984681.3294   -9109508.11348  -7069296.75046  22984680.6864   22984704.3254
      2059.4024       1604.7224
  24517558.1954    6494454.97447   5076350.11945  24517556.9214   24517572.7704
     -3924.1194      -3057.7774
  21827222.9934  -12907067.02749  -9625008.10747  21827222.7284   21827238.2144
     -2275.2504      -1772.9194
  24240524.8324   -1036172.84947   -442413.99045  24240523.4844   24240553.7624
     -3959.2594      -3085.1244
  23612811.5224   -7480323.77447  -5665525.29246  23612811.5674   23612831.1174
       387.9734        302.3084
  21193393.9794  -21420939.90348 -16682868.06647  21193394.3034   21193409.6654
      1238.2914        964.8984
 00  9 18  0 20  0.0000000  0 10G 1G31G19G27G 8G22G28G20G 3G13
  21096199.8954  -18632275.41049 -14320634.02947  21096199.3644   21096215.6684
     -1427.4934      -1112.3324
  23405916.9444    -633265.21447   -307631.61345  23405916.5574   23405938.8064
      2330.2914       1815.7964
  20819683.6484  -22311994.13349 -16917321.32547  20819683.3304   20819699.1114
      -351.3044       -273.7454
  21727313.7194  -20156616.07448 -15495526.37147  21727313.3644   21727331.4534
       993.3664        774.0494
  22972935.6524   -9171232.37648  -7117393.31446  22972935.1114   22972958.4794
      2055.5194       1601.6954
  24539964.1524    6612211.00646   5168108.77845  24539963.1204   24539978.2854
     -3926.3434      -3059.4964
  21840246.9274  -12838626.88349  -9571678.17947  21840246.5814   21840262.1304
     -2287.4104      -1782.3964
  24263128.3684    -917395.31947   -349860.60545  24263128.5974   24263157.6354
     -3959.2164      -3085.0994
  23610640.2424   -7491737.92947  -5674419.20746  23610639.4904   23610658.8114
       372.9704        290.6164
  21186351.7234  -21457948.59448 -16711705.93047  21186351.8964   21186367.0644
      1229.0094        957.6654
 00  9 18  0 20 30.0000000  0 10G 1G31G19G27G 8G22G28G20G 3G13
  21104385.0184  -18589261.50449 -14287116.68947  21104384.6534   21104400.6884
     -1438.7184      -1121.0794
  23392636.9454    -703049.80847   -362008.88445  23392636.8644   23392659.1254
      2323.4264       1810.4504
  20821708.1024  -22301355.61049 -16909031.50847  20821707.7004   20821723.8484
      -356.5494       -277.8334
  21721657.4054  -20186340.89548 -15518688.45747  21721657.1174   21721674.9334
       989.7134        771.2004
  22961214.7294   -9232823.79348  -7165386.35646  22961214.3004   22961237.4144
      2051.8954       1598.8704
  24562389.5534    6730051.55047   5259933.19545  24562389.4904   24562402.3764
     -3928.2654      -3061.0094
  21853342.8264  -12769806.52949  -9518051.95647  21853342.4314   21853358.1944
     -2299.2164      -1791.5974
  24285733.2074    -798605.65147   -257297.76445  24285732.1404   24285763.0484
     -3958.7444      -3084.7204
  23608556.6974   -7502684.15648  -5682948.50446  23608556.5884   23608575.5484
       358.1634        279.0804
  21179365.4484  -21494661.79348 -16740313.51447  21179365.5094   21179380.5224
      1219.9314        950.5924
 00  9 18  0 21  0.0000000  0 10G 1G31G19G27G 8G22G28G20G 3G13
  21112629.0914  -18545938.57049 -14253358.56347  21112628.7964   21112644.7424
     -1450.3834      -1130.1684
  23379392.2874    -772653.17547   -416244.93445  23379391.5774   23379412.8344
      2315.9464       1804.6164
  20823757.0914  -22290587.85749 -16900640.98647  20823756.8244   20823772.4304
      -362.2274       -282.2584
  21716016.4954  -20215984.44848 -15541787.22647  21716016.2164   21716033.8984
       985.6404        768.0284
  22949508.7094   -9294334.85348  -7213316.75746  22949508.4634   22949531.9264
      2047.8434       1595.7104
  24584819.7844    6847922.38647   5351781.42346  24584819.1684   24584834.6474
     -3930.6854      -3062.8964
  21866501.0574  -12700660.69349  -9464172.11647  21866500.5804   21866516.0464
     -2311.4014      -1801.0914
  24308329.5294    -679858.78147   -164768.31145  24308330.0284   24308359.6394
     -3958.6024      -3084.6064
  23606552.6304   -7513213.44048  -5691152.91546  23606552.7274   23606572.0744
       342.8834        267.1734
  21172425.6164  -21531130.22749 -16768730.33047  21172425.8134   21172440.4904
      1210.3874        943.1524
 00  9 18  0 21 30.0000000  0 10G 1G31G19G27G 8G22G28G20G 3G13
  21120939.9424  -18502264.50849 -14219326.83747  21120939.7074   21120955.6724
     -1461.4224      -1138.7694
  23366189.6924    -842030.26947   -470304.65945  23366189.6444   23366210.5904
      2308.9434       1799.1654
  20825838.5054  -22279649.47049 -16892117.53647  20825838.2764   20825854.1334
      -367.2634       -286.1794
  21710398.9394  -20245504.99048 -15564790.15347  21710398.6024   21710416.1454
       982.1744        765.3274
  22937826.8274   -9355723.46448  -7261151.73746  22937826.4644   22937850.3274
      2044.4024       1593.0294
  24607261.7004    6965862.99647   5443683.95445  24607261.1234   24607277.2044
     -3932.2324      -3064.1054
  21879728.3744  -12631149.83049  -9410007.87547  21879728.0804   21879743.3824
     -2322.8824      -1810.0364
  24330927.0724    -561115.65447    -72241.72245  24330926.4404   24330955.9304
     -3957.7374      -3083.9364
  23604636.5074   -7523282.51448  -5698998.72346  23604636.3644   23604655.2194
       328.1664        255.7074
  21165540.4714  -21567310.06049 -16796922.27247  21165540.9004   21165556.1404
      1201.3784        936.1344
 00  9 18  0 22  0.0000000  0 10G 1G31G19G27G 8G22G28G20G 3G13
  21129326.1554  -18458194.33949 -14184986.46047  21129325.9244   21129342.0944
     -1475.0144      -1149.3634
  23353039.1544    -911132.84547   -524150.47845  23353038.6574   23353061.0504
      2299.4114       1791.7384
  20827960.9344  -22268495.83749 -16883426.36247  20827960.5834   20827976.5624
      -374.8094       -292.0604
  21704813.1674  -20274857.94848 -15587662.50647  21704812.9824   21704830.5544
       976.2254        760.6904
  22926177.1494   -9416945.15348  -7308856.62846  22926176.4644   22926199.9814
      2038.5114       1588.4394
  24629724.5194    7083915.64847   5535673.75245  24629723.7844   24629740.6734
     -3936.2944      -3067.2674
  21893033.4424  -12561231.23349  -9355525.88647  21893033.0064   21893048.3274
     -2336.8224      -1820.9004
  24353530.7264    -442334.27947     20314.67645  24353530.1964   24353560.6794
     -3959.4064      -3085.2284
  23602816.4004   -7532844.96748  -5706449.75046  23602816.6464   23602836.0934
       310.9044        242.2544
  21158720.1564  -21603154.35149 -16824852.77547  21158720.0344   21158735.2144
      1189.8004        927.1134
 00  9 18  0 22 30.0000000  0 10G 1G31G19G27G 8G22G28G20G 3G13
  21137777.4054  -18413783.06549 -14150380.27947  21137777.0984   21137793.1924
     -1486.6404      -1158.4234
  23339931.8294    -980013.39647   -577823.30445  23339931.3604   23339953.2254
      2291.7084       1785.7434
  20830113.5414  -22257182.81449 -16874610.97347  20830113.2914   20830129.2904
      -380.3574       -296.3844
  21699249.1094  -20304098.85548 -15610447.53547  21699248.8884   21699266.2594
       972.2514        757.5944
  22914547.8644   -9478055.18148  -7356474.50246  22914547.2844   22914570.4394
      2034.5084       1585.3204
  24652200.4974    7202021.53247   5627705.06345  24652199.4674   24652214.0384
     -3938.2964      -3068.8304
  21906405.1884  -12490962.60849  -9300771.13147  21906404.5974   21906420.1084
     -2348.7134      -1830.1674
  24376130.8714    -323573.09247    112855.30645  24376129.7294   24376160.9674
     -3958.9314      -3084.8624
  23601082.9794   -7541955.03148  -5713548.24446  23601082.6514   23601102.5564
       295.5334        230.2754
  21151952.4414  -21638716.80249 -16852563.67247  21151952.5564   21151967.0464
      1180.1514        919.5944
 00  9 18  0 23  0.0000000  0 10G 1G31G19G27G 8G22G28G20G 3G13
  21146301.3144  -18368989.74249 -14115476.39747  21146300.9284   21146317.1354
     -1497.7344      -1167.0654
  23326874.7854   -1048627.77647   -631288.72345  23326874.3584   23326896.1584
      2284.4004       1780.0424
  20832304.5604  -22245670.13149 -16865640.00347  20832304.2364   20832320.1394
      -385.3624       -300.2834
  21693713.6204  -20333187.34548 -15633113.80547  21693713.3334   21693730.6354
       968.8184        754.9194
  22902947.1334   -9539012.72748  -7403973.54846  22902946.8774   22902969.7564
      2031.0564       1582.6284
  24674692.2144    7320219.25947   5719808.12045  24674691.6164   24674704.1864
     -3939.8174      -3070.0194
  21919850.9784  -12420305.76949  -9245713.86547  21919850.4854   21919865.6384
     -2359.9604      -1838.9304
  24398732.8584    -204793.89146    205409.99545  24398732.9144   24398763.4214
     -3957.8394      -3084.0054
  23599443.4234   -7550570.61548  -5720261.43146  23599443.0154   23599461.7714
       280.6754        218.7004
  21145246.8984  -21673954.95548 -16880021.85847  21145246.8294   21145261.4854
      1170.9134        912.3964
 00  9 18  0 23 30.0000000  0 10G 1G31G19G27G 8G22G28G20G 3G13
  21154883.5744  -18323889.36249 -14080333.26247  21154883.2874   21154899.4564
     -1507.9664      -1175.0364
  23313854.2884   -1117048.08447   -684602.91645  23313853.7594   23313874.9504
      2277.8754       1774.9534
  20834518.6854  -22234033.37649 -16856572.37747  20834518.4024   20834534.6134
      -389.4884       -303.4974
  21688193.0654  -20362198.84948 -15655720.09247  21688192.7764   21688210.1054
       966.2474        752.9174
  22891362.3114   -9599893.31148  -7451412.60446  22891361.7554   22891384.9874
      2028.5264       1580.6624
  24697186.1964    7438431.36347   5811922.37445  24697185.4404   24697200.2714
     -3940.1664      -3070.2924
  21933355.6444  -12349338.14149  -9190414.38847  21933355.1664   21933370.6154
     -2370.2874      -1846.9784
  24421326.2914     -86074.63046    297917.98445  24421326.2034   24421355.2374
     -3955.8014      -3082.4254
  23597883.0744   -7558765.60548  -5726646.91146  23597882.7034   23597903.0654
       266.6194        207.7474
  21138588.5754  -21708942.32148 -16907284.65247  21138588.6734   21138603.2394
      1162.5124        905.8544
 00  9 18  0 24  0.0000000  0  9G 1G31G19G27G 8G28G20G 3G13
  21163531.5984  -18278444.25648 -14044921.52847  21163531.2124   21163547.4034
     -1521.1484      -1185.3094
  23300878.2634   -1185233.51647   -737734.09145  23300878.2454   23300899.5464
      2268.3114       1767.5054
  20836763.7254  -22222235.21449 -16847379.02747  20836763.5474   20836779.8684
      -396.5584       -309.0064
  21682694.1114  -20391096.08148 -15678237.34547  21682693.7124   21682711.0814
       960.7644        748.6444
  22879798.7664   -9660659.34148  -7498762.41646  22879797.9154   22879822.0644
      2023.0084       1576.3584
  21946925.9284  -12278024.67849  -9134845.45647  21946925.5454   21946941.3734
     -2383.4274      -1857.2154
  24443912.6724      32619.32347    390406.29645  24443912.2704   24443942.4544
     -3956.6714      -3083.1084
  23596410.9274   -7566501.05048  -5732674.30846  23596410.8694   23596430.3544
       249.5894        194.4794
  21131985.8704  -21743639.12248 -16934321.05147  21131986.1254   21132000.6284
      1151.1364        896.9874
 00  9 18  0 24 30.0000000  0  9G 1G31G19G27G 8G28G20G 3G13
  21172252.6074  -18232614.06348 -14009209.71347  21172252.2204   21172268.5474
     -1533.9074      -1195.2524
  23287956.6284   -1253140.74647   -790648.47345  23287955.8184   23287977.2574
      2259.0964       1760.3254
  20839047.3334  -22210235.87149 -16838028.90147  20839046.8944   20839063.0684
      -403.1734       -314.1614
  21677223.8824  -20419838.94448 -15700634.30147  21677223.8064   21677241.3734
       955.6954        744.6964
  22868264.2264   -9721270.62148  -7545991.62946  22868263.5574   22868287.0914
      2017.9204       1572.3944
  21960569.6114  -12206327.53649  -9078977.55047  21960569.1314   21960584.7854
     -2396.1134      -1867.1024
  24466502.7994     151325.35147    482904.00145  24466501.7434   24466533.6904
     -3956.8554      -3083.2404
  23595033.7714   -7573735.66848  -5738311.42846  23595033.6324   23595053.5724
       232.9924        181.5494
  21125446.4434  -21778003.93348 -16961098.73147  21125446.6834   21125461.1604
      1140.1364        888.4154
 00  9 18  0 25  0.0000000  0  9G 1G31G19G27G 8G28G20G 3G13
  21181046.9414  -18186399.04148 -13973198.03547  21181046.7414   21181062.8974
     -1547.6274      -1205.9434
  23275087.0384   -1320767.09147   -843344.00445  23275086.5564   23275107.7054
      2248.7944       1752.2974
  20841368.6774  -22198035.82649 -16828522.35147  20841368.6084   20841384.6314
      -410.6994       -320.0274
  21671783.9684  -20448427.99248 -15722911.40247  21671783.5674   21671800.8734
       949.7174        740.0354
  22856759.0574   -9781727.59948  -7593100.60846  22856758.7414   22856781.4964
      2011.9134       1567.7114
  21974285.2934  -12134249.33849  -9022812.69047  21974285.0114   21974300.7354
     -2409.6684      -1877.6664
  24489092.4204     270040.40647    575408.70445  24489092.3734   24489123.6594
     -3958.0224      -3084.1484
  23593752.0684   -7580468.55047  -5743557.58246  23593751.7984   23593771.6434
       215.3444        167.7914
  21118970.8674  -21812034.69748 -16987616.12247  21118970.9124   21118985.3414
      1128.0694        879.0114
 00  9 18  0 25 30.0000000  0  9G 1G31G19G27G 8G28G20G 3G13
  21189917.0024  -18139786.86648 -13936876.90047  21189916.7504   21189933.0584
     -1561.6904      -1216.8994
  23262274.4904   -1388097.09347   -895808.62646  23262274.1414   23262295.1564
      2238.0324       1743.9124
  20843730.5914  -22185623.31649 -16818850.18847  20843730.4164   20843746.5044
      -418.6264       -326.2054
  21666374.9304  -20476851.26348 -15745059.31747  21666374.6384   21666391.9084
       943.3424        735.0704
  22845285.9094   -9842018.19848  -7640079.94546  22845285.0304   22845307.9564
      2005.5314       1562.7404
  21988075.7194  -12061780.34949  -8966343.30347  21988075.3974   21988091.2774
     -2423.4524      -1888.4044
  24511687.3534     388773.66746    667927.60545  24511688.0324   24511718.9384
     -3959.3654      -3085.2114
  23592568.2344   -7586686.23347  -5748402.27546  23592568.0164   23592588.4914
       197.3494        153.7664
  21112560.8934  -21845718.19349 -17013862.90447  21112561.0664   21112575.4964
      1115.6504        869.3364
 00  9 18  0 26  0.0000000  0  9G 1G31G19G27G 8G28G20G 3G13
  21198869.6594  -18092739.74348 -13900216.85247  21198869.4314   21198886.0484
     -1573.7234      -1226.2764
  23249526.2704   -1455090.21147   -948010.77246  23249525.6944   23249546.9654
      2229.2084       1737.0404
  20846140.2534  -22172961.48949 -16808983.81247  20846139.9504   20846156.5094
      -424.4554       -330.7434
  21661004.8144  -20505071.49448 -15767049.02647  21661004.3794   21661021.8114
       939.0684        731.7384
  22833851.2184   -9902104.79648  -7686900.31546  22833850.6924   22833873.8284
      2001.2164       1559.3784
  22001946.9054  -11988885.26649  -8909541.88847  22001946.6064   22001962.1444
     -2435.1124      -1897.4914
  24534292.6294     507559.98647    760487.91245  24534292.1774   24534322.3474
     -3958.6534      -3084.6554
  23591491.1874   -7592350.03948  -5752815.41046  23591490.7644   23591510.7284
       181.3044        141.2694
  21106224.7624  -21879014.64949 -17039808.10947  21106224.9884   21106239.3754
      1105.1994        861.1924
 00  9 18  0 26 30.0000000  0  9G 1G31G19G27G 8G28G20G 3G13
  21207880.5364  -18045388.64348 -13863319.94047  21207880.1254   21207896.6934
     -1582.9824      -1233.4904
  23236817.1864   -1521874.14648  -1000049.94046  23236816.7084   23236837.9034
      2223.0404       1732.2284
  20848572.1654  -22160181.76849 -16799025.60147  20848571.8994   20848587.9104
      -427.5124       -333.1274
  21655647.8284  -20533220.09248 -15788982.91747  21655647.5934   21655664.8894
       937.5684        730.5704
