     2.00           OBSERVATION DATA    G (GPS)             RINEX VERSION / TYPE
teqc  1999Jul19     CORS/NGS/NOAA       20000107 02:44:32UTCPGM / RUN BY / DATE
HP-UX 10.20|PA-RISC|cc A.10.32.03|=+|=|                     COMMENT
BIT 2 OF LLI FLAGS DATA COLLECTED UNDER A/S CONDITION       COMMENT
ppt1                                                        MARKER NAME
xxx                                                         MARKER NUMBER
CORS/NGS/NOAA       U.S. Coast Guard                        OBSERVER / AGENCY
05402               ASHTECH   Z-XII3    RD00                REC # / TYPE / VERS
11092               ASH700829.3                             ANT # / TYPE
 -2725252.3748 -4295978.5284  3833958.9631                  APPROX POSITION XYZ 
        0.0000        0.0000        0.0000                  ANTENNA: DELTA H/E/N
     1     1                                                WAVELENGTH FACT L1/2
     7    C1    L1    L2    P1    P2    D1    D2            # / TYPES OF OBSERV
    30.0000                                                 INTERVAL
 SNR is mapped to RINEX snr flag value [1-9]                COMMENT
  L1: 1 -> 1;  90 -> 5; 210 -> 9                            COMMENT
  L2: 1 -> 1; 150 -> 5; 250 -> 9                            COMMENT
teqc windowed: delta = 86400.000 sec                        COMMENT
  2000     1     6     0     1   30.0000000     GPS         TIME OF FIRST OBS
                                                            END OF HEADER
 00  1  6  0  1 30.0000000  0  8G 2G26G 8G 5G24G 9G 4G 7
  22589462.0394  -34318399.37548 -26428087.58646  22589459.7964   22589466.6394
      -918.1414       -715.4364
  24284991.9264  -19634770.92047 -14352708.14546  24284990.6424   24284999.9104
     -1850.3094      -1441.8004
  20728420.5434  -40655364.26149 -31115512.94847  20728418.5244   20728423.9674
     -1406.7194      -1096.1454
  23713317.8014  -12925292.53948 -10045206.07646  23713315.7474   23713323.7634
      3606.1524       2809.9814
  23427307.1274  -11801866.43947  -8826035.80845  23427305.8704   23427315.4034
      4411.4614       3437.5034
  21346650.6464  -27034309.14149 -21038390.20747  21346649.0564   21346654.4214
      2438.5494       1900.1654
  21328424.5264  -21996800.61948 -16805395.44946  21328423.3714   21328428.8544
      2991.2074       2330.8084
  21504605.0354  -34487540.87949 -26539924.00247  21504602.8204   21504608.1714
     -1023.9914       -797.9154
 00  1  6  0  2  0.0000000  0  8G 2G26G 8G 5G24G 9G 4G 7
  22594726.2024  -34290738.22648 -26406533.45646  22594724.0884   22594730.6614
      -926.7564       -722.1484
  24295566.7574  -19579199.09147 -14309405.49646  24295565.3224   24295574.1204
     -1855.2034      -1445.6124
  20736501.3164  -40612898.63049 -31082422.84847  20736499.2234   20736505.0834
     -1424.9124      -1110.3204
  23692738.4134  -13033437.40748 -10129474.62846  23692736.2584   23692744.3614
      3602.9374       2807.4744
  23402137.5024  -11934131.49147  -8929099.42545  23402136.7664   23402146.6924
      4405.4244       3432.7954
  21332780.9574  -27107192.58249 -21095182.44447  21332779.6324   21332785.5584
      2419.7714       1885.5344
  21311400.1144  -22086266.28948 -16875108.90246  21311398.9184   21311404.4114
      2972.6364       2316.3374
  21510473.7914  -34456701.25649 -26515893.12947  21510471.5434   21510476.9774
     -1032.5524       -804.5874
 00  1  6  0  2 30.0000000  0  8G 2G26G 8G 5G24G 9G 4G 7
  22600006.1384  -34262993.57448 -26384914.25946  22600003.8904   22600010.4714
      -932.0584       -726.2804
  24306134.0174  -19523668.55447 -14266135.02746  24306132.0904   24306141.3494
     -1856.0944      -1446.3074
  20744649.7624  -40570079.34649 -31049057.18247  20744647.4244   20744653.2344
     -1438.8034      -1121.1444
  23672141.3794  -13141673.84148 -10213814.50946  23672139.1804   23672147.7924
      3603.6254       2808.0144
  23376970.0394  -12066386.76247  -9032155.42645  23376969.7854   23376978.4134
      4402.4444       3430.4764
  21318983.6204  -27179700.22549 -21151681.84647  21318981.7934   21318987.6464
      2405.0354       1874.0534
  21294444.7524  -22175368.16748 -16944538.87146  21294443.4304   21294448.5644
      2958.4314       2305.2684
  21516353.3354  -34425803.94149 -26491817.30047  21516351.0584   21516356.5344
     -1036.5974       -807.7394
 00  1  6  0  3  0.0000000  0  8G 2G26G 8G 5G24G 9G 4G 7
  22605339.1394  -34234968.66248 -26363076.68046  22605336.9314   22605343.4054
      -938.5934       -731.3704
  24316727.8124  -19467997.34247 -14222754.93245  24316725.9894   24316734.6574
     -1857.6464      -1447.5154
  20752898.8894  -40526731.96049 -31015280.01147  20752896.6914   20752901.9534
     -1453.3984      -1132.5164
  23651560.7714  -13249818.85547 -10298083.15246  23651558.5624   23651568.0134
      3603.8984       2808.2264
  23351844.1844  -12198431.74847  -9135047.54345  23351841.7854   23351850.6354
      4398.3614       3427.2914
  21305292.7384  -27251647.59949 -21207744.67347  21305290.9374   21305296.5574
      2389.2184       1861.7274
  21277588.8494  -22263946.41248 -17013560.82346  21277587.4544   21277592.9504
      2944.2884       2294.2494
  21522277.0414  -34394672.70149 -26467559.18547  21522274.9494   21522280.2744
     -1041.2814       -811.3894
 00  1  6  0  3 30.0000000  0  8G 2G26G 8G 5G24G 9G 4G 7
  22610711.1594  -34206741.66148 -26341081.63746  22610708.7804   22610714.6584
      -942.0354       -734.0514
  24327328.7734  -19412288.31547 -14179345.37645  24327327.3044   24327336.1844
     -1854.9804      -1445.4354
  20761230.9964  -40482946.40949 -30981161.41047  20761228.7254   20761233.6204
     -1464.3944      -1141.0864
  23630979.5154  -13357980.15447 -10382364.47546  23630977.5594   23630985.4694
      3608.2104       2811.5874
  23326740.6864  -12330353.95447  -9237843.94445  23326738.7644   23326746.2284
      4397.8794       3426.9174
  21291690.2024  -27323128.18449 -21263443.77947  21291688.5254   21291694.0374
      2377.6174       1852.6874
  21260815.3544  -22352092.45548 -17082246.00246  21260813.7584   21260819.8364
      2933.1554       2285.5734
  21528227.7104  -34363400.85349 -26443191.50747  21528225.6804   21528231.2524
     -1042.5334       -812.3634
 00  1  6  0  4  0.0000000  0  8G 2G26G 8G 5G24G 9G 4G 7
  22616146.6064  -34178174.21848 -26318821.30746  22616144.7524   22616150.7394
      -951.6384       -741.5344
  24337958.5924  -19356433.28147 -14135822.05246  24337956.9224   24337964.9024
     -1858.0694      -1447.8444
  20769669.0974  -40438602.32949 -30946607.59047  20769667.0534   20769672.4194
     -1481.1474      -1154.1414
  23610411.9764  -13466057.89447 -10466580.71145  23610409.8424   23610417.9824
      3607.6604       2811.1554
  23301682.4584  -12462036.48547  -9340453.55745  23301679.9284   23301688.3794
      4391.7274       3422.1244
  21278196.7364  -27394036.80049 -21318697.19847  21278194.9914   21278200.5394
      2360.3844       1839.2604
  21244149.5824  -22439666.82948 -17150485.72746  21244148.2634   21244154.5694
      2915.8084       2272.0564
  21534230.1894  -34331860.19649 -26418614.36747  21534227.8784   21534233.3734
     -1049.6514       -817.9104
 00  1  6  0  4 30.0000000  0  8G 2G26G 8G 5G24G 9G 4G 7
  22621605.6164  -34149482.98348 -26296464.50846  22621603.6834   22621610.8784
      -961.2854       -749.0514
  24348572.9084  -19300651.10647 -14092355.49146  24348571.3184   24348579.8754
     -1861.2484      -1450.3164
  20778171.9914  -40393917.23249 -30911788.04347  20778170.3164   20778176.1344
     -1498.2734      -1167.4844
  23589820.7534  -13574267.94848 -10550900.03246  23589818.4984   23589826.4504
      3606.0004       2809.8614
  23276627.2394  -12593701.54047  -9443049.52045  23276625.0854   23276633.0734
      4385.6314       3417.3704
  21264772.3684  -27464583.60049 -21373668.68447  21264770.4824   21264775.8934
      2342.4294       1825.2674
  21227553.6434  -22526879.87448 -17218443.89846  21227552.3064   21227558.3814
      2897.9664       2258.1574
  21540245.4404  -34300247.60349 -26393981.17247  21540243.3014   21540248.8254
     -1058.4134       -824.7374
 00  1  6  0  5  0.0000000  0  8G 2G26G 8G 5G24G 9G 4G 7
  22627116.2124  -34120524.77348 -26273899.68546  22627114.3784   22627121.7514
      -970.2544       -756.0424
  24359203.6384  -19244786.08047 -14048824.37146  24359202.1264   24359211.0364
     -1864.3454      -1452.7354
  20786771.2164  -40348730.09349 -30876577.30547  20786768.9994   20786774.7944
     -1515.5114      -1180.9164
  23569235.5804  -13682442.16648 -10635191.44046  23569233.5314   23569240.8754
      3604.4544       2808.6644
  23251602.3854  -12725200.06947  -9545515.71345  23251601.4354   23251610.2164
      4379.7744       3412.8014
  21251448.0684  -27534603.39349 -21428229.52247  21251446.0804   21251451.5314
      2324.5974       1811.3734
  21211057.9084  -22613563.21748 -17285989.32746  21211056.7494   21211062.6534
      2879.6144       2243.8534
  21546309.5964  -34268380.47949 -26369149.64447  21546307.3124   21546313.0874
     -1067.4034       -831.7434
 00  1  6  0  5 30.0000000  0  8G 2G26G 8G 5G24G 9G 4G 7
  22632685.1914  -34091267.27948 -26251101.65946  22632682.3134   22632689.0014
      -978.8944       -762.7754
  24369858.7364  -19188790.54347 -14005191.56645  24369857.1344   24369865.8304
     -1867.5914      -1455.2644
  20795476.4464  -40302982.62949 -30840929.94247  20795474.2404   20795479.5084
     -1533.0764      -1194.6044
  23548667.3304  -13790529.33048 -10719415.04646  23548665.2114   23548672.0034
      3602.4484       2807.0984
  23226619.3214  -12856485.41847  -9647815.78145  23226618.1004   23226626.9394
      4373.7034       3408.0754
  21238230.4294  -27604061.02049 -21482352.31247  21238228.7654   21238234.0294
      2307.0834       1797.7254
  21194676.0864  -22699651.07948 -17353070.73846  21194674.7864   21194680.6544
      2860.8164       2229.2044
  21552434.1284  -34236194.00849 -26344069.27747  21552432.2074   21552438.0384
     -1077.2324       -839.4024
 00  1  6  0  6  0.0000000  0  8G 2G26G 8G 5G24G 9G 4G 7
  22638280.3024  -34061859.54548 -26228186.56646  22638278.4274   22638285.1504
      -980.0184       -763.6504
  24380516.2894  -19132787.01947 -13961552.53445  24380514.2384   24380522.7254
     -1864.6364      -1452.9574
  20804263.4394  -40256809.33749 -30804950.76847  20804261.3114   20804266.4904
     -1543.6094      -1202.8134
  23528094.3404  -13898643.12248 -10803659.39746  23528091.7974   23528099.6434
      3606.4794       2810.2394
  23201655.2184  -12987675.68647  -9750041.75545  23201653.8144   23201662.7724
      4373.7144       3408.0794
  21225096.3564  -27673080.33649 -21536133.56447  21225094.6834   21225100.0514
      2295.7354       1788.8834
  21178381.5044  -22785281.73748 -17419795.89046  21178380.2234   21178385.7174
      2849.3094       2220.2404
  21558595.2124  -34203820.88449 -26318843.46347  21558592.9034   21558598.4224
     -1079.4384       -841.1224
 00  1  6  0  6 30.0000000  0  8G 2G26G 8G 5G24G 9G 4G 7
  22643907.9304  -34032292.28848 -26205147.16646  22643905.8024   22643911.5234
      -987.1444       -769.2034
  24391181.3014  -19076743.39747 -13917882.25745  24391179.8164   24391188.3494
     -1867.7474      -1455.3814
  20813134.3444  -40210193.59349 -30768626.82447  20813132.0934   20813137.5884
     -1560.0364      -1215.6114
  23507526.1414  -14006731.83048 -10887884.21746  23507523.7494   23507531.2754
      3603.5404       2807.9494
  23176714.5264  -13118744.63347  -9852173.18845  23176712.5614   23176721.0884
      4368.2894       3403.8564
  21212051.2064  -27741632.66349 -21589550.93647  21212049.6784   21212054.8754
      2278.4664       1775.4284
  21162176.9874  -22870437.79448 -17486151.22247  21162175.5284   21162181.0414
      2831.6964       2206.5154
  21564790.1734  -34171264.57949 -26293474.91347  21564788.0594   21564793.6264
     -1087.0504       -847.0534
 00  1  6  0  7  0.0000000  0  8G 2G26G 8G 5G24G 9G 4G 7
  22649576.5284  -34002496.76548 -26181929.89946  22649574.6484   22649581.1144
      -998.2034       -777.8204
  24401866.9634  -19020592.07347 -13874128.04445  24401865.0974   24401873.7074
     -1874.6064      -1460.7264
  20822098.3094  -40163083.06149 -30731917.34247  20822096.4734   20822102.6804
     -1579.6344      -1230.8844
  23486974.3844  -14114729.75648 -10972038.31946  23486972.1194   23486980.1284
      3597.4124       2803.1744
  23151805.2054  -13249643.02147  -9954171.71645  23151802.9954   23151812.2434
      4359.3664       3396.8994
  21199106.7114  -27809660.13549 -21642559.32247  21199104.6444   21199109.7394
      2257.8794       1759.3844
  21146075.0104  -22955055.00148 -17552086.67347  21146073.6604   21146078.9804
      2810.3594       2189.8884
  21571029.2804  -34138479.70949 -26267928.26047  21571027.1064   21571032.0954
     -1097.6704       -855.3264
 00  1  6  0  7 30.0000000  0  8G 2G26G 8G 5G24G 9G 4G 7
  22655272.9354  -33972562.49148 -26158604.51646  22655271.1774   22655277.8294
     -1001.4654       -780.3634
  24412552.3594  -18964442.40747 -13830375.12345  24412550.8404   24412557.3084
     -1872.7034      -1459.2494
  20831136.7274  -40115588.92149 -30694908.94347  20831134.4754   20831140.1694
     -1590.5694      -1239.4054
  23466419.5494  -14222740.78848 -11056202.63146  23466417.6574   23466425.7244
      3599.4214       2804.7424
  23126908.3794  -13380475.62047 -10056118.97745  23126906.2964   23126914.9614
      4358.8034       3396.4614
  21186240.7444  -27877269.40749 -21695241.84147  21186238.9934   21186244.1764
      2245.3684       1749.6354
  21130056.6744  -23039231.81348 -17617678.95247  21130055.4604   21130060.5244
      2797.3994       2179.7914
  21577289.9364  -34105580.69849 -26242292.66147  21577287.5774   21577292.5924
     -1099.4794       -856.7364
 00  1  6  0  8  0.0000000  0  8G 2G26G 8G 5G24G 9G 4G 7
  22661019.8254  -33942361.48548 -26135071.28846  22661017.9824   22661024.8264
     -1013.0764       -789.4094
  24423253.1204  -18908199.16047 -13786549.29645  24423251.9864   24423260.9544
     -1878.0004      -1463.3794
  20840264.6244  -40067620.73449 -30657531.15447  20840262.5134   20840267.8104
     -1608.5904      -1253.4474
  23445884.0344  -14330655.67948 -11140292.01846  23445882.2764   23445890.0474
      3593.9394       2800.4664
  23102043.2774  -13511141.42147 -10157936.29045  23102041.7404   23102049.6134
      4351.2274       3390.5604
  21173476.1624  -27944344.28549 -21747507.95647  21173474.5044   21173479.8874
      2225.2504       1733.9594
  21114142.7924  -23122860.33548 -17682843.99547  21114140.9934   21114146.1964
      2776.5474       2163.5414
  21583586.1574  -34072491.06449 -26216508.53347  21583583.9844   21583589.5404
     -1107.9504       -863.3374
 00  1  6  0  8 30.0000000  0  8G 2G26G 8G 5G24G 9G 4G 7
  22666808.5264  -33911942.14848 -26111367.93246  22666806.4224   22666813.4364
     -1017.3684       -792.7514
  24433958.6454  -18851943.82947 -13742714.03245  24433957.6094   24433965.0444
     -1875.0904      -1461.1054
  20849469.8444  -40019246.44549 -30619836.91847  20849467.6604   20849473.4524
     -1618.9544      -1261.5234
  23425353.0904  -14438551.78848 -11224366.76246  23425350.2774   23425357.7724
      3596.6774       2802.6014
  23077194.2614  -13641724.24047 -10259688.96645  23077192.2184   23077199.9944
      4351.4564       3390.7384
  21160799.8424  -28010959.77749 -21799416.10047  21160797.9974   21160803.6204
      2213.1164       1724.5044
  21098322.1324  -23205993.96348 -17747623.40047  21098320.9824   21098326.4784
      2763.1594       2153.1104
  21589907.4104  -34039272.58649 -26190624.01247  21589905.2014   21589911.0914
     -1109.5904       -864.6154
 00  1  6  0  9  0.0000000  0  8G 2G26G 8G 5G24G 9G 4G 7
  22672659.4874  -33881193.53348 -26087408.00346  22672657.9364   22672664.8914
     -1028.4064       -801.3554
  24444684.7164  -18795577.06847 -13698791.94945  24444683.5294   24444691.2874
     -1878.7354      -1463.9454
  20858772.3574  -39970361.49249 -30581744.77347  20858770.1844   20858776.0044
     -1636.2614      -1275.0084
  23404840.0234  -14546341.80248 -11308358.84546  23404838.2154   23404846.7044
      3593.2444       2799.9244
  23052384.1934  -13772093.82247 -10361275.49045  23052382.6864   23052390.9344
      4343.5944       3384.6154
  21148232.3514  -28077002.18549 -21850877.68847  21148230.6014   21148236.0484
      2193.6654       1709.3494
  21082615.7734  -23288531.13948 -17811938.04047  21082614.6624   21082620.1994
      2743.1564       2137.5214
  21596277.2984  -34005796.66749 -26164538.88547  21596275.3654   21596281.1444
     -1118.3664       -871.4554
 00  1  6  0  9 30.0000000  0  8G 2G26G 8G 5G24G 9G 4G 7
  22678535.6764  -33850321.56948 -26063351.95446  22678532.9564   22678539.7714
     -1032.8954       -804.8534
  24455392.2304  -18739311.31647 -13654948.54545  24455390.8704   24455398.6524
     -1875.9654      -1461.7904
  20868137.3374  -39921150.93649 -30543398.90347  20868135.1294   20868140.5654
     -1647.7284      -1283.9434
  23384310.3144  -14654224.64348 -11392423.25446  23384308.2524   23384316.9154
      3595.6404       2801.7924
  23027584.5704  -13902417.52447 -10462826.27945  23027583.2264   23027591.3674
      4341.2144       3382.7604
  21135739.3384  -28142656.28449 -21902036.70147  21135737.5664   21135742.3814
      2179.9094       1698.6294
  21066984.8024  -23370672.13448 -17875943.96847  21066983.7144   21066989.2524
      2729.6534       2127.0024
  21602660.7824  -33972253.00649 -26138400.97347  21602658.3894   21602664.2724
     -1121.3644       -873.7904
 00  1  6  0 10  0.0000000  0  8G 2G26G 8G 5G24G 9G 4G 7
  22684457.5874  -33819194.67248 -26039097.26446  22684455.8604   22684462.6554
     -1042.0604       -811.9934
  24466109.7264  -18682991.36947 -13611062.93545  24466108.0334   24466116.5064
     -1878.9994      -1464.1514
  20877592.4914  -39871462.21649 -30504680.43647  20877590.4474   20877596.2984
     -1665.0374      -1297.4314
  23363793.4634  -14762040.59348 -11476435.55646  23363791.4384   23363799.9654
      3592.0634       2799.0064
  23002823.4814  -14032540.56347 -10564220.72345  23002821.4174   23002829.4374
      4333.3954       3376.6664
  21123350.0094  -28207762.04549 -21952768.44747  21123348.1194   21123353.0314
      2160.3114       1683.3574
  21051455.5924  -23452282.61848 -17939536.51247  21051453.8484   21051459.4104
      2710.9124       2112.3974
  21609087.3684  -33938480.59449 -26112084.81047  21609085.3244   21609090.7774
     -1130.4824       -880.8954
 00  1  6  0 10 29.9990000  0  8G 2G26G 8G 5G24G 9G 4G 7
  22690435.7784  -33787782.05048 -26014619.92946  22690433.5694   22690440.6014
     -1049.8364       -818.0554
  24476847.8524  -18626557.62647 -13567088.64945  24476846.8114   24476855.3964
     -1881.3904      -1466.0164
  20887151.7964  -39821227.85349 -30465536.79947  20887149.6374   20887155.1094
     -1681.8094      -1310.5004
  23343303.3214  -14869719.55348 -11560341.11246  23343301.0574   23343309.6074
      3589.0134       2796.6304
  22978114.5774  -14162384.03347 -10665397.34345  22978112.7844   22978121.0514
      4325.2584       3370.3264
  21111079.4124  -28272241.30849 -22003012.00447  21111077.8004   21111083.2654
      2140.7094       1668.0854
  21036037.2304  -23533306.15248 -18002671.69247  21036035.7784   21036041.2344
      2692.9884       2098.4324
  21615572.2124  -33904405.56249 -26085532.83047  21615569.8054   21615574.8554
     -1139.0844       -887.5994
 00  1  6  0 10 59.9990000  0  8G 2G26G 8G 5G24G 9G 4G 7
  22696445.1974  -33756203.95648 -25990013.65146  22696443.0234   22696449.4404
     -1055.1474       -822.1924
  24487589.2834  -18570115.26047 -13523107.64245  24487588.1704   24487596.0734
     -1881.3024      -1465.9534
  20896793.6294  -39770559.89749 -30426055.29147  20896791.4354   20896796.8504
     -1696.0164      -1321.5714
  23322816.8414  -14977376.84048 -11644229.78846  23322814.7334   23322822.6804
      3588.2994       2796.0734
  22953438.6424  -14292052.37447 -10766437.49345  22953437.9534   22953446.2024
      4319.5714       3365.8974
  21098909.4934  -28336196.30349 -22052847.04247  21098907.7534   21098913.0134
      2123.2594       1654.4884
  21020708.5234  -23613855.87448 -18065437.66547  21020707.3544   21020713.2304
      2676.9324       2085.9204
  21622091.3784  -33870145.13049 -26058836.38547  21622089.3364   21622094.2424
     -1144.9024       -892.1314
 00  1  6  0 11 29.9990000  0  8G 2G26G 8G 5G24G 9G 4G 7
  22702485.8674  -33724461.41348 -25965279.24046  22702483.7774   22702490.0244
     -1058.7844       -825.0254
  24498331.6234  -18513666.58247 -13479121.73245  24498330.2524   24498338.0614
     -1879.7444      -1464.7344
  20906515.9434  -39719466.93049 -30386242.61047  20906513.8774   20906519.9514
     -1707.8834      -1330.8174
  23302335.7154  -15084999.69048 -11728091.63146  23302334.1104   23302341.7214
      3589.0124       2796.6284
  22928795.4474  -14421556.55547 -10867349.76045  22928793.9094   22928801.0854
      4316.3354       3363.3754
  21086837.8484  -28399631.73349 -22102277.22747  21086836.3244   21086841.6944
      2108.1854       1642.7424
  21005474.8384  -23693910.96548 -18127818.20847  21005473.4424   21005478.9354
      2662.2694       2074.4944
  21628643.9674  -33835710.03649 -26032003.84547  21628641.8664   21628647.2954
     -1148.5534       -894.9774
 00  1  6  0 11 59.9990000  0  8G 2G26G 8G 5G24G 9G 4G 7
  22708550.4204  -33692589.25048 -25940443.81846  22708548.4154   22708555.0014
     -1065.0454       -829.9044
  24509066.5404  -18457255.81247 -13435165.34445  24509064.9954   24509073.3674
     -1879.8834      -1464.8434
  20916307.8654  -39668013.78949 -30346149.27647  20916305.6304   20916311.1334
     -1721.2644      -1341.2444
  23281852.5334  -15192643.16248 -11811969.52246  23281850.6734   23281857.8794
      3588.4664       2796.2024
  22904172.0794  -14550952.21147 -10968177.46845  22904170.4034   22904177.8004
      4311.0754       3359.2784
  21074853.2194  -28462609.41749 -22151350.72747  21074851.6084   21074857.5004
      2091.4894       1629.7294
  20990328.0324  -23773507.23748 -18189841.22847  20990326.5654   20990332.1024
      2644.9394       2060.9914
  21635218.2854  -33801163.06549 -26005084.13347  21635216.0454   21635221.6744
     -1153.6044       -898.9124
 00  1  6  0 12 29.9990000  0  8G 2G26G 8G 5G24G 9G 4G 7
  22714664.1654  -33660460.98048 -25915408.82346  22714662.0544   22714668.6304
     -1076.1594       -838.5644
  24519810.3624  -18400792.55247 -13391168.06945  24519808.9154   24519817.7254
     -1883.8164      -1467.9084
  20926184.4104  -39616111.08449 -30305705.63347  20926182.2924   20926187.4074
     -1738.2294      -1354.4644
  23261380.8034  -15300226.47348 -11895800.53046  23261378.4204   23261385.3544
      3584.5324       2793.1374
  22879591.2444  -14680128.69547 -11068834.39546  22879589.1724   22879596.5834
      4301.5514       3351.8514
  21062974.6304  -28525035.35149 -22199994.28847  21062973.0294   21062977.8704
      2071.2044       1613.9244
  20975291.8904  -23852520.75248 -18251410.14647  20975290.4854   20975296.8404
      2623.1714       2044.0274
  21641831.1144  -33766412.78149 -25978006.00447  21641828.7344   21641834.1824
     -1162.5684       -905.8974
 00  1  6  0 12 59.9990000  0  8G 2G26G 8G 5G24G 9G 4G 7
  22720830.1784  -33628061.83248 -25890162.75046  22720827.6154   22720833.9374
     -1084.4424       -845.0204
  24530566.7214  -18344269.13447 -13347123.89045  24530565.3094   24530574.3174
     -1885.1064      -1468.9114
  20936145.4824  -39563765.34648 -30264916.76947  20936143.3134   20936148.6274
     -1752.3614      -1365.4754
  23240918.3504  -15407753.98748 -11979588.06846  23240916.1864   23240923.2534
      3583.1284       2792.0454
  22855050.5424  -14809089.87947 -11169323.56246  22855049.0834   22855056.6894
      4295.0634       3346.7994
  21051197.8384  -28586925.00749 -22248219.97147  21051195.7754   21051200.7174
      2054.0994       1600.5964
  20960369.7524  -23930936.93648 -18312513.61547  20960368.4244   20960374.1014
      2603.8674       2028.9864
  21648483.3874  -33731454.49549 -25950765.79147  21648481.1834   21648486.4504
     -1168.8554       -910.7964
 00  1  6  0 13 29.9990000  0  8G 2G26G 8G 5G24G 9G 4G 7
  22727031.3484  -33595474.85748 -25864770.33746  22727029.1434   22727035.4214
     -1089.7444       -849.1524
  24541316.9684  -18287774.49147 -13303102.14345  24541315.3024   24541325.1034
     -1883.0154      -1467.2854
  20946177.6124  -39511047.44148 -30223837.90447  20946175.3624   20946180.6054
     -1764.0794      -1374.6064
  23220454.3664  -15515288.17048 -12063380.80746  23220452.7034   23220460.0834
      3584.0604       2792.7674
  22830534.7064  -14937916.03747 -11269707.51946  22830533.7904   22830540.9694
      4291.6874       3344.1674
  21039505.4634  -28648365.22249 -22296095.44147  21039503.8884   21039508.9574
      2039.9804       1589.5944
  20945546.0394  -24008839.32348 -18373216.72247  20945544.4334   20945549.6824
      2587.8954       2016.5394
  21655159.6184  -33696371.04349 -25923428.04347  21655157.5394   21655162.9024
     -1172.0504       -913.2864
 00  1  6  0 13 59.9990000  0  8G 2G26G 8G 5G24G 9G 4G 7
  22733268.3124  -33562698.03948 -25839229.99646  22733266.3814   22733272.7444
     -1096.8874       -854.7174
  24552060.9024  -18231311.56447 -13259105.10545  24552060.2304   24552069.8364
     -1882.9074      -1467.1984
  20956284.3124  -39457934.03048 -30182450.85447  20956282.2224   20956288.0824
     -1778.3904      -1385.7594
  23199993.1734  -15622817.37948 -12147169.66146  23199990.9314   23199997.7494
      3582.7694       2791.7654
  22806044.9514  -15066611.33947 -11369989.50946  22806043.9894   22806051.6684
      4286.4034       3340.0554
  21027904.0984  -28709330.88849 -22343601.13547  21027902.4934   21027907.7654
      2022.7394       1576.1594
  20930818.7054  -24086228.35848 -18433519.81047  20930817.6004   20930823.2814
      2569.7314       2002.3874
  21661861.9534  -33661150.46349 -25895983.43947  21661859.8514   21661865.0854
     -1177.7854       -917.7564
 00  1  6  0 14 29.9990000  0  8G 2G26G 8G 5G24G 9G 4G 7
  22739560.0054  -33529632.02248 -25813464.29946  22739558.1054   22739564.8884
     -1112.1384       -866.6024
  24562822.5464  -18174763.47147 -13215041.71645  24562820.9164   24562830.1344
     -1891.7964      -1474.1254
  20966490.1264  -39404302.34448 -30140659.95647  20966488.1754   20966493.8924
     -1801.9474      -1404.1144
  23179557.1064  -15730205.67648 -12230848.69946  23179555.1634   23179562.9104
      3571.6894       2783.1274
  22781602.2384  -15195061.48747 -11470080.46546  22781600.4164   22781608.4624
      4272.1124       3328.9144
  21016417.7624  -28769693.21249 -22390636.68547  21016415.9184   21016421.2514
      1996.6784       1555.8514
  20916211.5214  -24162991.79048 -18493335.40947  20916210.0144   20916215.6204
      2542.9674       1981.5304
  21668613.4364  -33625671.81849 -25868337.74847  21668610.8424   21668616.0484
     -1192.4344       -929.1704
 00  1  6  0 14 59.9990000  0  8G 2G26G 8G 5G24G 9G 4G 7
  22745888.8384  -33496375.30248 -25787550.00646  22745887.0004   22745893.6524
     -1110.3714       -865.2244
  24573584.3224  -18118210.49347 -13170974.49445  24573582.9584   24573590.8614
     -1883.5164      -1467.6754
  20976782.7974  -39350218.17248 -30098516.46447  20976780.5344   20976785.9004
     -1808.9084      -1409.5374
  23159137.4854  -15837512.94948 -12314464.61246  23159135.7154   23159142.0754
      3577.0924       2787.3414
  22757192.1954  -15323339.29448 -11570037.12746  22757190.2534   22757197.7514
      4274.3034       3330.6214
  21005031.6464  -28829526.08049 -22437259.67347  21005029.8484   21005035.0664
      1987.0764       1548.3694
  20901708.1504  -24239208.48348 -18552724.98447  20901706.3444   20901711.8434
      2533.0644       1973.8154
  21675398.2314  -33590013.97949 -25840552.42847  21675396.2344   21675401.5614
     -1190.0674       -927.3244
 00  1  6  0 15 29.9990000  0  8G 2G26G 8G 5G24G 9G 4G 7
  22752247.1484  -33462963.71548 -25761515.03346  22752245.1354   22752251.9224
     -1117.4054       -870.7054
  24584333.8934  -18061722.33147 -13126957.78845  24584332.1064   24584340.8424
     -1882.7794      -1467.0944
  20987150.8374  -39295731.78748 -30056059.55647  20987148.6734   20987154.1744
     -1823.5634      -1420.9574
  23138720.6994  -15944803.74448 -12398067.69046  23138718.2734   23138725.0784
      3575.5794       2786.1644
  22732807.4604  -15451481.57748 -11669888.18146  22732805.5034   22732813.0984
      4268.2884       3325.9364
  20993736.9464  -28888878.74549 -22483508.47647  20993734.9994   20993740.5404
      1969.5254       1534.6934
  20887294.2874  -24314946.34448 -18611741.44347  20887293.5894   20887299.0324
      2515.8694       1960.4154
  21682206.0974  -33554239.05149 -25812675.86947  21682203.9684   21682209.2734
     -1195.2774       -931.3834
 00  1  6  0 15 59.9990000  0  8G 2G26G 8G 5G24G 9G 4G 7
  22758665.5564  -33429232.24748 -25735230.80646  22758663.6904   22758671.0684
     -1127.4894       -878.5604
  24595100.4964  -18005143.12047 -13082870.11145  24595098.7474   24595107.6944
     -1885.3534      -1469.1044
  20997619.6864  -39240718.29348 -30013191.92447  20997617.5404   20997622.8744
     -1839.9834      -1433.7534
  23118329.4744  -16051957.00248 -12481563.58646  23118327.6494   23118335.0694
      3571.8544       2783.2584
  22708478.0894  -15579330.45248 -11769510.59146  22708476.7474   22708484.5124
      4258.6744       3318.4424
  20982561.4994  -28947603.38849 -22529267.90847  20982559.9044   20982565.9654
      1949.6154       1519.1794
  20873001.2964  -24390062.89748 -18670273.76947  20872999.8554   20873004.7084
      2495.7524       1944.7404
  21689062.4064  -33518212.00749 -25784602.86147  21689060.0494   21689065.3834
     -1202.7864       -937.2364
 00  1  6  0 16 29.9990000  0  8G 2G26G 8G 5G24G 9G 4G 7
  22765118.4514  -33395324.07348 -25708808.87646  22765116.0624   22765123.7824
     -1134.8994       -884.3334
  24605857.4574  -17948620.59847 -13038826.60445  24605855.4814   24605864.3204
     -1884.6864      -1468.5904
  21008155.8544  -39185349.04448 -29970047.07347  21008153.8944   21008159.5134
     -1853.3074      -1444.1344
  23097934.0994  -16159136.04848 -12565079.57646  23097931.6984   23097939.5314
      3571.6614       2783.1084
  22684182.0934  -15707009.93148 -11869000.99746  22684180.3144   22684187.8014
      4251.4394       3312.8074
  20971473.6254  -29005875.59949 -22574674.79847  20971471.8224   20971476.9324
      1933.2794       1506.4504
  20858797.2954  -24464705.23848 -18728436.58547  20858795.8804   20858800.9574
      2478.5064       1931.3014
  21695935.0274  -33482096.44649 -25756460.87647  21695932.7094   21695938.3634
     -1207.0654       -940.5714
 00  1  6  0 16 59.9990000  0  8G 2G26G 8G 5G24G 9G 4G 7
  22771627.9984  -33361117.17648 -25682154.17246  22771625.8004   22771632.6764
     -1142.8974       -890.5694
  24616619.7794  -17892052.60447 -12994747.70045  24616618.8794   24616627.6534
     -1883.8334      -1467.9194
  21018780.9224  -39129511.10148 -29926537.00947  21018778.9264   21018785.1314
     -1866.2934      -1454.2544
  23077550.4654  -16266250.04348 -12648544.89046  23077548.5144   23077555.9954
      3572.1444       2783.4854
  22659938.3174  -15834410.26548 -11968273.89746  22659936.5224   22659944.0484
      4244.7004       3307.5574
  20960491.8554  -29063583.42849 -22619641.91147  20960490.1014   20960495.0954
      1916.6884       1493.5234
  20844703.6174  -24538764.36748 -18786144.94547  20844702.4134   20844708.0914
      2461.6074       1918.1334
  21702844.5084  -33445785.96049 -25728167.00647  21702842.0894   21702847.9294
     -1210.9604       -943.6064
 00  1  6  0 17 29.9990000  0  8G 2G26G 8G 5G24G 9G 4G 7
  22778181.9004  -33326677.47348 -25655318.06346  22778179.4564   22778186.1534
     -1157.2664       -901.7644
  24627378.3964  -17835519.48447 -12950695.96145  24627377.2934   24627385.7684
     -1889.7344      -1472.5134
  21029476.9754  -39073302.52748 -29882738.14447  21029475.0824   21029481.2214
     -1885.4164      -1469.1554
  23057162.0194  -16373391.71148 -12732031.78146  23057160.2874   23057167.0804
      3565.8234       2778.5584
  22635728.0214  -15961629.14348 -12067405.37646  22635726.8814   22635734.8234
      4232.1964       3297.8084
  20949602.9384  -29120803.83049 -22664229.20847  20949601.3564   20949606.8084
      1893.4034       1475.3784
  20830705.4654  -24612329.32848 -18843468.25247  20830703.7934   20830708.9584
      2437.9224       1899.6774
  21709773.9614  -33409371.25349 -25699791.91747  21709771.8254   21709777.3184
     -1221.4074       -951.7464
 00  1  6  0 17 59.9990000  0  8G 2G26G 8G 5G24G 9G 4G 7
  22784778.9854  -33292010.55548 -25628304.91646  22784776.5784   22784783.5064
     -1161.3334       -904.9314
  24638135.3614  -17778991.48347 -12906648.23945  24638134.2084   24638141.9644
     -1886.3794      -1469.8984
  21040246.6504  -39016710.65148 -29838640.59747  21040244.2714   21040250.2574
     -1895.2134      -1476.7904
  23036777.8014  -16480511.05148 -12815501.27246  23036775.9784   23036782.8394
      3567.7514       2780.0584
  22611553.7374  -16088666.06448 -12166395.03646  22611552.3334   22611560.3784
      4229.3504       3295.5894
  20938811.7844  -29177512.67849 -22708417.89047  20938810.2024   20938815.7074
      1879.5954       1464.6184
  20816808.8934  -24685351.78148 -18900368.82447  20816807.8954   20816813.2564
      2422.5194       1887.6754
  21716728.8094  -33372823.01449 -25671312.76747  21716726.5634   21716732.2054
     -1223.0984       -953.0644
 00  1  6  0 18 29.9990000  0  8G 2G26G 8G 5G24G 9G 4G 7
  22791428.2294  -33257061.73848 -25601072.10846  22791426.5124   22791434.1764
     -1167.5534       -909.7784
  24648902.8004  -17722407.08247 -12862556.49145  24648901.8494   24648911.2834
     -1884.9244      -1468.7734
  21051104.9764  -38959646.14748 -29794174.77047  21051103.0784   21051109.4984
     -1908.2204      -1486.9244
  23016416.7234  -16587512.46948 -12898878.87046  23016414.6184   23016421.3424
      3566.6304       2779.1894
  22587426.7064  -16215456.66548 -12265192.76546  22587425.3454   22587432.8334
      4224.2674       3291.6334
  20928134.2924  -29233626.90749 -22752143.23347  20928132.0964   20928137.2844
      1862.2584       1451.1094
  20803033.0604  -24757746.92248 -18956780.58647  20803031.6104   20803036.9204
      2404.7124       1873.7994
  21723726.4734  -33336047.01749 -25642656.14747  21723724.5554   21723730.6254
     -1227.8324       -956.7514
 00  1  6  0 18 59.9990000  0  8G 2G26G 8G 5G24G 9G 4G 7
  22798098.9634  -33222009.80248 -25573758.93046  22798096.3204   22798104.4704
     -1176.5644       -916.8044
  24659647.2694  -17665948.58747 -12818562.91045  24659646.3184   24659655.1114
     -1886.3864      -1469.9064
  21062021.5514  -38902281.83248 -29749475.33547  21062019.3574   21062025.3394
     -1923.3134      -1498.6844
  22996047.3784  -16694555.03348 -12982288.53646  22996045.1384   22996051.7964
      3562.2404       2775.7684
  22563313.0354  -16342178.18648 -12363936.68146  22563311.0844   22563317.6824
      4216.2294       3285.3694
  20917538.8234  -29289304.14449 -22795528.06747  20917537.2304   20917542.4984
      1842.2764       1435.5374
  20789342.6154  -24829693.22748 -19012842.60547  20789340.9474   20789345.8014
      2384.2374       1857.8454
  21730736.6024  -33299210.23749 -25613952.16547  21730734.3604   21730740.2964
     -1235.5324       -962.7524
 00  1  6  0 19 29.9990000  0  8G 2G26G 8G 5G24G 9G 4G 7
  22804817.2744  -33186702.54648 -25546246.79146  22804815.6354   22804822.6094
     -1180.8474       -920.1374
  24670396.1664  -17609458.25347 -12774544.52245  24670395.1594   24670405.2704
     -1883.4504      -1467.6234
  21073021.7434  -38844475.75348 -29704431.65947  21073019.6014   21073025.4794
     -1934.3844      -1507.3124
  22975702.6104  -16801462.22748 -13065592.70846  22975700.7374   22975707.7554
      3561.0414       2774.8374
  22539245.2054  -16468653.21948 -12462488.52546  22539243.6324   22539249.8774
      4211.4954       3281.6834
  20907055.6704  -29344392.07249 -22838453.69747  20907054.1694   20907059.6394
      1826.5874       1423.3144
  20775768.1644  -24901025.47648 -19068426.14747  20775766.8124   20775771.8714
      2367.4104       1844.7354
  21737790.7644  -33262139.83848 -25585066.14247  21737788.4244   21737794.3514
     -1239.8134       -966.0884
 00  1  6  0 19 59.9990000  0  8G 2G26G 8G 5G24G 9G 4G 7
  22811575.4624  -33151191.81448 -25518576.10946  22811573.1654   22811580.1924
     -1192.5554       -929.2644
  24681142.4724  -17552985.83047 -12730540.06145  24681141.3804   24681150.6204
     -1887.3574      -1470.6684
  21084099.5264  -38786260.26848 -29659068.96147  21084097.8194   21084103.5354
     -1952.6364      -1521.5344
  22955380.3974  -16908259.23248 -13148811.03746  22955377.7404   22955384.6734
      3553.2814       2768.7884
  22515222.3154  -16594897.12748 -12560860.25546  22515220.1514   22515226.6144
      4198.7624       3271.7614
  20896677.2484  -29398936.84649 -22880956.08847  20896675.0654   20896680.3744
      1803.9144       1405.6454
  20762302.1994  -24971787.90848 -19123565.67247  20762300.7954   20762306.4014
      2344.2454       1826.6844
  21744883.5804  -33224866.79848 -25556022.21747  21744881.6354   21744887.2614
     -1250.9644       -974.7764
 00  1  6  0 20 29.9990000  0  8G 2G26G 8G 5G24G 9G 4G 7
  22818393.8534  -33115358.64248 -25490654.17746  22818392.1924   22818398.8654
     -1196.1084       -932.0344
  24691904.7774  -17496432.90147 -12686472.87845  24691903.5434   24691912.8444
     -1882.6914      -1467.0304
  21095275.4644  -38727533.60448 -29613307.94247  21095273.2184   21095279.1844
     -1962.3244      -1529.0834
  22935090.7644  -17014876.48248 -13231889.29146  22935088.9714   22935096.0334
      3554.8314       2769.9954
  22491266.2104  -16720786.82548 -12658955.98346  22491263.8844   22491270.4184
      4194.0384       3268.0794
  20886421.0174  -29452831.42549 -22922951.83547  20886419.2654   20886424.2964
      1789.4374       1394.3664
  20748959.7944  -25041903.25048 -19178200.97547  20748958.2794   20748963.5994
      2330.1614       1815.7084
  21752032.4914  -33187302.14348 -25526751.04747  21752030.1424   21752035.6374
     -1253.2274       -976.5404
 00  1  6  0 20 59.9990000  0  8G 2G26G 8G 5G24G 9G 4G 7
  22825235.7284  -33079404.66948 -25462638.10846  22825233.7874   22825240.9064
     -1203.1854       -937.5484
  24702642.0914  -17440008.17047 -12642505.60945  24702640.8134   24702650.3234
     -1881.3974      -1466.0234
  21106506.3184  -38668513.55548 -29567318.31847  21106504.3254   21106510.6494
     -1974.7464      -1538.7624
  22914794.2924  -17121536.05348 -13315000.51946  22914792.4314   22914799.6294
      3553.5944       2769.0304
  22467337.8224  -16846525.51348 -12756934.02946  22467336.7414   22467344.1624
      4186.1774       3261.9494
  20876247.3354  -29506291.86649 -22964609.28847  20876245.7254   20876250.6824
      1772.0994       1380.8554
  20735699.9584  -25111583.29348 -19232497.08447  20735698.5664   20735703.7624
      2312.5684       1801.9994
  21759194.4144  -33149665.08748 -25497423.46047  21759192.2594   21759197.5214
     -1258.4794       -980.6344
 00  1  6  0 21 29.9990000  0  8G 2G26G 8G 5G24G 9G 4G 7
  22832117.5994  -33043240.48948 -25434458.25346  22832115.8844   22832122.3624
     -1213.5104       -945.5894
  24713370.0614  -17383633.70347 -12598577.48945  24713368.2064   24713376.8694
     -1882.8574      -1467.1644
  21117809.9814  -38609111.28348 -29521030.85747  21117807.9594   21117814.2934
     -1991.3364      -1551.6914
  22894503.6724  -17228166.51048 -13398089.06146  22894501.4054   22894508.1514
      3549.3974       2765.7594
  22443454.1194  -16972033.80048 -12854732.55346  22443452.8804   22443460.4824
      4175.4914       3253.6274
  20866174.5344  -29559227.17149 -23005857.54847  20866172.7724   20866177.5784
      1751.1224       1364.5084
  20722541.3714  -25180731.77848 -19286378.98247  20722540.1084   20722545.2544
      2291.4824       1785.5704
  21766384.9324  -33111878.14748 -25467979.08547  21766382.5904   21766388.0394
     -1266.4094       -986.8104
 00  1  6  0 21 59.9990000  0  8G 2G26G 8G 5G24G 9G 4G 7
  22839040.4814  -33006860.71448 -25406110.40046  22839038.8194   22839045.2944
     -1214.9124       -946.6844
  24724088.2084  -17327311.72147 -12554690.25245  24724086.3954   24724094.5274
     -1875.1774      -1461.1754
  21129190.2984  -38549305.73648 -29474429.14647  21129188.3504   21129194.3914
     -1998.7254      -1557.4484
  22874214.6064  -17334785.33548 -13481168.54946  22874212.4244   22874219.8694
      3555.4954       2770.5134
  22419611.4974  -17097331.05648 -12952366.64746  22419609.9344   22419616.6734
      4174.6184       3252.9464
  20856202.7504  -29611629.09249 -23046690.18447  20856200.9224   20856205.8344
      1739.2614       1355.2674
  20709485.1444  -25249343.78548 -19339842.84947  20709483.6294   20709488.9114
      2279.3064       1776.0834
  21773598.6194  -33073970.04148 -25438440.29347  21773596.5004   21773601.6954
     -1264.0674       -984.9894
 00  1  6  0 22 29.9990000  0  8G 2G26G 8G 5G24G 9G 4G 7
  22845998.5694  -32970299.72348 -25377621.34246  22845996.3384   22846002.9784
     -1223.8794       -953.6734
  24734787.1204  -17271086.56547 -12510878.48245  24734785.4024   24734794.3464
     -1874.6544      -1460.7634
  21140640.5564  -38489137.82048 -29427545.06247  21140638.1284   21140643.9114
     -2013.8174      -1569.2084
  22853918.8394  -17441441.66548 -13564277.24346  22853916.3514   22853923.9994
      3553.2134       2768.7324
  22395798.1034  -17222471.65148 -13049878.66846  22395796.5024   22395803.1034
      4166.5794       3246.6844
  20846325.5254  -29663533.39049 -23087135.05747  20846323.7344   20846328.7804
      1719.7004       1340.0254
  20696527.4714  -25317436.73649 -19392902.25847  20696526.1184   20696531.6104
      2258.5874       1759.9364
  21780825.5074  -33035989.81048 -25408845.30347  21780823.5724   21780829.0394
     -1269.5924       -989.2934
 00  1  6  0 22 59.9990000  0  8G 2G26G 8G 5G24G 9G 4G 7
  22853029.2314  -32933352.58848 -25348831.39546  22853026.3494   22853033.6274
     -1239.1014       -965.5304
  24745503.6264  -17214766.90847 -12466993.08545  24745503.1794   24745511.7374
     -1880.1004      -1465.0164
  21152196.8274  -38428408.64248 -29380223.64447  21152194.8354   21152200.8924
     -2034.6924      -1585.4724
  22833659.1384  -17547902.33148 -13647233.47746  22833657.4534   22833664.3374
      3544.2414       2761.7424
  22372052.4054  -17347254.28148 -13147111.76546  22372050.5474   22372057.3494
      4152.2984       3235.5544
  20836580.0954  -29714744.58849 -23127039.85347  20836578.3804   20836583.6264
      1694.4294       1320.3334
  20683711.9054  -25384784.07349 -19445380.66647  20683710.3654   20683715.7764
      2231.2474       1738.6334
  21788105.3234  -32997736.60348 -25379037.60847  21788103.1414   21788108.6494
     -1280.6824       -997.9344
 00  1  6  0 23 29.9990000  0  8G 2G26G 8G 5G24G 9G 4G 7
  22860104.3024  -32896168.80748 -25319857.05046  22860102.6824   22860109.8244
     -1241.4944       -967.3984
  24756213.7074  -17158491.50747 -12423142.18145  24756211.8864   24756220.9094
     -1873.5274      -1459.8914
  21163833.0354  -38367262.37848 -29332577.22647  21163830.5454   21163836.3184
     -2043.4554      -1592.3024
  22813411.6754  -17654302.42848 -13730142.52846  22813409.9254   22813416.4214
      3547.2324       2764.0724
  22348348.8054  -17471818.39248 -13244174.58246  22348346.8304   22348353.8704
      4150.0574       3233.8074
  20826938.6394  -29765411.22749 -23166520.31847  20826936.9784   20826942.4084
      1681.6724       1310.3934
  20671010.7594  -25451524.74348 -19497386.33747  20671009.5884   20671015.2194
      2216.4194       1727.0794
  21795407.2324  -32959365.21448 -25349137.82947  21795404.7614   21795410.4784
     -1279.3194       -996.8724
 00  1  6  0 23 59.9990000  0  8G 2G26G 8G 5G24G 9G 4G 7
  22867219.4204  -32858780.76048 -25290723.52646  22867217.1424   22867224.5834
     -1251.3134       -975.0464
  24766912.7194  -17102267.45947 -12379331.28045  24766910.9634   24766919.9244
     -1874.9154      -1460.9704
  21175542.3514  -38305729.55348 -29284629.58547  21175539.9374   21175546.0664
     -2058.8324      -1604.2834
  22793175.7354  -17760644.84148 -13813006.60846  22793173.8824   22793179.4664
      3542.0744       2760.0544
  22324685.2494  -17596169.56048 -13341071.48746  22324683.7644   22324690.5354
      4139.5694       3225.6334
  20817394.7654  -29815563.39849 -23205599.89447  20817393.0674   20817398.5414
      1661.5144       1294.6854
  20658421.5034  -25517684.73349 -19548939.53047  20658420.1324   20658425.3624
      2194.0064       1709.6144
  21802728.6294  -32920892.44448 -25319159.05647  21802726.2204   21802731.5644
     -1286.0474      -1002.1154
 00  1  6  0 24 29.9990000  0  8G 2G26G 8G 5G24G 9G 4G 7
  22874361.6784  -32821247.13748 -25261476.56946  22874359.4544   22874366.6834
     -1257.7994       -980.1034
  24777591.6124  -17046153.56547 -12335606.23245  24777589.2564   24777598.2644
     -1873.0544      -1459.5234
  21187307.5454  -38243897.45048 -29236448.74447  21187305.8354   21187312.0094
     -2070.1854      -1613.1324
  22772940.9324  -17866978.44248 -13895863.82846  22772938.6654   22772944.9494
      3539.9544       2758.3994
  22301055.4614  -17720344.07548 -13437830.75246  22301053.6934   22301060.8694
      4131.7554       3219.5454
  20807938.3094  -29865256.58249 -23244321.81247  20807936.6094   20807942.0244
      1644.4304       1281.3724
  20645930.6784  -25583323.27649 -19600086.39847  20645929.4774   20645934.6754
      2175.0674       1694.8564
  21810061.2044  -32882357.50348 -25289131.83747  21810059.0484   21810064.6574
     -1289.8694      -1005.0924
 00  1  6  0 24 59.9990000  0  8G 2G26G 8G 5G24G 9G 4G 7
  22881554.0614  -32783451.43548 -25232025.40046  22881551.9684   22881558.6514
     -1260.0144       -981.8284
  24788273.4724  -16990015.98447 -12291862.71545  24788272.1384   24788281.6304
     -1867.6204      -1455.2804
  21199153.1874  -38181653.00648 -29187946.60447  21199150.8424   21199157.3164
     -2077.7304      -1619.0094
  22752731.7914  -17973177.98348 -13978616.57346  22752729.8734   22752735.8414
      3542.0004       2759.9974
  22277484.9904  -17844203.61348 -13534344.58846  22277483.7964   22277490.8894
      4127.4784       3216.2124
  20798595.0144  -29914358.43649 -23282582.95847  20798593.1884   20798598.3414
      1630.7194       1270.6894
  20633561.5504  -25648324.51549 -19650736.66147  20633560.1324   20633565.1914
      2160.2274       1683.2934
  21817428.6914  -32843641.86248 -25258963.81547  21817426.3554   21817431.9184
     -1289.5124      -1004.8134
 00  1  6  0 25 29.9990000  0  8G 2G26G 8G 5G24G 9G 4G 7
  22888793.5074  -32745408.02848 -25202381.21146  22888791.5654   22888798.0784
     -1265.8194       -986.3524
  24798958.4504  -16933862.96147 -12248107.19345  24798957.3184   24798966.4584
     -1865.3874      -1453.5474
  21211076.4234  -38118994.43448 -29139121.76447  21211074.5014   21211080.8924
     -2089.0614      -1627.8394
  22732544.9684  -18079259.80148 -14061277.59446  22732542.9984   22732549.4244
      3540.5514       2758.8654
  22253975.2424  -17967748.71748 -13630613.41746  22253973.7944   22253980.6924
      4119.2874       3209.8314
  20789366.9694  -29962851.18749 -23320369.47647  20789365.1984   20789370.5814
      1612.5874       1256.5604
  20621310.5894  -25712702.38949 -19700901.19047  20621309.3054   20621314.4694
      2142.0304       1669.1134
  21824830.8594  -32804742.98848 -25228653.01047  21824828.6354   21824834.2214
     -1293.4154      -1007.8554
 00  1  6  0 25 59.9990000  0  8G 2G26G 8G 5G24G 9G 4G 7
  22896058.4334  -32707231.95848 -25172633.65046  22896056.1704   22896063.0764
     -1278.7634       -996.4354
  24809620.8734  -16877834.45847 -12204448.68445  24809619.1824   24809628.8774
     -1869.2754      -1456.5734
  21223054.0024  -38056052.17248 -29090075.86347  21223052.0474   21223058.2604
     -2106.6284      -1641.5284
  22712356.2944  -18185350.45748 -14143945.50446  22712354.2934   22712360.7744
      3532.8024       2752.8284
  22230503.0974  -18091096.35048 -13726728.38546  22230501.0784   22230508.0574
      4104.5134       3198.3204
  20780234.8094  -30010841.20449 -23357764.24947  20780233.0704   20780238.2674
      1587.3194       1236.8694
  20609155.9404  -25776578.25749 -19750674.54447  20609154.1954   20609159.1404
      2116.7714       1649.4304
  21832244.6834  -32765782.51048 -25198294.20147  21832242.3494   21832247.9334
     -1303.7144      -1015.8814
 00  1  6  0 26 29.9990000  0  7G 2G 8G 5G24G 9G 4G 7
  22903363.4004  -32668843.06348 -25142720.25846  22903361.2284   22903368.2234
     -1283.3904      -1000.0444
  21235099.9844  -37992750.96048 -29040750.25646  21235097.9484   21235104.1254
     -2116.4684      -1649.1954
  22692178.8894  -18291384.59248 -14226569.37546  22692176.7584   22692183.5624
      3533.1434       2753.0944
  22207081.9124  -18214177.73448 -13822635.88546  22207079.6844   22207086.2184
      4098.0164       3193.2564
  20771214.3994  -30058244.37449 -23394701.74347  20771212.5194   20771217.6324
      1570.1514       1223.4924
  20597111.2324  -25839872.89249 -19799994.98547  20597109.6044   20597114.5224
      2099.8824       1636.2694
  21839683.8984  -32726689.22948 -25167831.90947  21839681.7384   21839687.4284
     -1305.4874      -1017.2634
 00  1  6  0 26 59.9990000  0  7G 2G 8G 5G24G 9G 4G 7
  22910695.5094  -32630312.65548 -25112696.59646  22910693.4094   22910700.1854
     -1286.3604      -1002.3574
  21247203.6794  -37929144.80348 -28991187.02646  21247201.6574   21247207.7914
     -2124.9864      -1655.8324
  22672000.0544  -18397424.14148 -14309197.45746  22671997.7614   22672004.5674
      3535.0924       2754.6134
  22183696.0334  -18337068.53048 -13918394.89046  22183694.2734   22183700.9814
      4093.5534       3189.7804
  20762291.1344  -30105133.92149 -23431239.01047  20762289.4474   20762294.3094
      1554.9324       1211.6344
  20585162.8394  -25902665.39949 -19848924.15847  20585161.3094   20585165.7074
      2085.1764       1624.8114
  21847133.9594  -32687537.87248 -25137324.36147  21847131.9874   21847137.3314
     -1305.8774      -1017.5674
 00  1  6  0 27 29.9990000  0  7G 2G 8G 5G24G 9G 4G 7
  22918073.5104  -32591540.52148 -25082484.57446  22918071.8654   22918078.0214
     -1299.0674      -1012.2574
  21259381.4314  -37865146.99448 -28941318.61846  21259379.3774   21259386.1834
     -2142.2724      -1669.3024
  22651837.4674  -18503375.32448 -14391756.69646  22651835.8034   22651842.6084
      3527.5734       2748.7554
  22160363.7044  -18459678.86648 -14013935.36646  22160362.4854   22160369.8824
      4079.7144       3178.9964
  20753480.9234  -30151433.20249 -23467316.32747  20753479.0404   20753483.8034
      1531.1444       1193.0984
  20573323.8404  -25964877.65849 -19897401.19447  20573322.3924   20573326.9454
      2061.4764       1606.3434
  21854614.7354  -32648228.97248 -25106694.05447  21854612.4554   21854617.8384
     -1315.6254      -1025.1624
 00  1  6  0 27 59.9990000  0  7G 2G 8G 5G24G 9G 4G 7
  22925500.1724  -32552516.12948 -25052075.98146  22925498.4874   22925504.2664
     -1301.0764      -1013.8244
  21271632.9114  -37800765.93248 -28891151.57846  21271630.9904   21271637.4554
     -2148.5554      -1674.1984
  22631692.9254  -18609232.82748 -14474242.93646  22631691.3054   22631698.2404
      3531.1134       2751.5124
  22137085.8214  -18582007.21648 -14109256.12046  22137084.1384   22137090.9374
      4076.8574       3176.7704
  20744779.6834  -30197159.29749 -23502947.00947  20744777.8024   20744782.3724
      1518.7644       1183.4514
  20561595.9294  -26026504.25649 -19945421.87847  20561594.6294   20561599.8574
      2048.3054       1596.0814
  21862124.6524  -32608761.60448 -25075940.27047  21862122.6534   21862128.3854
     -1314.4684      -1024.2614
 00  1  6  0 28 29.9990000  0  7G 2G 8G 5G24G 9G 4G 7
  22932969.2224  -32513265.18248 -25021490.86746  22932967.3114   22932973.8994
     -1310.6014      -1021.2444
  21283952.2654  -37736028.16248 -28840706.58146  21283950.2944   21283956.2904
     -2162.2074      -1684.8374
  22611562.0494  -18715023.71648 -14556677.26946  22611560.4184   22611567.0644
      3526.7654       2748.1264
  22113855.6914  -18704084.49148 -14204381.22446  22113853.5604   22113860.7204
      4066.5334       3168.7254
  20736178.2534  -30242358.30749 -23538166.97947  20736176.6874   20736181.5494
      1499.5194       1168.4554
  20549974.4184  -26087573.99249 -19993008.63747  20549973.4404   20549978.5064
      2027.8614       1580.1514
  21869662.2504  -32569154.09748 -25045077.28847  21869659.7504   21869665.4044
     -1321.0134      -1029.3604
 00  1  6  0 28 59.9990000  0  7G 2G 8G 5G24G 9G 4G 7
  22940485.8574  -32473767.26848 -24990713.29946  22940483.2864   22940490.3224
     -1324.7714      -1032.2914
  21296339.7284  -37670932.48848 -28789982.70146  21296337.4064   21296344.1124
     -2179.8344      -1698.5724
  22591445.9404  -18820738.54348 -14639052.34646  22591443.4784   22591449.6034
      3518.5744       2741.7424
  22090676.8354  -18825890.31648 -14299294.81646  22090674.9874   22090682.1254
      4051.5344       3157.0374
  20727678.9774  -30287022.42149 -23572970.14847  20727677.2974   20727681.8424
      1475.8414       1150.0054
  20538463.4164  -26148069.43349 -20040147.89647  20538461.9224   20538466.4994
      2002.7344       1560.5714
  21877227.9174  -32529396.00748 -25014096.97247  21877225.6664   21877231.1584
     -1332.0314      -1037.9474
 00  1  6  0 29 29.9990000  0  7G 2G 8G 5G24G 9G 4G 7
  22948056.9184  -32433981.27748 -24959711.26446  22948055.0754   22948061.6544
     -1328.3564      -1035.0794
  21308802.4634  -37605438.34748 -28738948.33146  21308800.8654   21308807.0104
     -2187.5144      -1704.5544
  22571349.4754  -18926341.04848 -14721339.91546  22571347.5294   22571353.6134
      3520.8224       2743.4944
  22067558.9484  -18947374.09648 -14393957.46546  22067557.3304   22067564.5544
      4046.5614       3153.1624
  20719289.4974  -30331107.09349 -23607321.80147  20719287.9114   20719292.9374
      1462.1144       1139.3094
  20527070.8774  -26207935.10449 -20086796.43147  20527069.6224   20527074.0274
      1987.3324       1548.5694
  21884830.8544  -32489440.63248 -24982962.92147  21884828.9464   21884834.0864
     -1332.7124      -1038.4764
 00  1  6  0 29 59.9990000  0  7G 2G 8G 5G24G 9G 4G 7
  22955669.6124  -32393976.21148 -24928538.51646  22955667.5114   22955674.0454
     -1339.2304      -1043.5574
  21321334.3994  -37539588.31948 -28687636.63046  21321331.8644   21321337.7164
     -2203.0504      -1716.6634
  22551262.6334  -19031895.05448 -14803589.70746  22551261.0784   22551267.5994
      3515.6134       2739.4364
  22044492.6074  -19068590.10148 -14488411.44146  22044490.6444   22044498.0104
      4033.8874       3143.2864
  20711003.2044  -30374651.93649 -23641252.80647  20711001.4384   20711006.4834
      1440.3164       1122.3234
  20515790.7184  -26267213.19249 -20132987.11547  20515789.2494   20515793.8464
      1963.9834       1530.3744
  21892460.1544  -32449347.66748 -24951721.65147  21892458.0784   21892463.1154
     -1340.8644      -1044.8304
 00  1  6  0 30 29.9990000  0  7G 2G 8G 5G24G 9G 4G 7
  22963335.8594  -32353689.89548 -24897146.61246  22963333.1984   22963340.6174
     -1343.6144      -1046.9674
  21333943.5394  -37473322.22248 -28636000.72646  21333941.9534   21333948.0784
     -2211.8094      -1723.4864
  22531198.3854  -19137336.35548 -14885751.67346  22531196.2564   22531202.7344
      3516.6994       2740.2824
  22021489.2674  -19189472.78648 -14582605.69046  22021487.6224   22021494.7584
      4027.6674       3138.4424
  20702834.1994  -30417578.30349 -23674701.88547  20702832.7064   20702837.7344
      1424.1914       1109.7584
  20504634.5894  -26325839.93349 -20178670.25447  20504633.2124   20504637.6544
      1947.3774       1517.4354
  21900127.9374  -32409053.63548 -24920323.70647  21900125.7474   21900131.1644
     -1342.4594      -1046.0734
 00  1  6  0 30 59.9990000  0  7G 2G 8G 5G24G 9G 4G 7
  22971041.8844  -32313192.31648 -24865590.07846  22971039.7154   22971047.2014
     -1354.8204      -1055.7084
  21346619.6124  -37406709.53848 -28584094.76446  21346617.8184   21346623.6064
     -2227.9074      -1736.0304
  22511141.5674  -19242733.06348 -14967878.90046  22511139.8914   22511146.3204
      3510.7944       2735.6834
  21998537.9844  -19310082.94048 -14676587.58146  21998535.9354   21998542.9234
      4014.2204       3127.9634
  20694776.1874  -30459926.99549 -23707700.83047  20694774.5074   20694779.0334
      1400.4994       1091.2974
  20493586.9314  -26383892.46249 -20223905.95147  20493585.6914   20493590.3414
      1924.0424       1499.2534
  21907819.0374  -32368636.53648 -24888829.86647  21907816.7964   21907822.1504
     -1350.9824      -1052.7124
 00  1  6  0 31 29.9990000  0  7G 2G 8G 5G24G 9G 4G 7
  22978793.9224  -32272453.73948 -24833845.76746  22978791.8874   22978799.0874
     -1361.1754      -1060.6554
  21359372.1534  -37339696.79948 -28531877.06746  21359370.1244   21359375.8114
     -2239.5304      -1745.0894
  22491105.1374  -19348027.90248 -15049926.75746  22491103.2204   22491109.4604
      3508.8244       2734.1474
  21975646.4554  -19430378.40648 -14770324.25146  21975644.4004   21975651.8564
      4005.3254       3121.0294
  20686835.6254  -30501655.53449 -23740216.54347  20686833.6814   20686838.4064
      1381.3314       1076.3614
  20482657.4224  -26441329.37949 -20268661.95647  20482656.0504   20482660.2654
      1904.9444       1484.3734
  21915540.9894  -32328058.24548 -24857210.42647  21915538.6294   21915544.0934
     -1354.4114      -1055.3844
 00  1  6  0 31 59.9990000  0  7G 2G 8G 5G24G 9G 4G 7
  22986575.0314  -32231565.63148 -24801984.93746  22986572.9824   22986579.6754
     -1367.5784      -1065.6454
  21372178.9284  -37272400.22648 -28479438.18846  21372176.3624   21372182.1864
     -2249.6384      -1752.9644
  22471072.7784  -19453303.77348 -15131959.83746  22471070.4074   22471075.6364
      3506.7434       2732.5254
  21952796.3234  -19550451.43448 -14863887.58046  21952795.1664   21952802.6054
      3996.6554       3114.2734
  20678993.9834  -30542859.26149 -23772323.30647  20678992.4604   20678997.8344
      1362.9064       1062.0044
  20471828.2004  -26498236.16148 -20313004.87147  20471826.8754   20471831.7434
      1886.0214       1469.6264
  21923272.3494  -32287427.82348 -24825550.36747  21923270.4094   21923276.1324
     -1357.1754      -1057.5394
 00  1  6  0 32 29.9990000  0  7G 2G 8G 5G24G 9G 4G 7
  22994393.0324  -32190482.08748 -24769971.80846  22994390.7104   22994397.7324
     -1373.7074      -1070.4224
  21385041.0814  -37204804.58648 -28426766.28146  21385039.1114   21385045.1034
     -2259.3654      -1760.5434
  22451051.5324  -19558512.32248 -15213940.46946  22451049.4444   22451055.2994
      3504.5974       2730.8504
  21929998.2034  -19670259.78848 -14957244.66646  21929996.3774   21930003.8244
      3987.9624       3107.4994
  20671258.2164  -30583512.48349 -23804001.10847  20671256.5304   20671261.6274
      1344.8594       1047.9404
  20461105.7664  -26554580.88848 -20356909.82147  20461104.4714   20461109.8094
      1867.6674       1455.3254
