     2.00           OBSERVATION DATA    G (GPS)             RINEX VERSION / TYPE
teqc  1999Jul19     CORS/NGS/NOAA       20000107 02:49:08UTCPGM / RUN BY / DATE
HP-UX 10.20|PA-RISC|cc A.10.32.03|=+|=|                     COMMENT
BIT 2 OF LLI FLAGS DATA COLLECTED UNDER A/S CONDITION       COMMENT
van1                                                        MARKER NAME
xxx                                                         MARKER NUMBER
CORS/NGS/NOAA       U.S. Coast Guard                        OBSERVER / AGENCY
05399               ASHTECH   Z-XII3    RD00                REC # / TYPE / VERS
10913               ASH700829.3                             ANT # / TYPE
 -2665274.3948 -4513294.0773  3622149.8540                  APPROX POSITION XYZ
        0.0000        0.0000        0.0000                  ANTENNA: DELTA H/E/N
     1     1                                                WAVELENGTH FACT L1/2
     7    C1    L1    L2    P1    P2    D1    D2            # / TYPES OF OBSERV
    30.0000                                                 INTERVAL
 SNR is mapped to RINEX snr flag value [1-9]                COMMENT
  L1: 1 -> 1;  90 -> 5; 210 -> 9                            COMMENT
  L2: 1 -> 1; 150 -> 5; 250 -> 9                            COMMENT
teqc windowed: delta = 86400.000 sec                        COMMENT
  2000     1     6     0     1   30.0000000     GPS         TIME OF FIRST OBS
                                                            END OF HEADER
 00  1  6  0  1 30.0000000  0  8G 8G26G 9G 5G 2G 4G24G 7
  20708728.7044  -18051679.89049 -14054063.60847  20708726.7304   20708731.3664
     -2455.7614      -1913.5804
  24369975.6204   -1093820.70848   -618109.17546  24369974.6934   24369981.8434
     -2944.1334      -2294.1314
  21658346.7504  -15342686.87749 -11727022.67447  21658345.3954   21658350.6874
      1366.5434       1064.8364
  24093517.1594   -5628142.27847  -4038552.90445  24093515.1774   24093522.6884
      2338.8184       1822.4534
  22578878.8224   -8774973.44948  -6823579.72746  22578877.0434   22578882.9314
     -1979.3084      -1542.3174
  21256730.9884  -15454784.53748 -11810448.79047  21256730.2504   21256735.8084
      1583.0584       1233.5494
  23310503.1054   -8487803.55547  -6348316.68145  23310501.2684   23310508.3154
      3115.8194       2427.9034
  21689830.4124  -11589563.36549  -9012756.72247  21689828.5274   21689833.1884
     -2260.0504      -1761.0784
 00  1  6  0  2  0.0000000  0  8G 8G26G 9G 5G 2G 4G24G 7
  20722791.8464  -17977776.33449 -13996476.42847  20722789.9334   20722794.7564
     -2472.1014      -1926.3124
  24386787.4024   -1005474.93748   -549268.38646  24386785.7724   24386793.9304
     -2946.6944      -2296.1224
  21650587.2044  -15383463.60549 -11758796.70547  21650585.7084   21650591.4754
      1350.9314       1052.6734
  24080162.1074   -5698322.81847  -4093238.91545  24080160.4264   24080168.0024
      2339.0714       1822.6424
  22590193.1504   -8715517.80748  -6777250.67046  22590191.1484   22590196.8274
     -1985.6044      -1547.2234
  21247739.4544  -15502040.14548 -11847271.27747  21247738.0064   21247743.2414
      1566.3614       1220.5404
  23292724.7854   -8581229.43247  -6421115.94145  23292723.3584   23292730.9724
      3111.3894       2424.4594
  21702744.1444  -11521701.20549  -8959877.12047  21702742.2194   21702747.1284
     -2265.0334      -1764.9614
 00  1  6  0  2 30.0000000  0  8G 8G26G 9G 5G 2G 4G24G 7
  20736962.7154  -17903307.72249 -13938448.94047  20736960.7734   20736965.5854
     -2490.8944      -1940.9564
  24403627.4774    -916974.21847   -480306.85746  24403626.6304   24403634.3634
     -2951.9654      -2300.2304
  21642931.6574  -15423692.43649 -11790143.79847  21642930.2534   21642935.8454
      1332.6404       1038.4204
  24066821.2044   -5768431.40147  -4147868.79045  24066818.8934   24066827.7554
      2336.3874       1820.5544
  22601560.0554   -8655780.46748  -6730702.10246  22601558.5144   22601564.7984
     -1995.3684      -1554.8314
  21238856.0374  -15548722.11648 -11883646.77447  21238854.7124   21238859.6744
      1547.3404       1205.7194
  23274989.2444   -8674428.41147  -6493738.37346  23274987.7624   23274995.5944
      3103.3394       2418.1834
  21715699.4224  -11453620.94149  -8906827.56047  21715697.4124   21715702.5834
     -2272.2944      -1770.6174
 00  1  6  0  3  0.0000000  0  8G 8G26G 9G 5G 2G 4G24G 7
  20751222.6924  -17828372.05149 -13880057.51047  20751220.6514   20751225.6284
     -2502.1034      -1949.6924
  24420481.3464    -828409.17647   -411295.21945  24420479.4854   24420487.2404
     -2949.6214      -2298.4054
  21635364.0684  -15463461.29649 -11821132.47847  21635362.5784   21635368.2754
      1321.4344       1029.6884
  24053476.2144   -5838557.57947  -4202512.41145  24053474.0684   24053483.0064
      2341.6344       1824.6434
  22612967.2004   -8595837.01048  -6683992.92646  22612965.3784   22612971.5084
     -1998.0924      -1556.9524
  21230060.1134  -15594943.32948 -11919663.24647  21230059.0834   21230063.9644
      1536.6434       1197.3814
  23257283.2554   -8767472.58147  -6566240.20145  23257281.4464   23257289.3444
      3102.4384       2417.4824
  21728677.4674  -11385418.86949  -8853683.09447  21728675.5884   21728680.8834
     -2271.9214      -1770.3284
 00  1  6  0  3 30.0000000  0  8G 8G26G 9G 5G 2G 4G24G 7
  20765551.6704  -17753071.26049 -13821381.57247  20765549.9004   20765554.7534
     -2519.0524      -1962.8974
  24437325.3874    -739894.79647   -342323.01845  24437323.9024   24437330.2734
     -2952.3724      -2300.5454
  21627863.8014  -15502875.67649 -11851844.93647  21627862.3844   21627867.5884
      1305.2484       1017.0754
  24040105.9414   -5908821.29247  -4257263.19345  24040103.3814   24040112.1824
      2341.6894       1824.6864
  22624396.5144   -8535777.61148  -6637193.40546  22624394.5634   22624400.7544
     -2006.9734      -1563.8744
  21221332.5204  -15640807.50048 -11955401.49947  21221331.2664   21221336.2784
      1519.6834       1184.1674
  23239587.9934   -8860461.53847  -6638699.02445  23239586.3324   23239593.6084
      3095.9474       2412.4194
  21741658.9704  -11317200.37349  -8800525.82547  21741657.0984   21741661.9974
     -2277.3874      -1774.5884
 00  1  6  0  4  0.0000000  0  8G 8G26G 9G 5G 2G 4G24G 7
  20779991.2504  -17677193.18649 -13762255.80447  20779989.2624   20779993.8814
     -2538.0534      -1977.7044
  24454198.4854    -651231.18147   -273234.52245  24454196.6474   24454202.9294
     -2957.1654      -2304.2824
  21620468.6314  -15541738.54449 -11882127.64947  21620467.1054   21620472.3364
      1287.0694       1002.9094
  24026745.2114   -5979030.99147  -4311971.92445  24026743.4674   24026750.9034
      2340.3874       1823.6774
  22635891.0464   -8475371.99148  -6590124.10446  22635889.4064   22635895.7514
     -2018.4774      -1572.8394
  21212716.6324  -15686083.59748 -11990681.51847  21212715.4254   21212720.2644
      1500.1044       1168.9124
  23221943.3424   -8953186.64547  -6710952.26945  23221941.9324   23221948.9804
      3087.3224       2405.7014
  21754685.6764  -11248745.48449  -8747184.35447  21754683.7594   21754688.5904
     -2285.0794      -1780.5824
 00  1  6  0  4 30.0000000  0  8G 8G26G 9G 5G 2G 4G24G 7
  20794527.9814  -17600801.01249 -13702729.43747  20794526.0964   20794530.8204
     -2552.2624      -1988.7754
  24471086.0574    -562482.89648   -204080.06846  24471084.7894   24471092.4484
     -2956.9304      -2304.0984
  21613167.7294  -15580105.70149 -11912024.09147  21613166.1704   21613171.1814
      1273.3044        992.1834
  24013382.8244   -6049248.42947  -4366686.65945  24013380.5584   24013388.2474
      2343.3264       1825.9614
  22647440.6864   -8414682.44248  -6542833.55446  22647438.3344   22647444.1544
     -2024.7694      -1577.7434
  21204201.7804  -15730827.95548 -12025547.19247  21204200.7504   21204205.7864
      1485.2964       1157.3734
  23204334.9214   -9045715.89947  -6783052.90845  23204333.5874   23204341.5234
      3083.9014       2403.0384
  21767749.1924  -11180096.80649  -8693691.87647  21767747.3094   21767751.7314
     -2289.2154      -1783.8044
 00  1  6  0  5  0.0000000  0  8G 8G26G 9G 5G 2G 4G24G 7
  20809146.5534  -17523979.47949 -13642868.51147  20809144.7494   20809149.3004
     -2568.8674      -2001.7144
  24487972.7794    -473740.10947   -134929.92946  24487971.6934   24487979.6564
     -2958.8944      -2305.6294
  21605945.7464  -15618057.69449 -11941597.03147  21605944.0954   21605949.0224
      1257.4214        979.8074
  24000004.0924   -6119551.36447  -4421468.02745  24000002.0354   24000009.2014
      2344.0494       1826.5274
  22659023.5484   -8353811.47848  -6495401.64346  22659021.6794   22659027.5744
     -2032.6744      -1583.9024
  21195773.6614  -15775118.21348 -12060059.02547  21195772.6494   21195777.5594
      1467.6764       1143.6434
  23186746.1814   -9138146.08147  -6855076.33646  23186744.9314   23186752.7114
      3078.5774       2398.8894
  21780837.6174  -11111317.55849  -8640097.65247  21780835.6674   21780839.8844
     -2295.8474      -1788.9724
 00  1  6  0  5 30.0000000  0  8G 8G26G 9G 5G 2G 4G24G 7
  20823856.8964  -17446675.50249 -13582631.65047  20823854.9554   20823859.6754
     -2584.3084      -2013.7464
  24504866.1984    -384960.43247    -65751.07145  24504865.3914   24504873.7814
     -2959.4944      -2306.0924
  21598807.9394  -15655564.52049 -11970823.08847  21598806.6484   21598811.5344
      1243.3594        968.8504
  23986618.5044   -6189893.88047  -4476280.25445  23986617.0554   23986623.9714
      2345.7244       1827.8324
  22670646.3204   -8292731.92048  -6447807.19046  22670644.4444   22670650.5424
     -2038.7534      -1588.6394
  21187443.8974  -15818894.04748 -12094170.01347  21187442.6554   21187447.2864
      1451.1024       1130.7274
  23169183.8184   -9230435.79047  -6926990.31046  23169182.7504   23169189.9344
      3074.3994       2395.6304
  21793961.8254  -11042348.13249  -8586355.24247  21793959.8244   21793964.8484
     -2301.8364      -1793.6394
 00  1  6  0  6  0.0000000  0  8G 8G26G 9G 5G 2G 4G24G 7
  20838667.5954  -17368845.13649 -13521984.61347  20838665.8784   20838670.4944
     -2601.0834      -2026.8184
  24521779.0824    -296088.11747      3499.99345  24521777.5654   24521785.1274
     -2962.2874      -2308.2684
  21591765.9514  -15692571.56649 -11999659.70447  21591764.5254   21591769.0604
      1227.0484        956.1414
  23973237.8194   -6260211.45947  -4531073.00445  23973235.6594   23973243.1834
      2345.1824       1827.4064
  22682314.9054   -8231414.27148  -6400027.21346  22682313.0474   22682318.6844
     -2045.7434      -1594.0834
  21179218.8664  -15862115.61548 -12127849.10047  21179217.7204   21179222.7234
      1433.5064       1117.0174
  23151660.1404   -9322524.82047  -6998747.92045  23151658.5514   23151666.0984
      3068.0264       2390.6644
  21807131.0104  -10973142.86549  -8532429.06547  21807129.2844   21807134.4964
     -2308.5494      -1798.8704
 00  1  6  0  6 30.0000000  0  8G 8G26G 9G 5G 2G 4G24G 7
  20853568.6874  -17290538.98649 -13460966.83747  20853566.9134   20853571.7034
     -2618.7614      -2040.5934
  24538701.9394    -207158.30447     72795.89145  24538700.3864   24538707.1414
     -2966.1124      -2311.2564
  21584811.6814  -15729117.32949 -12028136.88047  21584810.1294   21584814.6534
      1209.8584        942.7474
  23959857.9454   -6330519.65047  -4585858.46845  23959856.4264   23959864.2104
      2342.6044       1825.4054
  22694017.7464   -8169916.43048  -6352106.82746  22694015.7344   22694021.4984
     -2053.6484      -1600.2444
  21171089.9324  -15904832.98748 -12161135.31847  21171088.8874   21171093.6094
      1414.7634       1102.4114
  23134166.9054   -9414454.15647  -7070381.10846  23134165.6014   23134171.7914
      3061.1774       2385.3314
  21820331.7904  -10903772.46149  -8478374.21447  21820329.9454   21820335.3494
     -2315.7114      -1804.4504
 00  1  6  0  7  0.0000000  0  8G 8G26G 9G 5G 2G 4G24G 7
  20868559.3914  -17211762.83049 -13399582.82247  20868557.5534   20868562.5284
     -2633.4954      -2052.0734
  24555637.6814    -118161.60347    142143.92545  24555635.9904   24555643.0194
     -2967.5444      -2312.3764
  21577944.6414  -15765201.98549 -12056254.75247  21577943.3954   21577948.0034
      1195.4044        931.4834
  23946481.0324   -6400811.11147  -4640630.89045  23946479.5514   23946488.0524
      2342.9704       1825.6894
  22705756.2164   -8108227.68148  -6304037.68746  22705754.5724   22705760.6924
     -2059.4634      -1604.7774
  21163058.1664  -15947040.27648 -12194024.06847  21163056.9074   21163061.7914
      1398.4114       1089.6704
  23116701.2994   -9506232.76447  -7141896.84645  23116699.7604   23116706.8664
      3056.8984       2381.9944
  21833561.4584  -10834249.65349  -8424200.60947  21833559.6334   21833565.0724
     -2319.7794      -1807.6194
 00  1  6  0  7 30.0000000  0  8G 8G26G 9G 5G 2G 4G24G 7
  20883642.3744  -17132499.33949 -13337819.06847  20883640.7514   20883645.8364
     -2648.7274      -2063.9434
  24572589.3614     -29078.97747    211558.93345  24572588.3794   24572594.6864
     -2969.3794      -2313.8024
  21571169.8074  -15800803.68749 -12083996.29347  21571168.3864   21571173.2724
      1179.9214        919.4174
  23933112.6754   -6471061.35047  -4695371.20645  23933110.7814   23933118.6984
      2342.3694       1825.2174
  22717539.2964   -8046308.97448  -6255789.36046  22717537.5174   22717543.4264
     -2066.5854      -1610.3264
  21155128.5954  -15988707.74348 -12226492.17747  21155127.5794   21155132.4104
      1381.3074       1076.3404
  23099269.6354   -9597837.05447  -7213276.73046  23099267.8374   23099276.0864
      3051.9524       2378.1414
  21846823.4114  -10764560.43849  -8369897.33547  21846821.3924   21846826.0884
     -2324.1594      -1811.0334
 00  1  6  0  8  0.0000000  0  8G 8G26G 9G 5G 2G 4G24G 7
  20898818.6234  -17052748.17949 -13275675.31147  20898816.7524   20898822.0444
     -2665.4294      -2076.9574
  24589557.0964      60094.69147    281044.82945  24589556.3914   24589565.2254
     -2972.7734      -2316.4434
  21564491.7214  -15835896.25649 -12111341.10747  21564490.1334   21564495.2244
      1162.4144        905.7774
  23919756.4864   -6541251.37047  -4750064.58645  23919754.8974   23919762.6524
      2339.9364       1823.3204
  22729372.8834   -7984122.32948  -6207332.24746  22729371.2204   22729377.1754
     -2076.4234      -1617.9894
  21147305.5664  -16029817.84648 -12258525.97647  21147304.4804   21147309.3794
      1361.9604       1061.2664
  23081873.4264   -9689256.09148  -7284512.23646  23081871.9114   23081879.6424
      3045.5414       2373.1464
  21860113.5304  -10694718.43749  -8315474.99747  21860111.7054   21860116.2494
     -2329.5374      -1815.2234
 00  1  6  0  8 30.0000000  0  8G 8G26G 9G 5G 2G 4G24G 7
  20914070.3184  -16972600.41949 -13213222.51747  20914068.5714   20914073.7374
     -2678.2184      -2086.9234
  24606524.5744     149254.70547    350520.04945  24606523.2154   24606531.9274
     -2971.8084      -2315.6874
  21557891.5974  -15870577.79749 -12138365.64247  21557890.3264   21557895.3634
      1149.1444        895.4374
  23906391.6144   -6611481.79047  -4804789.43745  23906390.2644   23906397.4014
      2341.8534       1824.8194
  22741244.0864   -7921739.19648  -6158722.02446  22741242.3774   22741248.1774
     -2082.7604      -1622.9314
  21139574.1334  -16070447.37248 -12290185.30547  21139573.1574   21139577.8024
      1346.3024       1049.0654
  23064491.4914   -9780596.97948  -7355686.86446  23064489.8794   23064497.3794
      3043.2114       2371.3284
  21873416.6384  -10624808.59549  -8260999.79647  21873415.0304   21873419.8024
     -2331.9184      -1817.0794
 00  1  6  0  9  0.0000000  0  8G 8G26G 9G 5G 2G 4G24G 7
  20929411.7264  -16891979.90849 -13150401.35247  20929409.9734   20929414.9194
     -2695.8974      -2100.6984
  24623502.3434     238471.82047    420039.77946  24623501.2854   24623509.8874
     -2975.2074      -2318.3394
  21551386.2664  -15904762.97049 -12165003.39847  21551384.9854   21551390.4154
      1130.6304        881.0084
  23893031.2394   -6681693.87847  -4859500.03445  23893029.7844   23893036.2274
      2339.7254       1823.1624
  22753168.2024   -7859076.97048  -6109894.32846  22753166.2704   22753172.6784
     -2093.7514      -1631.4954
  21131948.0734  -16110523.47048 -12321413.39347  21131947.0864   21131951.6144
      1326.1014       1033.3234
  23047143.3754   -9871757.94547  -7426721.30045  23047141.9744   23047149.2894
      3034.7334       2364.7234
  21886751.9714  -10554730.75649  -8206393.68947  21886750.1824   21886755.2124
     -2339.3344      -1822.8584
 00  1  6  0  9 30.0000000  0  8G 8G26G 9G 5G 2G 4G24G 7
  20944857.3044  -16810813.66749 -13087154.94047  20944855.6274   20944860.3354
     -2713.6254      -2114.5144
  24640499.6604     327791.56747    489639.50545  24640498.6104   24640505.2644
     -2978.1794      -2320.6554
  21544989.2104  -15938378.44049 -12191197.22547  21544988.0764   21544993.8944
      1111.9404        866.4464
  23879685.3244   -6751828.56547  -4914150.32845  23879683.5874   23879690.1844
      2337.4774       1821.4074
  22765155.0934   -7796083.48648  -6060808.51846  22765153.5354   22765159.9754
     -2104.0974      -1639.5534
  21124437.7704  -16149988.64348 -12352165.43447  21124436.8014   21124441.4614
      1306.5314       1018.0744
  23029847.7014   -9962648.44447  -7497544.96946  23029846.5314   23029853.7154
      3026.1174       2358.0114
  21900132.3194  -10484416.57549  -8151603.42347  21900130.5914   21900135.8434
     -2346.8584      -1828.7204
 00  1  6  0 10  0.0000000  0  8G 8G26G 9G 5G 2G 4G24G 7
  20960399.8954  -16729137.60949 -13023511.26547  20960397.9684   20960402.4054
     -2730.3204      -2127.5224
  24657510.1264     417180.63847    559293.26945  24657509.2184   24657515.5124
     -2980.0204      -2322.0924
  21538695.5554  -15971452.58849 -12216969.24247  21538694.3994   21538699.7644
      1094.2044        852.6264
  23866348.4374   -6821914.83847  -4968762.88845  23866346.9434   23866353.8854
      2336.2024       1820.4144
  22777194.9234   -7732815.49748  -6011508.80746  22777193.0164   22777199.3424
     -2112.2514      -1645.9074
  21117034.1884  -16188897.26848 -12382483.80047  21117032.9514   21117037.5574
      1288.5774       1004.0834
  23012597.3894  -10053302.10848  -7568184.08746  23012596.0054   23012603.4364
      3018.6654       2352.2034
  21913552.4344  -10413893.49549  -8096650.37947  21913550.8424   21913556.0764
     -2353.6954      -1834.0484
 00  1  6  0 10 30.0000000  0  8G 8G26G 9G 5G 2G 4G24G 7
  20976031.6444  -16646991.12749 -12959501.03047  20976029.8434   20976034.3364
     -2746.1794      -2139.8794
  24674523.7704     506591.92547    628964.35845  24674522.6424   24674529.6674
     -2980.8654      -2322.7474
  21532498.9514  -16004017.89249 -12242344.76347  21532497.5494   21532502.9204
      1076.8184        839.0784
  23853012.6814   -6891994.82747  -5023370.54746  23853010.7494   23853018.0354
      2335.7434       1820.0574
  22789272.3764   -7669349.67748  -5962054.94046  22789270.6354   22789276.6904
     -2118.7474      -1650.9724
  21109724.9964  -16227304.44848 -12412411.43247  21109724.0514   21109728.8394
      1271.7494        990.9734
  22995384.3394  -10143753.11248  -7638665.27246  22995383.0014   22995390.8024
      3011.2244       2346.4044
  21927006.2744  -10343195.14549  -8041560.76447  21927004.3274   21927009.7714
     -2359.6424      -1838.6814
 00  1  6  0 11  0.0000000  0  8G 8G26G 9G 5G 2G 4G24G 7
  20991756.5834  -16564355.62749 -12895109.73547  20991754.8444   20991759.2534
     -2762.9624      -2152.9584
  24691546.9904     596050.46647    698672.20645  24691545.7554   24691553.9824
     -2982.9544      -2324.3814
  21526405.7304  -16036038.18849 -12267295.60447  21526404.3934   21526409.4744
      1058.0354        824.4434
  23839681.5944   -6962042.82247  -5077953.22745  23839679.7954   23839688.2874
      2334.1224       1818.7884
  22801389.3984   -7605674.27048  -5912437.75446  22801387.3444   22801393.5304
     -2126.2254      -1656.8004
  21102516.7104  -16265184.19048 -12441928.06847  21102515.5954   21102520.3854
      1253.3344        976.6234
  22978218.0834  -10233963.30948  -7708958.82146  22978216.3124   22978224.1054
      3002.8994       2339.9154
  21940495.9824  -10272306.97549  -7986323.23447  21940494.2524   21940499.1134
     -2366.3394      -1843.9004
 00  1  6  0 11 30.0000000  0  8G 8G26G 9G 5G 2G 4G24G 7
  21007578.4414  -16481209.89049 -12830320.85847  21007576.7964   21007581.8064
     -2780.4114      -2166.5544
  24708585.1494     685583.71047    768438.28345  24708584.6224   24708592.2254
     -2986.3764      -2327.0414
  21520420.4974  -16067492.18649 -12291805.18147  21520419.1204   21520424.0664
      1038.6594        809.3434
  23826365.0074   -7032021.62247  -5132481.98745  23826363.7464   23826371.6334
      2330.9374       1816.3034
  22813551.2454   -7541761.05848  -5862635.27346  22813549.6804   22813556.0794
     -2135.0524      -1663.6754
  21095417.2254  -16302490.52048 -12470997.89447  21095416.5394   21095421.1924
      1233.3664        961.0624
  22961099.6254  -10323919.93648  -7779054.80446  22961097.8664   22961105.2234
      2993.8804       2332.8914
  21954024.8804  -10201210.49849  -7930923.38347  21954023.1824   21954027.8354
     -2373.8244      -1849.7334
 00  1  6  0 12  0.0000000  0  8G 8G26G 9G 5G 2G 4G24G 7
  21023493.6604  -16397576.41049 -12765151.92447  21023491.9914   21023496.9214
     -2794.4804      -2177.5174
  24725637.6954     775189.80247    838261.12845  24725636.3264   24725644.4444
     -2986.6234      -2327.2374
  21514538.9334  -16098399.26149 -12315888.58247  21514537.6554   21514542.3564
      1022.5734        796.8094
  23813059.2654   -7101944.05247  -5186966.82345  23813057.8354   23813064.7654
      2331.3724       1816.6444
  22825760.2644   -7477602.40448  -5812641.53746  22825758.3914   22825764.5374
     -2141.6094      -1668.7864
  21088428.3374  -16339217.17148 -12499616.01647  21088427.5094   21088432.2084
      1215.5194        947.1564
  22944027.0934  -10413636.42948  -7848963.66946  22944026.0424   22944033.1034
      2987.8504       2328.1904
  21967589.7844  -10129926.14149  -7875377.13047  21967588.2304   21967592.9394
     -2377.9004      -1852.9104
 00  1  6  0 12 30.0000000  0  8G 8G26G 9G 5G 2G 4G24G 7
  21039494.4874  -16313489.13849 -12699629.38947  21039493.0164   21039498.3394
     -2809.8004      -2189.4544
  24742696.0904     864835.71247    908114.99845  24742695.0354   24742703.4944
     -2988.3484      -2328.5794
  21508756.3014  -16128788.71249 -12339568.64347  21508754.9794   21508759.7274
      1005.2184        783.2864
  23799756.4714   -7171852.81947  -5241441.03145  23799754.7264   23799761.4084
      2330.8144       1816.2174
  22838016.7374   -7413195.10948  -5762454.05046  22838014.6914   22838020.9824
     -2150.6784      -1675.8544
  21081550.4024  -16375363.85148 -12527782.22147  21081549.2484   21081553.9384
      1195.6604        931.6814
  22926997.9584  -10503125.52848  -7918695.32846  22926996.8844   22927004.3654
      2979.8094       2321.9264
  21981184.3064  -10058485.84749  -7819709.37047  21981182.5394   21981187.2724
     -2383.4544      -1857.2374
 00  1  6  0 13  0.0000000  0  8G 8G26G 9G 5G 2G 4G24G 7
  21055581.8444  -16228951.65349 -12633756.03947  21055580.2464   21055585.3854
     -2825.2354      -2201.4804
  24759763.9694     954532.01047    978008.11745  24759763.1094   24759771.7984
     -2990.4154      -2330.1894
  21503069.7104  -16158672.92949 -12362855.01547  21503068.1654   21503072.6044
       988.0864        769.9384
  23786454.9794   -7241749.42347  -5295905.72445  23786454.0824   23786459.9564
      2329.7934       1815.4114
  22850323.3894   -7348521.31848  -5712058.90746  22850321.5754   22850328.0104
     -2159.9074      -1683.0424
  21074785.1204  -16410913.26348 -12555483.01847  21074784.2614   21074789.1764
      1175.2634        915.7894
  22910011.5294  -10592388.23248  -7988250.57246  22910010.5094   22910018.3014
      2971.9024       2315.7614
  21994810.1534   -9986881.91949  -7763914.09547  21994808.4174   21994813.0034
     -2389.3394      -1861.8224
 00  1  6  0 13 30.0000000  0  8G 8G26G 9G 5G 2G 4G24G 7
  21071736.6524  -16144057.62549 -12567604.86547  21071735.0904   21071740.1664
     -2836.9784      -2210.6324
  24776820.5944    1044166.93647   1047853.41145  24776820.4744   24776828.3324
     -2987.8684      -2328.2104
  21497457.6094  -16188161.51749 -12385833.11147  21497456.3844   21497460.9864
       975.2104        759.9024
  23773139.9944   -7311719.33047  -5350427.53445  23773138.3624   23773145.1864
      2332.4644       1817.4994
  22862661.3204   -7283686.89848  -5661538.60146  22862659.8354   22862665.8204
     -2164.8594      -1686.9014
  21068113.6554  -16445972.03648 -12582801.49747  21068112.5784   21068117.7034
      1159.4924        903.4994
  22893049.0084  -10681527.72648  -8057709.81146  22893047.9454   22893054.6824
      2968.3094       2312.9594
  22008446.9894   -9915220.04549  -7708073.67247  22008445.3564   22008450.4674
     -2390.8414      -1862.9934
 00  1  6  0 14  0.0000000  0  8G 8G26G 9G 5G 2G 4G24G 7
  21087978.1014  -16058709.58049 -12501099.91147  21087976.2574   21087981.1544
     -2853.3404      -2223.3824
  24793880.0034    1133811.54147   1117706.25645  24793879.8204   24793886.0504
     -2989.1684      -2329.2204
  21491940.4744  -16217155.14649 -12408425.52147  21491939.1664   21491943.5644
       957.1924        745.8634
  23759826.7854   -7381676.87847  -5404939.70645  23759824.7034   23759832.5634
      2330.8034       1816.2024
  22875043.7224   -7218615.53148  -5610833.65446  22875042.2564   22875048.5344
     -2173.6654      -1693.7614
  21061549.0584  -16480466.76448 -12609680.45447  21061548.1534   21061553.7664
      1139.6374        888.0274
  22876122.8744  -10770474.17048  -8127018.64846  22876121.7034   22876128.2854
      2960.9564       2307.2324
  22022111.6614   -9843414.11149  -7652120.99647  22022109.8984   22022114.8994
     -2396.8914      -1867.7064
 00  1  6  0 14 30.0000000  0  8G 8G26G 9G 5G 2G 4G24G 7
  21104316.8884  -15972849.48249 -12434195.94947  21104315.0784   21104319.8084
     -2870.3534      -2236.6394
  24810951.6804    1223517.89247   1187607.25745  24810951.0054   24810957.4994
     -2990.9154      -2330.5854
  21486529.0724  -16245589.65249 -12430582.25047  21486527.8164   21486532.4874
       938.9424        731.6424
  23746530.3814   -7451550.91647  -5459386.78845  23746528.8024   23746536.9804
      2327.9754       1813.9984
  22887478.3944   -7153272.52148  -5559917.03846  22887476.5384   22887482.9504
     -2181.9584      -1700.2264
  21055101.1814  -16514350.16448 -12636083.05147  21055100.3574   21055106.0464
      1119.6674        872.4654
  22859242.5424  -10859178.00748  -8196138.43846  22859241.6074   22859248.4164
      2953.0854       2301.1044
  22035813.4384   -9771407.87549  -7596012.23947  22035811.9884   22035817.2044
     -2403.3004      -1872.7014
 00  1  6  0 15  0.0000000  0  8G 8G26G 9G 5G 2G 4G24G 7
  21120741.4184  -15886533.99348 -12366937.13947  21120740.1674   21120745.2644
     -2884.7564      -2247.8624
  24828020.0254    1313214.83247   1257500.88245  24828018.8034   24828026.5194
     -2989.5334      -2329.5034
  21481211.8824  -16273529.72249 -12452353.70247  21481210.7864   21481215.8434
       923.1534        719.3384
  23733240.0194   -7521392.35847  -5513808.49746  23733238.5874   23733245.7004
      2327.6254       1813.7274
  22899947.0874   -7087747.12448  -5508858.31546  22899945.5004   22899952.4714
     -2187.2884      -1704.3794
  21048756.4694  -16547692.26548 -12662063.86047  21048755.6104   21048761.2804
      1102.5834        859.1524
  22842396.9244  -10947703.03848  -8265118.87846  22842395.9164   22842402.8924
      2947.6424       2296.8564
  22049540.7934   -9699271.10649  -7539801.77247  22049539.1134   22049544.1174
     -2406.6404      -1875.3044
 00  1  6  0 15 30.0000000  0  8G 8G26G 9G 5G 2G 4G24G 7
  21137261.7294  -15799720.30448 -12299290.12547  21137260.0884   21137265.6324
     -2901.4154      -2260.8434
  24845090.6494    1402925.66147   1327405.30945  24845090.4554   24845098.0634
     -2990.2184      -2330.0414
  21475997.6574  -16300931.41949 -12473705.64647  21475996.2774   21476001.1104
       904.8274        705.0594
  23719961.6354   -7591172.78548  -5568182.67146  23719960.1194   23719966.5934
      2325.8284       1812.3244
  22912462.0434   -7021982.03548  -5457612.83046  22912460.3494   22912467.1074
     -2195.9694      -1711.1444
  21042519.3104  -16580468.16648 -12687603.47847  21042518.5414   21042523.9304
      1083.6514        844.4014
  22825595.5284  -11035993.11648  -8333916.25046  22825594.8574   22825601.8054
      2939.5644       2290.5684
  22063298.2844   -9626972.80249  -7483465.43247  22063296.4754   22063301.7344
     -2412.1314      -1879.5824
 00  1  6  0 16  0.0000000  0  8G 8G26G 9G 5G 2G 4G24G 7
  21153877.6264  -15712404.79548 -12231252.08247  21153875.8664   21153881.3214
     -2917.9844      -2273.7524
  24862170.9164    1492684.93347   1397347.47545  24862170.7614   24862179.2154
     -2992.3364      -2331.6824
  21470890.0224  -16327768.12249 -12494617.33347  21470889.0284   21470894.3954
       886.0344        690.4144
  23706694.2864   -7660892.53247  -5622509.57945  23706692.6404   23706698.6294
      2323.6644       1810.6464
  22925030.7064   -6955933.40048  -5406146.39046  22925029.1654   22925035.5664
     -2205.8474      -1718.8414
  21036394.5234  -16612656.92848 -12712685.58447  21036393.5904   21036398.5714
      1063.7134        828.8654
  22808846.9974  -11124011.62748  -8402501.99646  22808846.1234   22808852.7114
      2929.6214       2282.8184
  22077089.2344   -9554499.18249  -7426992.48247  22077087.6614   22077092.6734
     -2418.0824      -1884.2204
 00  1  6  0 16 30.0000000  0  8G 8G26G 9G 5G 2G 4G24G 7
  21170572.1034  -15624672.68048 -12162889.41547  21170570.6584   21170575.7944
     -2933.5674      -2285.8964
  24879249.1114    1582431.00547   1467279.35045  24879248.5824   24879256.4834
     -2993.2604      -2332.4094
  21465873.9254  -16354129.20149 -12515158.39747  21465872.8734   21465877.9974
       868.7184        676.9224
  23693422.5154   -7730628.86547  -5676849.42845  23693421.1794   23693427.7424
      2322.9434       1810.0754
  22937642.5234   -6889658.19148  -5354503.40046  22937640.9774   22937647.5264
     -2215.1084      -1726.0594
  21030369.0254  -16644319.77048 -12737357.89147  21030368.5364   21030373.0764
      1044.5104        813.9024
  22792141.4114  -11211796.63348  -8470905.78946  22792140.4654   22792147.1484
      2920.1104       2275.4094
  22090899.2584   -9481927.68849  -7370443.26947  22090897.7394   22090902.6284
     -2422.8764      -1887.9554
 00  1  6  0 17  0.0000000  0  8G 8G26G 9G 5G 2G 4G24G 7
  21187362.2984  -15536440.79848 -12094137.31347  21187360.7324   21187365.7374
     -2946.5074      -2295.9784
  24896339.2654    1672236.14847   1537257.29145  24896338.6624   24896345.6234
     -2991.9064      -2331.3514
  21460963.9654  -16379932.32949 -12535264.70047  21460962.7694   21460967.8744
       853.4034        664.9884
  23680160.3554   -7800320.85847  -5731154.69845  23680159.2164   23680166.4364
      2325.1654       1811.8144
  22950315.4404   -6823064.03348  -5302611.88146  22950313.6474   22950319.9454
     -2222.7074      -1731.9784
  21024459.1794  -16675377.74448 -12761558.87247  21024458.3254   21024462.7814
      1027.9784        801.0224
  22775496.2294  -11299268.14948  -8539065.31246  22775495.4074   22775501.9984
      2913.2754       2270.0814
  22104742.5614   -9409181.68649  -7313758.07147  22104741.1404   22104745.6574
     -2425.0334      -1889.6354
 00  1  6  0 17 30.0000000  0  8G 8G26G 9G 5G 2G 4G24G 7
  21204216.0784  -15447873.58248 -12025123.90947  21204214.4914   21204219.4174
     -2959.3414      -2305.9804
  24913412.0824    1761953.58847   1607166.91445  24913411.7904   24913419.0974
     -2990.8834      -2330.5534
  21456133.0254  -16405320.77749 -12555047.86847  21456131.8564   21456136.7684
       837.6494        652.7124
  23666878.0534   -7870127.65148  -5785549.44746  23666876.2234   23666883.1644
      2326.8984       1813.1614
  22963023.2274   -6756283.10848  -5250574.81446  22963021.7034   22963027.4614
     -2230.4514      -1738.0164
  21018634.2104  -16705986.53948 -12785409.84347  21018633.3224   21018637.6814
      1010.9064        787.7184
  22758879.0784  -11386590.34248  -8607108.45146  22758877.7114   22758885.0024
      2906.9494       2265.1514
  22118589.3874   -9336418.22749  -7257059.26747  22118587.7364   22118592.6364
     -2427.4714      -1891.5354
 00  1  6  0 18  0.0000000  0  8G 8G26G 9G 5G 2G 4G24G 7
  21221141.6574  -15358929.20548 -11955816.61647  21221140.1514   21221144.8174
     -2971.5234      -2315.4724
  24930479.5844    1851642.18147   1677054.03445  24930478.4844   24930486.3204
     -2989.3294      -2329.3364
  21451391.2284  -16430241.14449 -12574466.30747  21451389.9724   21451394.3834
       822.6964        641.0614
  23653587.1554   -7939970.17848  -5839972.05946  23653585.9444   23653592.4984
      2328.1384       1814.1284
  22975770.7134   -6689291.79048  -5198373.82646  22975768.8264   22975775.6534
     -2236.4874      -1742.7154
  21012908.9854  -16736068.90548 -12808850.60847  21012908.3014   21012913.2044
       993.4594        774.1224
  22742296.1734  -11473733.59448  -8675012.15546  22742295.2844   22742302.5524
      2901.6174       2260.9974
  22132450.2364   -9263578.80649  -7200301.27647  22132448.6534   22132453.7734
     -2429.8594      -1893.3974
 00  1  6  0 18 30.0000000  0  8G 8G26G 9G 5G 2G 4G24G 7
  21238142.5214  -15269589.98248 -11886201.65247  21238140.7254   21238145.6564
     -2985.7384      -2326.5494
  24947539.2124    1941291.83247   1746910.81245  24947538.4674   24947547.2424
     -2988.4884      -2328.6964
  21446739.9694  -16454681.88649 -12593511.01347  21446739.0864   21446743.5694
       805.4154        627.5954
  23640293.7804   -8009824.61948  -5894403.94246  23640292.0004   23640299.5654
      2327.5904       1813.7004
  22988555.5964   -6622106.90848  -5146022.01546  22988554.0544   22988560.3454
     -2243.6014      -1748.2614
  21007287.1254  -16765611.97248 -12831871.14447  21007286.6384   21007291.5954
       974.8084        759.5904
  22725746.4034  -11560705.30448  -8742782.18346  22725744.9544   22725751.9384
      2895.2404       2256.0274
  22146329.5964   -9190640.78849  -7143466.46047  22146328.0474   22146333.6754
     -2434.0574      -1896.6684
 00  1  6  0 19  0.0000000  0  8G 8G26G 9G 5G 2G 4G24G 7
  21255223.4304  -15179826.76648 -11816256.30447  21255221.8334   21255227.0974
     -2999.3944      -2337.1894
  24964595.6614    2030922.13647   1816752.44745  24964594.0054   24964603.3444
     -2987.9814      -2328.2934
  21442189.1604  -16478598.59849 -12612147.37947  21442187.8804   21442192.5664
       788.0814        614.0884
  23627006.3654   -8079648.16647  -5948811.75846  23627004.9184   23627011.6784
      2326.3194       1812.7124
  23001381.7164   -6554705.16648  -5093501.21646  23001380.1714   23001386.5484
     -2250.8654      -1753.9194
  21001772.8684  -16794592.51148 -12854453.34347  21001771.8794   21001776.8434
       956.1044        745.0154
  22709233.8964  -11647480.84448  -8810399.34046  22709232.5434   22709238.4614
      2888.5504       2250.8144
  22160234.3524   -9117569.18549  -7086527.56447  22160232.8364   22160238.6484
     -2438.6034      -1900.2094
 00  1  6  0 19 30.0000000  0  8G 8G26G 9G 5G 2G 4G24G 7
  21272390.7954  -15089612.37448 -11745959.38547  21272389.2424   21272394.4114
     -3014.1934      -2348.7214
  24981656.2544    2120575.90247   1886612.37445  24981655.3974   24981663.8564
     -2988.1554      -2328.4344
  21437744.8164  -16501953.61149 -12630346.05647  21437743.5604   21437748.1744
       769.8884        599.9114
  23613736.7624   -8149379.15147  -6003147.44245  23613735.5914   23613741.4214
      2323.1864       1810.2704
  23014256.6304   -6487049.04048  -5040782.19246  23014255.0964   23014261.1994
     -2258.5144      -1759.8824
  20996374.4824  -16822960.34948 -12876558.11447  20996373.6884   20996378.8224
       935.8854        729.2594
  22692769.5524  -11733997.60848  -8877814.86746  22692768.7924   22692774.5114
      2879.9854       2244.1384
  22174176.2344   -9044305.89049  -7029439.29347  22174174.6474   22174179.7434
     -2444.9524      -1905.1584
 00  1  6  0 20  0.0000000  0  8G 8G26G 9G 5G 2G 4G24G 7
  21289629.8584  -14999020.78948 -11675368.55547  21289628.3274   21289633.6024
     -3026.1454      -2358.0354
  24998703.7354    2210161.82347   1956419.44645  24998703.5464   24998711.0194
     -2985.1124      -2326.0564
  21433390.5544  -16524834.57949 -12648175.35447  21433389.3954   21433394.3424
       754.7544        588.1194
  23600473.1264   -8219084.48547  -6057463.16846  23600471.2174   23600476.8534
      2323.4364       1810.4614
  23027161.6324   -6419231.91148  -4987937.71346  23027160.0344   23027166.2334
     -2263.6024      -1763.8454
  20991076.4044  -16850801.60948 -12898252.56647  20991075.6684   20991080.7644
       919.3904        716.4064
  22676344.0504  -11820312.66948  -8945073.21746  22676342.9554   22676349.4874
      2873.4404       2239.0424
  22188140.4444   -8970923.45048  -6972258.17747  22188138.9434   22188143.9574
     -2448.0864      -1907.5994
 00  1  6  0 20 30.0000000  0  8G 8G26G 9G 5G 2G 4G24G 7
  21306934.6214  -14908083.62948 -11604508.44647  21306933.1754   21306938.1254
     -3038.3914      -2367.5764
  25015732.4854    2299644.82247   2026146.35745  25015730.8354   25015739.0554
     -2982.4194      -2323.9674
  21429121.3154  -16547267.75649 -12665655.72447  21429120.1324   21429125.1334
       738.9444        575.8014
  23587201.2624   -8288828.04848  -6111808.68446  23587199.9614   23587205.5714
      2324.2034       1811.0664
  23040094.0884   -6351268.05648  -4934978.89946  23040092.8564   23040099.2714
     -2269.3624      -1768.3324
  20985867.9664  -16878172.67749 -12919580.63447  20985867.1404   20985872.3594
       903.1544        703.7554
  22659954.2214  -11906436.41948  -9012182.48946  22659953.4484   22659960.6794
      2866.0424       2233.2764
  22202119.4704   -8897466.26448  -6915018.81847  22202117.7184   22202122.3254
     -2451.1334      -1909.9754
 00  1  6  0 21  0.0000000  0  8G 8G26G 9G 5G 2G 4G24G 7
  21324331.6664  -14816662.37448 -11533271.11547  21324329.8864   21324335.1714
     -3054.8174      -2380.3764
  25032768.6084    2389172.46947   2095908.06645  25032768.4564   25032775.7904
     -2984.5734      -2325.6314
  21424964.2364  -16569112.75949 -12682677.77447  21424963.1414   21424968.1744
       718.8614        560.1504
  23573947.5354   -8358475.70448  -6166079.44446  23573945.8024   23573952.7524
      2320.6744       1808.3124
  23053085.0584   -6283002.74948  -4881785.19046  23053083.5904   23053090.1714
     -2280.1314      -1776.7234
  20980776.7154  -16904929.31149 -12940429.92347  20980775.8104   20980780.7384
       881.9624        687.2424
  22643631.3424  -11992215.82348  -9079023.43746  22643630.1064   22643637.6654
      2854.1094       2223.9764
  22216138.0174   -8823797.16748  -6857614.33347  22216136.4184   22216140.8994
     -2458.7224      -1915.8874
 00  1  6  0 21 30.0000000  0  8G 8G26G 9G 5G 2G 4G24G 7
  21341815.2704  -14724784.26848 -11461677.80247  21341813.9244   21341818.8284
     -3070.2104      -2392.3694
  25049806.5024    2478706.58247   2165674.76245  25049805.1964   25049814.4254
     -2984.1714      -2325.3204
  21420914.3094  -16590394.56049 -12699260.97047  21420913.3534   21420918.3374
       700.3114        545.6964
  23560702.9124   -8428072.19748  -6220310.33146  23560701.5934   23560709.1224
      2319.5024       1807.4004
  23066128.2194   -6214462.54548  -4828377.27146  23066126.5894   23066132.9784
     -2288.8454      -1783.5144
  20975798.0944  -16931091.59749 -12960816.08347  20975797.2374   20975802.2944
       862.5044        672.0784
  22627366.9574  -12077687.65748  -9145624.73746  22627365.7904   22627372.7664
      2844.6074       2216.5744
  22230189.7694   -8749954.73148  -6800074.77547  22230188.0904   22230192.8274
     -2463.7264      -1919.7874
 00  1  6  0 22  0.0000000  0  8G 8G26G 9G 5G 2G 4G24G 7
  21359383.2834  -14632465.65348 -11389741.23247  21359381.5404   21359386.4424
     -3085.1254      -2403.9924
  25066837.8074    2568207.55347   2235415.62645  25066836.4044   25066845.6314
     -2983.4104      -2324.7364
  21416966.5494  -16611142.16149 -12715427.90247  21416965.3594   21416970.1754
       682.1174        531.5204
  23547457.5294   -8497672.47648  -6274544.13646  23547455.8684   23547464.2564
      2319.8134       1807.6424
  23079216.9224   -6145679.30348  -4774779.97646  23079215.6484   23079222.5674
     -2297.4434      -1790.2144
  20970926.3404  -16956692.27549 -12980764.63047  20970925.4504   20970930.4164
       843.2024        657.0404
  22611149.6954  -12162908.71848  -9212030.63146  22611148.6754   22611155.4514
      2836.1244       2209.9644
  22244261.4314   -8676004.98148  -6742451.60247  22244259.8774   22244265.4544
     -2467.2224      -1922.5094
 00  1  6  0 22 30.0000000  0  8G 8G26G 9G 5G 2G 4G24G 7
  21377033.8854  -14539709.79048 -11317463.95147  21377032.4884   21377037.4004
     -3099.4074      -2415.1234
  25083861.7704    2657668.56147   2305125.36245  25083860.9314   25083870.2234
     -2981.5144      -2323.2494
  21413120.0984  -16631353.60449 -12731177.05947  21413119.0164   21413124.0284
       664.5684        517.8444
  23534211.0614   -8567288.10048  -6328789.91946  23534209.4874   23534216.1314
      2320.0614       1807.8344
  23092352.7904   -6076649.68948  -4720990.71346  23092351.1184   23092358.2034
     -2305.3594      -1796.3824
  20966165.4084  -16981711.40249 -13000260.02547  20966164.6504   20966169.2724
       823.6574        641.8104
  22594977.4684  -12247895.82748  -9278254.23046  22594976.2904   22594982.9354
      2828.7164       2204.1924
  22258351.6354   -8601959.30748  -6684753.69747  22258350.1884   22258355.7514
     -2470.2934      -1924.9044
 00  1  6  0 23  0.0000000  0  8G 8G26G 9G 5G 2G 4G24G 7
  21394769.8984  -14446507.43748 -11244838.75147  21394768.3954   21394773.5354
     -3114.7664      -2427.0904
  25100878.0624    2747091.31647   2374805.24445  25100877.5294   25100886.8404
     -2980.9054      -2322.7784
  21409376.9424  -16651022.89049 -12746503.75047  21409375.8164   21409380.8884
       645.9994        503.3754
  23520969.4164   -8636875.63248  -6383013.83946  23520968.0844   23520973.1344
      2318.3804       1806.5244
  23105538.8614   -6007358.32948  -4666997.47346  23105537.3234   23105543.3964
     -2314.7014      -1803.6614
  20961521.8234  -17006112.31949 -13019273.69447  20961521.0474   20961525.8264
       802.2594        625.1364
  22578851.4254  -12332637.42948  -9344286.53246  22578850.3694   22578856.4844
      2819.9234       2197.3394
  22272462.9954   -8527806.43448  -6626972.25047  22272461.3784   22272466.8154
     -2474.1354      -1927.8974
 00  1  6  0 23 30.0000000  0  8G 8G26G 9G 5G 2G 4G24G 7
  21412601.3274  -14352800.90048 -11171820.68647  21412599.8934   21412605.2394
     -3130.8454      -2439.6204
  25117900.3634    2836538.82547   2444504.43345  25117899.1804   25117907.7034
     -2980.9914      -2322.8434
  21405747.3014  -16670096.56849 -12761366.33347  21405746.2364   21405751.1824
       627.1414        488.6804
  23507745.2334   -8706368.38548  -6437163.91946  23507743.7954   23507748.8314
      2315.8264       1804.5394
  23118784.5204   -5937752.68848  -4612759.34346  23118782.7894   23118789.7394
     -2324.0624      -1810.9574
  20957008.0924  -17029832.38349 -13037756.82747  20957007.3014   20957011.9064
       780.5924        608.2534
  22562783.9954  -12417071.12648  -9410078.91346  22562782.7624   22562789.9104
      2810.3374       2189.8684
  22286602.9644   -8453499.21948  -6569070.53947  22286601.4724   22286606.9894
     -2478.3754      -1931.2004
 00  1  6  0 24  0.0010000  0  8G 8G26G 9G 5G 2G 4G24G 7
  21430505.8174  -14258713.31048 -11098505.69747  21430504.3564   21430509.6644
     -3142.4614      -2448.6704
  25134907.0424    2925911.23647   2514145.13645  25134906.5744   25134914.7514
     -2978.0134      -2320.5244
  21402207.1894  -16688700.95549 -12775863.23647  21402206.0384   21402210.7344
       611.9244        476.8244
  23494519.3624   -8775867.36448  -6491318.85146  23494518.1334   23494523.5294
      2316.1704       1804.8084
  23132066.4264   -5867958.48048  -4558374.26646  23132064.5694   23132070.4004
     -2329.8614      -1815.4744
  20952600.6364  -17052994.34049 -13055805.07447  20952599.6864   20952604.1794
       762.3334        594.0264
  22546755.3494  -12501301.14348  -9475712.58546  22546754.4784   22546761.7304
      2803.4604       2184.5144
  22300751.7714   -8379147.68948  -6511134.28747  22300750.2664   22300755.1404
     -2479.6694      -1932.2094
 00  1  6  0 24 30.0010000  0  8G 8G26G 9G 5G 2G 4G24G 7
  21448484.6334  -14164233.71948 -11024885.25147  21448483.2484   21448488.4524
     -3156.8934      -2459.9174
  25151907.3094    3015248.26647   2583758.27745  25151906.8494   25151913.9824
     -2978.6194      -2320.9964
  21398765.8404  -16706785.68149 -12789955.20947  21398764.6224   21398769.3394
       592.9334        462.0254
  23481304.2104   -8845312.40148  -6545431.72046  23481302.8904   23481310.0844
      2312.7504       1802.1384
  23145390.5354   -5797934.44248  -4503810.10046  23145388.9934   23145395.6534
     -2339.1264      -1822.6964
  20948308.0154  -17075551.65949 -13073382.17247  20948307.2404   20948311.7204
       740.7624        577.2174
  22530779.8874  -12585253.71148  -9541130.07246  22530778.5674   22530785.5514
      2792.4824       2175.9574
  22314920.2004   -8304691.44848  -6453116.43947  22314918.6184   22314923.5314
     -2484.8694      -1936.2614
 00  1  6  0 25  0.0010000  0  8G 8G26G 9G 5G 2G 4G24G 7
  21466548.5484  -14069307.24748 -10950916.58147  21466546.9674   21466552.1874
     -3171.1614      -2471.0354
  25168916.4544    3104625.46547   2653402.69545  25168914.0534   25168922.3394
     -2979.2884      -2321.5214
  21395436.5214  -16724280.18449 -12803587.26947  21395435.4214   21395440.1274
       573.7234        447.0564
  23468111.3614   -8914641.91348  -6599454.58146  23468109.8044   23468116.9204
      2309.8574       1799.8844
  23158771.2204   -5727622.90548  -4449021.91846  23158769.4484   23158775.7724
     -2347.7784      -1829.4344
  20944140.8644  -17097450.82249 -13090446.42747  20944139.9714   20944144.5314
       719.7144        560.8144
  22514870.9264  -12668854.73748  -9606273.64546  22514870.2024   22514876.3914
      2781.4464       2167.3584
  22329120.0764   -8230070.73648  -6394970.42747  22329118.5034   22329123.2124
     -2489.5444      -1939.9064
 00  1  6  0 25 30.0010000  0  8G 8G26G 9G 5G 2G 4G24G 7
  21484684.4874  -13974001.18348 -10876652.12947  21484683.0754   21484688.2104
     -3184.0524      -2481.0794
  25185916.8214    3193965.31747   2723018.00345  25185916.2054   25185923.7734
     -2978.0584      -2320.5614
  21392210.1474  -16741235.64949 -12816799.29947  21392208.9884   21392213.3794
       555.1734        432.6034
  23454923.3564   -8983941.42748  -6653454.09246  23454922.0634   23454929.2034
      2308.6254       1798.9274
  23172188.9564   -5657107.27648  -4394074.70446  23172187.6204   23172194.2464
     -2354.8264      -1834.9284
  20940082.8884  -17118775.16649 -13107062.77347  20940082.0984   20940086.6134
       700.4324        545.7914
  22499016.2054  -12752173.90648  -9671197.60146  22499014.8724   22499021.4864
      2771.6854       2159.7514
  22343338.5304   -8155352.04548  -6336748.06647  22343336.8994   22343342.2044
     -2493.3004      -1942.8314
 00  1  6  0 26  0.0010000  0  8G 8G26G 9G 5G 2G 4G24G 7
  21502892.0904  -13878318.41948 -10802094.14447  21502890.6724   21502896.2894
     -3194.4804      -2489.2044
  25202908.4634    3283255.40447   2792594.52645  25202907.6564   25202916.0524
     -2974.2584      -2317.5964
  21389090.4524  -16757630.74749 -12829574.68147  21389089.2994   21389093.9564
       538.2364        419.4044
  23441742.7594   -9053209.98748  -6707429.49446  23441741.0244   23441747.3314
      2309.7494       1799.8034
  23185649.8284   -5586374.92348  -4338958.60746  23185648.0114   23185654.2604
     -2360.3404      -1839.2254
  20936135.7024  -17139518.69049 -13123226.52647  20936134.9124   20936139.4074
       682.7824        532.0364
  22483216.2644  -12835200.66348  -9735893.70746  22483215.0504   22483221.8084
      2763.9314       2153.7114
  22357576.8704   -8080529.38048  -6278444.69847  22357575.2234   22357581.0024
     -2494.7814      -1943.9864
 00  1  6  0 26 30.0010000  0  8G 8G26G 9G 5G 2G 4G24G 7
  21521173.0014  -13782255.45348 -10727239.90147  21521171.2974   21521176.5004
     -3209.9244      -2501.2394
  25219888.6264    3372486.38247   2862124.98245  25219888.0954   25219896.9484
     -2974.7834      -2318.0054
  21386079.8494  -16773452.99149 -12841903.67847  21386078.5644   21386082.9094
       516.6944        402.6174
  23428565.5004   -9122454.10648  -6761385.86346  23428563.8064   23428570.5034
      2306.3434       1797.1494
  23199152.0614   -5515417.32148  -4283666.98646  23199150.5854   23199156.9374
     -2370.2224      -1846.9244
  20932299.9434  -17159674.24149 -13138932.11647  20932299.2074   20932303.7394
       660.7944        514.9034
  22467471.9204  -12917938.11248  -9800364.37546  22467470.5654   22467477.1804
      2751.8364       2144.2874
  22371834.9094   -8005603.23948  -6220060.70647  22371833.3814   22371839.2054
     -2500.4444      -1948.3984
 00  1  6  0 27  0.0010000  0  8G 8G26G 9G 5G 2G 4G24G 7
  21539530.6154  -13685785.07748 -10652068.19247  21539529.0864   21539534.2184
     -3222.9934      -2511.4234
  25236858.8954    3461663.27047   2931613.28545  25236857.2744   25236866.4214
     -2971.9204      -2315.7764
  21383179.3054  -16788694.22549 -12853779.94147  21383178.0344   21383182.7764
       498.0884        388.1184
  23415396.7124   -9191654.50148  -6815308.17146  23415395.4694   23415401.7374
      2305.4744       1796.4674
  23212699.9434   -5444224.39748  -4228191.99746  23212697.9284   23212704.8784
     -2377.4744      -1852.5804
  20928576.5744  -17179239.95349 -13154178.08747  20928575.7684   20928580.6794
       642.0004        500.2584
  22451783.0924  -13000380.70448  -9864605.29146  22451782.2194   22451788.6404
      2742.7064       2137.1714
  22386113.9244   -7930567.05348  -6161590.95347  22386112.1644   22386117.3264
     -2503.7194      -1950.9514
 00  1  6  0 27 30.0010000  0  8G 8G26G 9G 5G 2G 4G24G 7
  21557972.3884  -13588872.56948 -10576551.97047  21557970.7914   21557976.0664
     -3234.9524      -2520.7404
  25253821.6194    3550814.04947   3001081.19945  25253821.4554   25253830.9324
     -2968.7014      -2313.2594
  21380394.3984  -16803329.64549 -12865184.14047  21380393.1534   21380397.7244
       480.7144        374.5814
  23402245.4024   -9260769.43348  -6869163.90246  23402243.4824   23402249.5764
      2305.0614       1796.1504
  23226301.3704   -5372747.85348  -4172496.01146  23226299.8674   23226306.2924
     -2384.6254      -1858.1484
  20924970.8614  -17198189.93549 -13168944.27647  20924970.1214   20924974.5654
       624.1084        486.3164
  22436158.6624  -13082490.71748  -9928587.06346  22436157.3234   22436163.7924
      2734.1564       2130.5104
  22400422.7514   -7855373.26848  -6102998.39247  22400421.1394   22400426.3164
     -2506.4664      -1953.0884
 00  1  6  0 28  0.0010000  0  8G 8G26G 9G 5G 2G 4G24G 7
  21576484.4294  -13491590.66348 -10500747.90747  21576483.0104   21576488.0354
     -3249.7694      -2532.2854
  25270771.8394    3639885.29647   3070487.16245  25270771.1744   25270780.8024
     -2968.7294      -2313.2914
  21377708.8664  -16817440.55349 -12876179.62947  21377707.8904   21377712.6734
       461.0084        359.2264
  23389097.6174   -9329857.96448  -6922999.08746  23389096.3924   23389102.1824
      2301.8164       1793.6234
  23239946.7304   -5301041.40248  -4116620.87246  23239945.0734   23239951.3524
     -2394.8214      -1866.0914
  20921470.4354  -17216583.43149 -13183276.83847  20921469.6254   20921474.3054
       602.9494        469.8294
  22420584.9564  -13164330.98248  -9992358.63646  22420583.6634   22420590.1724
      2722.7394       2121.6134
  22414749.7624   -7780085.23848  -6044332.39247  22414748.1704   22414752.8474
     -2512.1684      -1957.5334
 00  1  6  0 28 30.0010000  0  8G 8G26G 9G 5G 2G 4G24G 7
  21595071.2824  -13393916.84148 -10424638.44547  21595069.6644   21595074.6654
     -3263.3694      -2542.8834
  25287713.8874    3728910.11047   3139856.97445  25287713.0264   25287722.7074
     -2967.9064      -2312.6484
  21375124.3534  -16831023.79549 -12886763.94747  21375123.2604   21375127.8344
       442.9604        345.1634
  23375959.5304   -9398898.16948  -6976796.58746  23375958.2644   23375964.9814
      2299.3654       1791.7104
  23253639.2704   -5229081.51448  -4060548.25246  23253638.0264   23253645.1934
     -2404.0274      -1873.2644
  20918079.7414  -17234400.36649 -13197160.12647  20918079.0664   20918083.9704
       583.0894        454.3544
  22405066.4134  -13245883.39248 -10055905.90746  22405064.8934   22405071.4144
      2712.4264       2113.5754
  22429100.3924   -7704672.12848  -5985568.92747  22429098.5984   22429103.5594
     -2516.9584      -1961.2664
 00  1  6  0 29  0.0010000  0  7G 8G 9G 5G 2G 4G24G 7
  21613732.9854  -13295847.32148 -10348220.65447  21613731.4384   21613736.9314
     -3274.0314      -2551.1924
  21372641.9274  -16844068.83349 -12896928.88547  21372640.6874   21372645.6794
       427.3524        333.0014
  23362833.6774   -9467878.03248  -7030547.08346  23362832.3804   23362838.0314
      2299.9404       1792.1604
  23267386.1594   -5156845.07748  -4004260.14546  23267384.6604   23267391.0164
     -2411.0154      -1878.7114
  20914802.6914  -17251621.00749 -13210578.77647  20914802.0794   20914806.8834
       565.4854        440.6374
  22389605.4494  -13327125.11048 -10119211.08246  22389604.6964   22389611.0324
      2704.3054       2107.2484
  22443477.2714   -7629120.83148  -5926697.78647  22443475.6984   22443480.5574
     -2519.3584      -1963.1384
 00  1  6  0 29 30.0010000  0  7G 8G 9G 5G 2G 4G24G 7
  21632448.4214  -13197498.82548 -10271585.48347  21632446.8494   21632451.8894
     -3285.4034      -2560.0554
  21370240.2894  -16856688.26549 -12906762.17847  21370239.2314   21370244.2984
       411.1364        320.3654
  23349695.5484   -9536918.61948  -7084344.90146  23349694.0784   23349700.2214
      2300.2724       1792.4204
  23281162.5804   -5084448.17348  -3947846.98946  23281161.0284   23281167.6364
     -2417.8674      -1884.0544
  20911620.0614  -17268347.43549 -13223612.32347  20911619.2534   20911623.7704
       546.9134        426.1634
  22374185.2004  -13408162.91048 -10182357.35546  22374184.0194   22374190.2774
      2695.6314       2100.4914
  22457859.4884   -7553541.84748  -5867805.06647  22457858.0254   22457862.9604
     -2522.0494      -1965.2354
 00  1  6  0 30  0.0010000  0  7G 8G 9G 5G 2G 4G24G 7
  21651250.8614  -13098691.00148 -10194592.38847  21651249.2684   21651254.5624
     -3300.4704      -2571.7934
  21367954.9004  -16868698.62849 -12916120.87147  21367953.7104   21367958.6054
       390.9134        304.6074
  23336576.4184   -9605860.86948  -7138066.08046  23336574.9874   23336580.7264
      2297.2514       1790.0634
  23294999.7634   -5011736.74448  -3891188.76246  23294997.9574   23295004.2634
     -2428.1294      -1892.0514
  20908565.4634  -17284399.19449 -13236120.15747  20908564.6024   20908569.1644
       524.5764        408.7594
  22358834.4554  -13488828.17448 -10245213.35346  22358833.4844   22358840.0434
      2683.3494       2090.9214
  22472277.9124   -7477771.89848  -5808763.55047  22472276.1984   22472281.5504
     -2528.0844      -1969.9354
 00  1  6  0 30 30.0010000  0  7G 8G 9G 5G 2G 4G24G 7
  21670129.8494  -12999479.76948 -10117284.95547  21670128.5444   21670133.7534
     -3312.5904      -2581.2394
  21365777.9814  -16880137.21049 -12925034.01947  21365776.7714   21365781.9074
       372.5564        290.3024
  23323465.9394   -9674756.74648  -7191751.13446  23323464.4634   23323469.6514
      2296.7804       1789.6984
  23308886.0874   -4938764.64848  -3834327.39246  23308884.0644   23308890.3864
     -2435.6684      -1897.9224
  20905628.8874  -17299828.86149 -13248143.24347  20905628.2884   20905633.0134
       505.1504        393.6224
  22343545.6034  -13569171.53148 -10307818.50346  22343544.4684   22343551.0034
      2673.6924       2083.3934
  22486722.2514   -7401863.48248  -5749614.15147  22486720.8414   22486726.8384
     -2531.4054      -1972.5224
 00  1  6  0 31  0.0010000  0  7G 8G 9G 5G 2G 4G24G 7
  21689073.2044  -12899934.36748 -10039717.12847  21689071.5724   21689076.1774
     -3323.9934      -2590.1224
  21363702.2414  -16891044.36549 -12933533.07147  21363701.1994   21363706.2594
       354.6264        276.3314
  23310351.0674   -9743674.06348  -7245452.86746  23310349.5994   23310355.1514
      2297.3344       1790.1304
  23322808.4394   -4865601.45448  -3777317.12246  23322807.0614   23322812.9004
     -2441.9134      -1902.7914
  20902796.5124  -17314713.56749 -13259741.68347  20902795.7444   20902800.5064
       487.0514        379.5184
  22328306.3484  -13649253.59748 -10370220.05046  22328305.2914   22328311.7214
      2664.8674       2076.5184
  22501179.6274   -7325894.23948  -5690417.35347  22501177.7764   22501182.9684
     -2533.6084      -1974.2404
 00  1  6  0 31 30.0010000  0  7G 8G 9G 5G 2G 4G24G 7
  21708088.7004  -12800007.44248  -9961852.00547  21708086.9384   21708091.8334
     -3337.8384      -2600.9104
  21361734.0944  -16901383.63349 -12941589.60947  21361733.3354   21361738.6444
       334.4454        260.6054
  23297241.9384   -9812561.78548  -7299131.52546  23297240.5944   23297246.6814
      2295.0074       1788.3144
  23336771.6414   -4792223.41848  -3720139.44546  23336770.2134   23336776.5384
     -2450.1744      -1909.2274
  20900074.6934  -17329018.32749 -13270888.22147  20900073.8194   20900078.4684
       466.3114        363.3594
  22313124.1454  -13729038.46248 -10432390.00346  22313122.9464   22313129.3694
      2653.8064       2067.9014
  22515653.1034   -7249832.13348  -5631148.17847  22515651.8944   22515656.6444
     -2537.5274      -1977.2944
